time,state,controller_mode,target_z,curr_z,raw_z,height_for_safety,target_vz,curr_vz,thrust,raw_thrust,search_thrust,liftoff_thrust,hover_thrust_est,thrust_no_floor,floor_applied,a_cmd_z,v_cmd_z,z_integral,roll_cmd_deg,pitch_cmd_deg,yaw_cmd_deg,yaw_mocap_deg,mocap_age,kf_used_measurement,mavlink_sent,mav_mode,mav_heartbeat_age,mav_send_count,mav_last_thrust
0.002,THRUST_SEARCH,OPEN_LOOP,0.0001,9e-05,9e-05,9e-05,0.0,0.0,0.58,0.58,0.58,,0.67,,False,0.0,0.0,0.0,0.0,0.0,0.5304,0.533,0.006,True,True,Mode(963497464),0.0,0,
0.01,THRUST_SEARCH,OPEN_LOOP,0.0001,6e-05,2e-05,6e-05,0.0,-9e-05,0.5804,0.5804,0.5804,,0.67,,False,0.0,0.0,0.0,0.0,0.0,0.5304,0.5329,0.0075,True,False,Mode(963497464),0.0105,1,0.58
0.021,THRUST_SEARCH,OPEN_LOOP,0.0001,6e-05,7e-05,7e-05,0.0,-5e-05,0.5809,0.5809,0.5809,,0.67,,False,0.0,0.0,0.0,0.0,0.0,0.5304,0.5313,0.001,True,False,Mode(963497464),0.0215,1,0.58
0.032,THRUST_SEARCH,OPEN_LOOP,0.0001,7e-05,8e-05,8e-05,0.0,3e-05,0.5813,0.5813,0.5813,,0.67,,False,0.0,0.0,0.0,0.0,0.0,0.5304,0.5309,0.003,True,False,Mode(963497464),0.0324,1,0.58
0.043,THRUST_SEARCH,OPEN_LOOP,0.0001,6e-05,6e-05,6e-05,0.0,-2e-05,0.5817,0.5817,0.5817,,0.67,,False,0.0,0.0,0.0,0.0,0.0,0.5304,0.5322,0.005,True,False,Mode(963497464),0.0434,1,0.58
0.054,THRUST_SEARCH,OPEN_LOOP,0.0001,6e-05,5e-05,6e-05,0.0,-6e-05,0.5822,0.5822,0.5822,,0.67,,False,0.0,0.0,0.0,0.0,0.0,0.5304,0.5317,0.0007,True,True,Mode(963497464),0.0543,1,0.58
0.065,THRUST_SEARCH,OPEN_LOOP,0.0,5e-05,1e-05,5e-05,0.0,-0.00029,0.5826,0.5826,0.5826,,0.67,,False,0.0,0.0,0.0,0.0,0.0,0.5304,0.531,0.003,True,False,Mode(963497464),0.0653,2,0.5822
0.076,THRUST_SEARCH,OPEN_LOOP,0.0,5e-05,7e-05,7e-05,0.0,-0.00018,0.583,0.583,0.583,,0.67,,False,0.0,0.0,0.0,0.0,0.0,0.5304,0.5321,0.0045,True,False,Mode(963497464),0.0758,2,0.5822
0.087,THRUST_SEARCH,OPEN_LOOP,0.0001,5e-05,6e-05,6e-05,0.0,-0.00014,0.5835,0.5835,0.5835,,0.67,,False,0.0,0.0,0.0,0.0,0.0,0.5304,0.5274,0.007,True,False,Mode(963497464),0.0867,2,0.5822
0.097,THRUST_SEARCH,OPEN_LOOP,0.0001,6e-05,8e-05,8e-05,0.0,-3e-05,0.5839,0.5839,0.5839,,0.67,,False,0.0,0.0,0.0,0.0,0.0,0.5304,0.5287,0.003,True,False,Mode(963497464),0.0972,2,0.5822
0.108,THRUST_SEARCH,OPEN_LOOP,0.0001,0.0001,0.00021,0.00021,0.0,0.00046,0.5843,0.5843,0.5843,,0.67,,False,0.0,0.0,0.0,0.0,0.0,0.5304,0.5462,0.005,True,True,Mode(963497464),0.1082,2,0.5822
0.119,THRUST_SEARCH,OPEN_LOOP,0.0001,0.0001,8e-05,0.0001,0.0,0.00038,0.5848,0.5848,0.5848,,0.67,,False,0.0,0.0,0.0,0.0,0.0,0.5304,0.5465,0.007,True,False,Mode(963497464),0.1192,3,0.5843
0.13,THRUST_SEARCH,OPEN_LOOP,0.0001,0.0001,0.00012,0.00012,0.0,0.00042,0.5852,0.5852,0.5852,,0.67,,False,0.0,0.0,0.0,0.0,0.0,0.5304,0.5467,0.009,True,False,Mode(963497464),0.1297,3,0.5843
0.14,THRUST_SEARCH,OPEN_LOOP,0.0001,0.0001,6e-05,0.0001,0.0,0.00031,0.5856,0.5856,0.5856,,0.67,,False,0.0,0.0,0.0,0.0,0.0,0.5304,0.541,0.0015,True,False,Mode(963497464),0.1401,3,0.5843
0.151,THRUST_SEARCH,OPEN_LOOP,0.0001,0.0001,8e-05,0.0001,0.0,0.00028,0.586,0.586,0.586,,0.67,,False,0.0,0.0,0.0,0.0,0.0,0.5304,0.5399,0.006,True,False,Mode(963497464),0.1511,3,0.5843
0.162,THRUST_SEARCH,OPEN_LOOP,0.0001,9e-05,4e-05,9e-05,0.0,0.00016,0.5865,0.5865,0.5865,,0.67,,False,0.0,0.0,0.0,0.0,0.0,0.5304,0.539,0.008,True,True,Mode(963497464),0.1621,3,0.5843
0.173,THRUST_SEARCH,OPEN_LOOP,0.0001,8e-05,6e-05,8e-05,0.0,0.00012,0.5869,0.5869,0.5869,,0.67,,False,0.0,0.0,0.0,0.0,0.0,0.5304,0.535,0.004,True,False,Mode(963497464),0.1732,4,0.5865
0.184,THRUST_SEARCH,OPEN_LOOP,0.0001,9e-05,9e-05,9e-05,0.0,0.00012,0.5873,0.5873,0.5873,,0.67,,False,0.0,0.0,0.0,0.0,0.0,0.5304,0.5357,0.006,True,False,Mode(963497464),0.1837,4,0.5865
0.194,THRUST_SEARCH,OPEN_LOOP,0.0001,9e-05,0.00012,0.00012,0.0,0.00016,0.5878,0.5878,0.5878,,0.67,,False,0.0,0.0,0.0,0.0,0.0,0.5304,0.5331,0.0075,True,False,Mode(963497464),0.1942,4,0.5865
0.205,THRUST_SEARCH,OPEN_LOOP,0.0001,9e-05,7e-05,9e-05,0.0,0.00013,0.5882,0.5882,0.5882,,0.67,,False,0.0,0.0,0.0,0.0,0.0,0.5304,0.5318,0.0015,True,False,Mode(963497464),0.2047,4,0.5865
0.216,THRUST_SEARCH,OPEN_LOOP,0.0001,9e-05,8e-05,9e-05,0.0,0.00012,0.5886,0.5886,0.5886,,0.67,,False,0.0,0.0,0.0,0.0,0.0,0.5304,0.5334,0.003,True,True,Mode(963497464),0.2157,4,0.5865
0.227,THRUST_SEARCH,OPEN_LOOP,0.0001,9e-05,7e-05,9e-05,0.0,9e-05,0.5891,0.5891,0.5891,,0.67,,False,0.0,0.0,0.0,0.0,0.0,0.5304,0.5342,0.005,True,False,Mode(963497464),0.2266,5,0.5886
0.237,THRUST_SEARCH,OPEN_LOOP,0.0001,8e-05,1e-05,8e-05,0.0,2e-05,0.5895,0.5895,0.5895,,0.67,,False,0.0,0.0,0.0,0.0,0.0,0.5304,0.5324,0.0098,True,False,Mode(963497464),0.2375,5,0.5886
0.249,THRUST_SEARCH,OPEN_LOOP,0.0001,7e-05,6e-05,7e-05,0.0,1e-05,0.5899,0.5899,0.5899,,0.67,,False,0.0,0.0,0.0,0.0,0.0,0.5304,0.5313,0.004,True,False,Mode(963497464),0.2486,5,0.5886
0.26,THRUST_SEARCH,OPEN_LOOP,0.0001,7e-05,2e-05,7e-05,0.0,-4e-05,0.5904,0.5904,0.5904,,0.67,,False,0.0,0.0,0.0,0.0,0.0,0.5304,0.5315,0.006,True,False,Mode(963497464),0.2596,5,0.5886
0.271,THRUST_SEARCH,OPEN_LOOP,0.0001,6e-05,2e-05,6e-05,0.0,-7e-05,0.5908,0.5908,0.5908,,0.67,,False,0.0,0.0,0.0,0.0,0.0,0.5304,0.5293,0.001,True,True,Mode(963497464),0.2705,5,0.5886
0.282,THRUST_SEARCH,OPEN_LOOP,0.0001,6e-05,6e-05,6e-05,0.0,-7e-05,0.5913,0.5913,0.5913,,0.67,,False,0.0,0.0,0.0,0.0,0.0,0.5304,0.5269,0.003,True,False,Mode(963497464),0.2815,6,0.5908
0.292,THRUST_SEARCH,OPEN_LOOP,0.0001,6e-05,5e-05,6e-05,0.0,-7e-05,0.5917,0.5917,0.5917,,0.67,,False,0.0,0.0,0.0,0.0,0.0,0.5304,0.529,0.004,True,False,Mode(963497464),0.2925,6,0.5908
0.303,THRUST_SEARCH,OPEN_LOOP,0.0001,7e-05,0.00016,0.00016,0.0,-0.0,0.5921,0.5921,0.5921,,0.67,,False,0.0,0.0,0.0,0.0,0.0,0.5304,0.5395,0.009,True,False,Mode(963497464),0.3035,6,0.5908
0.314,THRUST_SEARCH,OPEN_LOOP,0.0001,8e-05,0.0001,0.0001,0.0,2e-05,0.5926,0.5926,0.5926,,0.67,,False,0.0,0.0,0.0,0.0,0.0,0.5304,0.5521,0.001,True,False,Mode(963497464),0.3144,6,0.5908
0.326,THRUST_SEARCH,OPEN_LOOP,0.0001,7e-05,5e-05,7e-05,0.0,1e-05,0.593,0.593,0.593,,0.67,,False,0.0,0.0,0.0,0.0,0.0,0.5304,0.548,0.006,True,True,Mode(963497464),0.3254,6,0.5908
0.336,THRUST_SEARCH,OPEN_LOOP,0.0001,7e-05,5e-05,7e-05,0.0,-0.0,0.5935,0.5935,0.5935,,0.67,,False,0.0,0.0,0.0,0.0,0.0,0.5304,0.5454,0.008,True,False,Mode(963497464),0.3364,7,0.593
0.348,THRUST_SEARCH,OPEN_LOOP,0.0001,7e-05,4e-05,7e-05,0.0,-2e-05,0.5939,0.5939,0.5939,,0.67,,False,0.0,0.0,0.0,0.0,0.0,0.5304,0.5415,0.009,True,False,Mode(963497464),0.3468,7,0.593
0.358,THRUST_SEARCH,OPEN_LOOP,0.0001,7e-05,7e-05,7e-05,0.0,-2e-05,0.5943,0.5943,0.5943,,0.67,,False,0.0,0.0,0.0,0.0,0.0,0.5304,0.5356,0.005,True,False,Mode(963497464),0.3578,7,0.593
0.369,THRUST_SEARCH,OPEN_LOOP,0.0001,7e-05,9e-05,9e-05,0.0,-1e-05,0.5948,0.5948,0.5948,,0.67,,False,0.0,0.0,0.0,0.0,0.0,0.5304,0.5343,0.0073,True,False,Mode(963497464),0.3691,7,0.593
0.38,THRUST_SEARCH,OPEN_LOOP,0.0001,7e-05,7e-05,7e-05,0.0,-1e-05,0.5952,0.5952,0.5952,,0.67,,False,0.0,0.0,0.0,0.0,0.0,0.5304,0.535,0.001,True,True,Mode(963497464),0.3801,7,0.593
0.391,THRUST_SEARCH,OPEN_LOOP,0.0001,7e-05,8e-05,8e-05,0.0,-0.0,0.5956,0.5956,0.5956,,0.67,,False,0.0,0.0,0.0,0.0,0.0,0.5304,0.5315,0.003,True,False,Mode(963497464),0.3911,8,0.5952
0.402,THRUST_SEARCH,OPEN_LOOP,0.0001,7e-05,6e-05,7e-05,0.0,-1e-05,0.5961,0.5961,0.5961,,0.67,,False,0.0,0.0,0.0,0.0,0.0,0.5304,0.5307,0.0045,True,False,Mode(963497464),0.4015,8,0.5952
0.412,THRUST_SEARCH,OPEN_LOOP,0.0001,7e-05,8e-05,8e-05,0.0,-0.0,0.5965,0.5965,0.5965,,0.67,,False,0.0,0.0,0.0,0.0,0.0,0.5304,0.5322,0.0007,True,False,Mode(963497464),0.4122,8,0.5952
0.423,THRUST_SEARCH,OPEN_LOOP,0.0001,7e-05,9e-05,9e-05,0.0,1e-05,0.5969,0.5969,0.5969,,0.67,,False,0.0,0.0,0.0,0.0,0.0,0.5304,0.5291,0.003,True,False,Mode(963497464),0.4232,8,0.5952
0.434,THRUST_SEARCH,OPEN_LOOP,0.0001,8e-05,0.00011,0.00011,0.0,2e-05,0.5973,0.5973,0.5973,,0.67,,False,0.0,0.0,0.0,0.0,0.0,0.5304,0.5294,0.0045,True,True,Mode(963497464),0.4336,8,0.5952
0.445,THRUST_SEARCH,OPEN_LOOP,0.0001,8e-05,6e-05,8e-05,0.0,2e-05,0.5978,0.5978,0.5978,,0.67,,False,0.0,0.0,0.0,0.0,0.0,0.5304,0.5291,0.007,True,False,Mode(963497464),0.4446,9,0.5973
0.456,THRUST_SEARCH,OPEN_LOOP,0.0001,9e-05,0.0002,0.0002,0.0,7e-05,0.5982,0.5982,0.5982,,0.67,,False,0.0,0.0,0.0,0.0,0.0,0.5304,0.5472,0.0031,True,False,Mode(963497464),0.4557,9,0.5973
0.466,THRUST_SEARCH,OPEN_LOOP,0.0001,9e-05,0.0001,0.0001,0.0,7e-05,0.5986,0.5986,0.5986,,0.67,,False,0.0,0.0,0.0,0.0,0.0,0.5304,0.547,0.0045,True,False,Mode(963497464),0.4661,9,0.5973
0.477,THRUST_SEARCH,OPEN_LOOP,0.0001,9e-05,0.0001,0.0001,0.0,8e-05,0.5991,0.5991,0.5991,,0.67,,False,0.0,0.0,0.0,0.0,0.0,0.5304,0.5449,0.0067,True,False,Mode(963497464),0.0,9,0.5973
0.489,THRUST_SEARCH,OPEN_LOOP,0.0001,9e-05,5e-05,9e-05,0.0,6e-05,0.5995,0.5995,0.5995,,0.67,,False,0.0,0.0,0.0,0.0,0.0,0.5304,0.5456,0.009,True,True,Mode(963497464),0.011,9,0.5973
0.499,THRUST_SEARCH,OPEN_LOOP,0.0001,9e-05,9e-05,9e-05,0.0,6e-05,0.5999,0.5999,0.5999,,0.67,,False,0.0,0.0,0.0,0.0,0.0,0.5304,0.5428,0.004,True,False,Mode(963497464),0.0219,10,0.5995
0.51,THRUST_SEARCH,OPEN_LOOP,0.0001,8e-05,4e-05,8e-05,0.0,4e-05,0.6004,0.6004,0.6004,,0.67,,False,0.0,0.0,0.0,0.0,0.0,0.5304,0.5414,0.006,True,False,Mode(963497464),0.0329,10,0.5995
0.521,THRUST_SEARCH,OPEN_LOOP,0.0001,8e-05,9e-05,9e-05,0.0,4e-05,0.6008,0.6008,0.6008,,0.67,,False,0.0,0.0,0.0,0.0,0.0,0.5304,0.5374,0.008,True,False,Mode(963497464),0.0439,10,0.5995
0.532,THRUST_SEARCH,OPEN_LOOP,0.0001,8e-05,6e-05,8e-05,0.0,3e-05,0.6013,0.6013,0.6013,,0.67,,False,0.0,0.0,0.0,0.0,0.0,0.5304,0.5312,0.004,True,False,Mode(963497464),0.0549,10,0.5995
0.542,THRUST_SEARCH,OPEN_LOOP,0.0001,8e-05,6e-05,8e-05,0.0,2e-05,0.6017,0.6017,0.6017,,0.67,,False,0.0,0.0,0.0,0.0,0.0,0.5304,0.5318,0.0061,True,True,Mode(963497464),0.0654,10,0.5995
0.553,THRUST_SEARCH,OPEN_LOOP,0.0001,8e-05,0.0001,0.0001,0.0,3e-05,0.6021,0.6021,0.6021,,0.67,,False,0.0,0.0,0.0,0.0,0.0,0.5304,0.5277,0.008,True,False,Mode(963497464),0.0763,11,0.6017
0.564,THRUST_SEARCH,OPEN_LOOP,0.0001,8e-05,3e-05,8e-05,0.0,1e-05,0.6026,0.6026,0.6026,,0.67,,False,0.0,0.0,0.0,0.0,0.0,0.5304,0.5362,0.001,True,False,Mode(963497464),0.0873,11,0.6017
0.575,THRUST_SEARCH,OPEN_LOOP,0.0001,8e-05,6e-05,8e-05,0.0,0.0,0.603,0.603,0.603,,0.67,,False,0.0,0.0,0.0,0.0,0.0,0.5304,0.5365,0.003,True,False,Mode(963497464),0.0982,11,0.6017
0.585,THRUST_SEARCH,OPEN_LOOP,0.0001,7e-05,4e-05,7e-05,0.0,-1e-05,0.6034,0.6034,0.6034,,0.67,,False,0.0,0.0,0.0,0.0,0.0,0.5304,0.5377,0.0075,True,False,Mode(963497464),0.1087,11,0.6017
0.596,THRUST_SEARCH,OPEN_LOOP,0.0001,7e-05,4e-05,7e-05,0.0,-2e-05,0.6039,0.6039,0.6039,,0.67,,False,0.0,0.0,0.0,0.0,0.0,0.5304,0.5407,0.007,True,True,Mode(963497464),0.1197,11,0.6017
0.608,THRUST_SEARCH,OPEN_LOOP,0.0001,7e-05,8e-05,8e-05,0.0,-2e-05,0.6043,0.6043,0.6043,,0.67,,False,0.0,0.0,0.0,0.0,0.0,0.5304,0.5382,0.004,True,False,Mode(963497464),0.1312,12,0.6039
0.619,THRUST_SEARCH,OPEN_LOOP,0.0001,7e-05,9e-05,9e-05,0.0,-1e-05,0.6048,0.6048,0.6048,,0.67,,False,0.0,0.0,0.0,0.0,0.0,0.5304,0.5346,0.007,True,False,Mode(963497464),0.1423,12,0.6039
0.63,THRUST_SEARCH,OPEN_LOOP,0.0001,7e-05,2e-05,7e-05,0.0,-3e-05,0.6052,0.6052,0.6052,,0.67,,False,0.0,0.0,0.0,0.0,0.0,0.5304,0.5279,0.01,True,False,Mode(963497464),0.1533,12,0.6039
0.641,THRUST_SEARCH,OPEN_LOOP,0.0001,7e-05,6e-05,7e-05,0.0,-4e-05,0.6056,0.6056,0.6056,,0.67,,False,0.0,0.0,0.0,0.0,0.0,0.5304,0.5276,0.003,True,False,Mode(963497464),0.1643,12,0.6039
0.652,THRUST_SEARCH,OPEN_LOOP,0.0001,7e-05,8e-05,8e-05,0.0,-3e-05,0.6061,0.6061,0.6061,,0.67,,False,0.0,0.0,0.0,0.0,0.0,0.5304,0.5252,0.005,True,True,Mode(963497464),0.1752,12,0.6039
0.663,THRUST_SEARCH,OPEN_LOOP,0.0001,7e-05,9e-05,9e-05,0.0,-2e-05,0.6065,0.6065,0.6065,,0.67,,False,0.0,0.0,0.0,0.0,0.0,0.5304,0.5357,0.001,True,False,Mode(963497464),0.1865,13,0.6061
0.674,THRUST_SEARCH,OPEN_LOOP,0.0001,7e-05,7e-05,7e-05,0.0,-2e-05,0.6069,0.6069,0.6069,,0.67,,False,0.0,0.0,0.0,0.0,0.0,0.5304,0.5333,0.0015,True,False,Mode(963497464),0.197,13,0.6061
0.685,THRUST_SEARCH,OPEN_LOOP,0.0001,7e-05,0.0001,0.0001,0.0,-1e-05,0.6074,0.6074,0.6074,,0.67,,False,0.0,0.0,0.0,0.0,0.0,0.5304,0.5335,0.006,True,False,Mode(963497464),0.208,13,0.6061
0.696,THRUST_SEARCH,OPEN_LOOP,0.0001,7e-05,6e-05,7e-05,0.0,-2e-05,0.6078,0.6078,0.6078,,0.67,,False,0.0,0.0,0.0,0.0,0.0,0.5304,0.5375,0.008,True,False,Mode(963497464),0.2189,13,0.6061
0.707,THRUST_SEARCH,OPEN_LOOP,0.0001,7e-05,6e-05,7e-05,0.0,-2e-05,0.6083,0.6083,0.6083,,0.67,,False,0.0,0.0,0.0,0.0,0.0,0.5304,0.5336,0.01,True,True,Mode(963497464),0.2299,13,0.6061
0.718,THRUST_SEARCH,OPEN_LOOP,0.0001,7e-05,7e-05,7e-05,0.0,-2e-05,0.6087,0.6087,0.6087,,0.67,,False,0.0,0.0,0.0,0.0,0.0,0.5304,0.5326,0.004,True,False,Mode(963497464),0.2409,14,0.6083
0.729,THRUST_SEARCH,OPEN_LOOP,0.0001,7e-05,3e-05,7e-05,0.0,-3e-05,0.6091,0.6091,0.6091,,0.67,,False,0.0,0.0,0.0,0.0,0.0,0.5304,0.5302,0.009,True,False,Mode(963497464),0.2518,14,0.6083
0.74,THRUST_SEARCH,OPEN_LOOP,0.0001,7e-05,7e-05,7e-05,0.0,-3e-05,0.6096,0.6096,0.6096,,0.67,,False,0.0,0.0,0.0,0.0,0.0,0.5304,0.5328,0.002,True,False,Mode(963497464),0.2628,14,0.6083
0.75,THRUST_SEARCH,OPEN_LOOP,0.0001,7e-05,0.0001,0.0001,0.0,-2e-05,0.61,0.61,0.61,,0.67,,False,0.0,0.0,0.0,0.0,0.0,0.5304,0.5308,0.004,True,False,Mode(963497464),0.2738,14,0.6083
0.762,THRUST_SEARCH,OPEN_LOOP,0.0001,7e-05,0.0001,0.0001,0.0,-1e-05,0.6104,0.6104,0.6104,,0.67,,False,0.0,0.0,0.0,0.0,0.0,0.5304,0.5318,0.006,True,True,Mode(963497464),0.2843,14,0.6083
0.772,THRUST_SEARCH,OPEN_LOOP,0.0001,7e-05,8e-05,8e-05,0.0,-0.0,0.6109,0.6109,0.6109,,0.67,,False,0.0,0.0,0.0,0.0,0.0,0.5304,0.5348,0.002,True,False,Mode(963497464),0.2952,15,0.6104
0.783,THRUST_SEARCH,OPEN_LOOP,0.0001,7e-05,0.0001,0.0001,0.0,0.0,0.6113,0.6113,0.6113,,0.67,,False,0.0,0.0,0.0,0.0,0.0,0.5304,0.5362,0.004,True,False,Mode(963497464),0.3062,15,0.6104
0.793,THRUST_SEARCH,OPEN_LOOP,0.0001,8e-05,0.0001,0.0001,0.0,1e-05,0.6117,0.6117,0.6117,,0.67,,False,0.0,0.0,0.0,0.0,0.0,0.5304,0.533,0.006,True,False,Mode(963497464),0.3167,15,0.6104
0.804,THRUST_SEARCH,OPEN_LOOP,0.0001,9e-05,0.00025,0.00025,0.0,7e-05,0.6122,0.6122,0.6122,,0.67,,False,0.0,0.0,0.0,0.0,0.0,0.5304,0.5492,0.0015,True,False,Mode(963497464),0.3272,15,0.6104
0.815,THRUST_SEARCH,OPEN_LOOP,0.0001,9e-05,7e-05,9e-05,0.0,7e-05,0.6126,0.6126,0.6126,,0.67,,False,0.0,0.0,0.0,0.0,0.0,0.5304,0.5456,0.003,True,True,Mode(963497464),0.3381,15,0.6104
0.826,THRUST_SEARCH,OPEN_LOOP,0.0001,9e-05,6e-05,9e-05,0.0,6e-05,0.613,0.613,0.613,,0.67,,False,0.0,0.0,0.0,0.0,0.0,0.5304,0.5451,0.005,True,False,Mode(963497464),0.3491,16,0.6126
0.837,THRUST_SEARCH,OPEN_LOOP,0.0001,8e-05,4e-05,8e-05,0.0,4e-05,0.6135,0.6135,0.6135,,0.67,,False,0.0,0.0,0.0,0.0,0.0,0.5304,0.5427,0.007,True,False,Mode(963497464),0.3601,16,0.6126
0.848,THRUST_SEARCH,OPEN_LOOP,0.0001,0.0001,0.00023,0.00023,0.0,9e-05,0.6139,0.6139,0.6139,,0.67,,False,0.0,0.0,0.0,0.0,0.0,0.5304,0.5508,0.003,True,False,Mode(963497464),0.371,16,0.6126
0.859,THRUST_SEARCH,OPEN_LOOP,0.0001,0.0001,8e-05,0.0001,0.0,8e-05,0.6143,0.6143,0.6143,,0.67,,False,0.0,0.0,0.0,0.0,0.0,0.5304,0.5478,0.005,True,False,Mode(963497464),0.382,16,0.6126
0.871,THRUST_SEARCH,OPEN_LOOP,0.0001,9e-05,6e-05,9e-05,0.0,7e-05,0.6148,0.6148,0.6148,,0.67,,False,0.0,0.0,0.0,0.0,0.0,0.5304,0.546,0.006,True,True,Mode(963497464),0.3934,16,0.6126
0.881,THRUST_SEARCH,OPEN_LOOP,0.0001,9e-05,-0.0,9e-05,0.0,4e-05,0.6152,0.6152,0.6152,,0.67,,False,0.0,0.0,0.0,0.0,0.0,0.5304,0.5401,0.001,True,False,Mode(963497464),0.4043,17,0.6148
0.892,THRUST_SEARCH,OPEN_LOOP,0.0001,8e-05,5e-05,8e-05,0.0,2e-05,0.6157,0.6157,0.6157,,0.67,,False,0.0,0.0,0.0,0.0,0.0,0.5304,0.5391,0.006,True,False,Mode(963497464),0.4153,17,0.6148
0.903,THRUST_SEARCH,OPEN_LOOP,0.0001,8e-05,3e-05,8e-05,0.0,0.0,0.6161,0.6161,0.6161,,0.67,,False,0.0,0.0,0.0,0.0,0.0,0.5304,0.5381,0.008,True,False,Mode(963497464),0.4263,17,0.6148
0.914,THRUST_SEARCH,OPEN_LOOP,0.0001,8e-05,7e-05,8e-05,0.0,-0.0,0.6165,0.6165,0.6165,,0.67,,False,0.0,0.0,0.0,0.0,0.0,0.5304,0.5362,0.001,True,False,Mode(963497464),0.4368,17,0.6148
0.925,THRUST_SEARCH,OPEN_LOOP,0.0001,8e-05,6e-05,8e-05,0.0,-1e-05,0.617,0.617,0.617,,0.67,,False,0.0,0.0,0.0,0.0,0.0,0.5304,0.5374,0.003,True,True,Mode(963497464),0.4478,17,0.6148
0.935,THRUST_SEARCH,OPEN_LOOP,0.0001,7e-05,5e-05,7e-05,0.0,-2e-05,0.6174,0.6174,0.6174,,0.67,,False,0.0,0.0,0.0,0.0,0.0,0.5304,0.5365,0.0075,True,False,Mode(963497464),0.4583,18,0.617
0.946,THRUST_SEARCH,OPEN_LOOP,0.0001,7e-05,2e-05,7e-05,0.0,-3e-05,0.6178,0.6178,0.6178,,0.67,,False,0.0,0.0,0.0,0.0,0.0,0.5304,0.5347,0.001,True,False,Mode(963497464),0.4692,18,0.617
0.957,THRUST_SEARCH,OPEN_LOOP,0.0001,7e-05,0.0001,0.0001,0.0,-3e-05,0.6183,0.6183,0.6183,,0.67,,False,0.0,0.0,0.0,0.0,0.0,0.5304,0.5354,0.0031,True,False,Mode(963497464),0.4803,18,0.617
0.967,THRUST_SEARCH,OPEN_LOOP,0.0001,7e-05,7e-05,7e-05,0.0,-3e-05,0.6187,0.6187,0.6187,,0.67,,False,0.0,0.0,0.0,0.0,0.0,0.5304,0.5344,0.0045,True,False,Mode(963497464),0.4907,18,0.617
0.978,THRUST_SEARCH,OPEN_LOOP,0.0001,7e-05,0.0001,0.0001,0.0,-2e-05,0.6191,0.6191,0.6191,,0.67,,False,0.0,0.0,0.0,0.0,0.0,0.5304,0.5395,0.0,True,True,Mode(963497464),0.5013,18,0.617
0.989,THRUST_SEARCH,OPEN_LOOP,0.0001,7e-05,1e-05,7e-05,0.0,-4e-05,0.6196,0.6196,0.6196,,0.67,,False,0.0,0.0,0.0,0.0,0.0,0.5304,0.5383,0.002,True,False,Mode(963497464),0.5122,19,0.6191
1.0,THRUST_SEARCH,OPEN_LOOP,0.0001,7e-05,7e-05,7e-05,0.0,-4e-05,0.62,0.62,0.62,,0.67,,False,0.0,0.0,0.0,0.0,0.0,0.5304,0.5386,0.004,True,False,Mode(963497464),0.5232,19,0.6191
1.011,THRUST_SEARCH,OPEN_LOOP,0.0001,7e-05,6e-05,7e-05,0.0,-4e-05,0.6204,0.6204,0.6204,,0.67,,False,0.0,0.0,0.0,0.0,0.0,0.5304,0.537,0.006,True,False,Mode(963497464),0.5342,19,0.6191
1.022,THRUST_SEARCH,OPEN_LOOP,0.0001,6e-05,3e-05,6e-05,0.0,-5e-05,0.6209,0.6209,0.6209,,0.67,,False,0.0,0.0,0.0,0.0,0.0,0.5304,0.5342,0.002,True,False,Mode(963497464),0.5451,19,0.6191
1.033,THRUST_SEARCH,OPEN_LOOP,0.0001,8e-05,0.00022,0.00022,0.0,0.0,0.6213,0.6213,0.6213,,0.67,,False,0.0,0.0,0.0,0.0,0.0,0.5304,0.5454,0.004,True,True,Mode(963497464),0.5561,19,0.6191
1.044,THRUST_SEARCH,OPEN_LOOP,0.0001,7e-05,4e-05,7e-05,0.0,-1e-05,0.6218,0.6218,0.6218,,0.67,,False,0.0,0.0,0.0,0.0,0.0,0.5304,0.5421,0.006,True,False,Mode(963497464),0.5671,20,0.6213
1.055,THRUST_SEARCH,OPEN_LOOP,0.0001,7e-05,5e-05,7e-05,0.0,-2e-05,0.6222,0.6222,0.6222,,0.67,,False,0.0,0.0,0.0,0.0,0.0,0.5304,0.5403,0.002,True,False,Mode(963497464),0.5781,20,0.6213
1.065,THRUST_SEARCH,OPEN_LOOP,0.0001,7e-05,5e-05,7e-05,0.0,-3e-05,0.6226,0.6226,0.6226,,0.67,,False,0.0,0.0,0.0,0.0,0.0,0.5304,0.5382,0.004,True,False,Mode(963497464),0.5886,20,0.6213
1.076,THRUST_SEARCH,OPEN_LOOP,0.0001,8e-05,0.00018,0.00018,0.0,1e-05,0.623,0.623,0.623,,0.67,,False,0.0,0.0,0.0,0.0,0.0,0.5304,0.5496,0.006,True,False,Mode(963497464),0.5991,20,0.6213
1.087,THRUST_SEARCH,OPEN_LOOP,0.0001,8e-05,0.0001,0.0001,0.0,2e-05,0.6235,0.6235,0.6235,,0.67,,False,0.0,0.0,0.0,0.0,0.0,0.5304,0.5433,0.008,True,True,Mode(963497464),0.6101,20,0.6213
1.098,THRUST_SEARCH,OPEN_LOOP,0.0001,8e-05,9e-05,9e-05,0.0,3e-05,0.6239,0.6239,0.6239,,0.67,,False,0.0,0.0,0.0,0.0,0.0,0.5304,0.5425,0.001,True,False,Mode(963497464),0.621,21,0.6235
1.109,THRUST_SEARCH,OPEN_LOOP,0.0001,8e-05,7e-05,8e-05,0.0,2e-05,0.6243,0.6243,0.6243,,0.67,,False,0.0,0.0,0.0,0.0,0.0,0.5304,0.5402,0.006,True,False,Mode(963497464),0.632,21,0.6235
1.12,THRUST_SEARCH,OPEN_LOOP,0.0001,8e-05,6e-05,8e-05,0.0,2e-05,0.6248,0.6248,0.6248,,0.67,,False,0.0,0.0,0.0,0.0,0.0,0.5304,0.5356,0.008,True,False,Mode(963497464),0.643,21,0.6235
1.13,THRUST_SEARCH,OPEN_LOOP,0.0001,8e-05,8e-05,8e-05,0.0,2e-05,0.6252,0.6252,0.6252,,0.67,,False,0.0,0.0,0.0,0.0,0.0,0.5304,0.5389,0.001,True,False,Mode(963497464),0.6535,21,0.6235
1.142,THRUST_SEARCH,OPEN_LOOP,0.0001,8e-05,4e-05,8e-05,0.0,0.0,0.6256,0.6256,0.6256,,0.67,,False,0.0,0.0,0.0,0.0,0.0,0.5304,0.5371,0.003,True,True,Mode(963497464),0.6645,21,0.6235
1.152,THRUST_SEARCH,OPEN_LOOP,0.0001,8e-05,0.00011,0.00011,0.0,1e-05,0.6261,0.6261,0.6261,,0.67,,False,0.0,0.0,0.0,0.0,0.0,0.5304,0.5348,0.0075,True,False,Mode(963497464),0.6749,22,0.6256
1.163,THRUST_SEARCH,OPEN_LOOP,0.0001,8e-05,7e-05,8e-05,0.0,1e-05,0.6265,0.6265,0.6265,,0.67,,False,0.0,0.0,0.0,0.0,0.0,0.5304,0.5305,0.001,True,False,Mode(963497464),0.6859,22,0.6256
1.174,THRUST_SEARCH,OPEN_LOOP,0.0001,8e-05,6e-05,8e-05,0.0,0.0,0.6269,0.6269,0.6269,,0.67,,False,0.0,0.0,0.0,0.0,0.0,0.5304,0.5296,0.0031,True,False,Mode(963497464),0.697,22,0.6256
1.184,THRUST_SEARCH,OPEN_LOOP,0.0001,7e-05,3e-05,7e-05,0.0,-2e-05,0.6274,0.6274,0.6274,,0.67,,False,0.0,0.0,0.0,0.0,0.0,0.5304,0.5281,0.0045,True,False,Mode(963497464),0.7074,22,0.6256
1.195,THRUST_SEARCH,OPEN_LOOP,0.0001,7e-05,6e-05,7e-05,0.0,-2e-05,0.6278,0.6278,0.6278,,0.67,,False,0.0,0.0,0.0,0.0,0.0,0.5304,0.5259,0.0067,True,True,Mode(963497464),0.7181,22,0.6256
1.206,THRUST_SEARCH,OPEN_LOOP,0.0001,7e-05,9e-05,9e-05,0.0,-2e-05,0.6282,0.6282,0.6282,,0.67,,False,0.0,0.0,0.0,0.0,0.0,0.5304,0.5264,0.003,True,False,Mode(963497464),0.7291,23,0.6278
1.216,THRUST_SEARCH,OPEN_LOOP,0.0001,7e-05,0.0001,0.0001,0.0,-1e-05,0.6286,0.6286,0.6286,,0.67,,False,0.0,0.0,0.0,0.0,0.0,0.5304,0.5262,0.0045,True,False,Mode(963497464),0.7395,23,0.6278
1.227,THRUST_SEARCH,OPEN_LOOP,0.0001,7e-05,6e-05,7e-05,0.0,-1e-05,0.6291,0.6291,0.6291,,0.67,,False,0.0,0.0,0.0,0.0,0.0,0.5304,0.5248,0.0068,True,False,Mode(963497464),0.7504,23,0.6278
1.238,THRUST_SEARCH,OPEN_LOOP,0.0001,7e-05,6e-05,7e-05,0.0,-1e-05,0.6295,0.6295,0.6295,,0.67,,False,0.0,0.0,0.0,0.0,0.0,0.5304,0.5276,0.009,True,False,Mode(963497464),0.7613,23,0.6278
1.249,THRUST_SEARCH,OPEN_LOOP,0.0001,7e-05,8e-05,8e-05,0.0,-1e-05,0.6299,0.6299,0.6299,,0.67,,False,0.0,0.0,0.0,0.0,0.0,0.5304,0.5448,0.0015,True,True,Mode(963497464),0.7718,23,0.6278
1.259,THRUST_SEARCH,OPEN_LOOP,0.0001,7e-05,6e-05,7e-05,0.0,-2e-05,0.6304,0.6304,0.6304,,0.67,,False,0.0,0.0,0.0,0.0,0.0,0.5304,0.5421,0.006,True,False,Mode(963497464),0.7828,24,0.6299
1.27,THRUST_SEARCH,OPEN_LOOP,0.0001,7e-05,3e-05,7e-05,0.0,-3e-05,0.6308,0.6308,0.6308,,0.67,,False,0.0,0.0,0.0,0.0,0.0,0.5304,0.5351,0.001,True,False,Mode(963497464),0.7937,24,0.6299
1.281,THRUST_SEARCH,OPEN_LOOP,0.0001,7e-05,7e-05,7e-05,0.0,-3e-05,0.6313,0.6313,0.6313,,0.67,,False,0.0,0.0,0.0,0.0,0.0,0.5304,0.53,0.003,True,False,Mode(963497464),0.8047,24,0.6299
1.292,THRUST_SEARCH,OPEN_LOOP,0.0001,7e-05,6e-05,7e-05,0.0,-3e-05,0.6317,0.6317,0.6317,,0.67,,False,0.0,0.0,0.0,0.0,0.0,0.5304,0.53,0.005,True,False,Mode(963497464),0.8157,24,0.6299
1.303,THRUST_SEARCH,OPEN_LOOP,0.0001,7e-05,9e-05,9e-05,0.0,-3e-05,0.6321,0.6321,0.6321,,0.67,,False,0.0,0.0,0.0,0.0,0.0,0.5304,0.5322,0.001,True,True,Mode(963497464),0.8268,24,0.6299
1.315,THRUST_SEARCH,OPEN_LOOP,0.0001,7e-05,8e-05,8e-05,0.0,-2e-05,0.6326,0.6326,0.6326,,0.67,,False,0.0,0.0,0.0,0.0,0.0,0.5304,0.533,0.0031,True,False,Mode(963497464),0.8378,25,0.6321
1.325,THRUST_SEARCH,OPEN_LOOP,0.0001,7e-05,8e-05,8e-05,0.0,-2e-05,0.633,0.633,0.633,,0.67,,False,0.0,0.0,0.0,0.0,0.0,0.5304,0.5322,0.0045,True,False,Mode(963497464),0.8482,25,0.6321
1.336,THRUST_SEARCH,OPEN_LOOP,0.0001,7e-05,8e-05,8e-05,0.0,-1e-05,0.6334,0.6334,0.6334,,0.67,,False,0.0,0.0,0.0,0.0,0.0,0.5304,0.5331,0.0067,True,False,Mode(963497464),0.8589,25,0.6321
1.347,THRUST_SEARCH,OPEN_LOOP,0.0001,7e-05,5e-05,7e-05,0.0,-2e-05,0.6339,0.6339,0.6339,,0.67,,False,0.0,0.0,0.0,0.0,0.0,0.5304,0.5319,0.009,True,False,Mode(963497464),0.8698,25,0.6321
1.357,THRUST_SEARCH,OPEN_LOOP,0.0001,7e-05,0.0001,0.0001,0.0,-1e-05,0.6343,0.6343,0.6343,,0.67,,False,0.0,0.0,0.0,0.0,0.0,0.5304,0.531,0.005,True,True,Mode(963497464),0.8808,25,0.6321
1.368,THRUST_SEARCH,OPEN_LOOP,0.0001,7e-05,7e-05,7e-05,0.0,-1e-05,0.6347,0.6347,0.6347,,0.67,,False,0.0,0.0,0.0,0.0,0.0,0.5304,0.5319,0.007,True,False,Mode(963497464),0.8918,26,0.6343
1.38,THRUST_SEARCH,OPEN_LOOP,0.0001,7e-05,8e-05,8e-05,0.0,-1e-05,0.6352,0.6352,0.6352,,0.67,,False,0.0,0.0,0.0,0.0,0.0,0.5304,0.5299,0.009,True,False,Mode(963497464),0.9022,26,0.6343
1.389,THRUST_SEARCH,OPEN_LOOP,0.0001,7e-05,6e-05,7e-05,0.0,-1e-05,0.6356,0.6356,0.6356,,0.67,,False,0.0,0.0,0.0,0.0,0.0,0.5304,0.5215,0.0015,True,False,Mode(963497464),0.9127,26,0.6343
1.401,THRUST_SEARCH,OPEN_LOOP,0.0001,7e-05,5e-05,7e-05,0.0,-2e-05,0.636,0.636,0.636,,0.67,,False,0.0,0.0,0.0,0.0,0.0,0.5304,0.5218,0.0061,True,False,Mode(963497464),0.9238,26,0.6343
1.411,THRUST_SEARCH,OPEN_LOOP,0.0001,7e-05,8e-05,8e-05,0.0,-1e-05,0.6365,0.6365,0.6365,,0.67,,False,0.0,0.0,0.0,0.0,0.0,0.5304,0.5215,0.008,True,True,Mode(963497464),0.9347,26,0.6343
1.422,THRUST_SEARCH,OPEN_LOOP,0.0001,7e-05,6e-05,7e-05,0.0,-2e-05,0.6369,0.6369,0.6369,,0.67,,False,0.0,0.0,0.0,0.0,0.0,0.5304,0.5233,0.002,True,False,Mode(963497464),0.9456,27,0.6365
1.433,THRUST_SEARCH,OPEN_LOOP,0.0001,7e-05,8e-05,8e-05,0.0,-1e-05,0.6373,0.6373,0.6373,,0.67,,False,0.0,0.0,0.0,0.0,0.0,0.5304,0.5234,0.004,True,False,Mode(963497464),0.9566,27,0.6365
1.444,THRUST_SEARCH,OPEN_LOOP,0.0001,7e-05,8e-05,8e-05,0.0,-1e-05,0.6378,0.6378,0.6378,,0.67,,False,0.0,0.0,0.0,0.0,0.0,0.5304,0.5245,0.0062,True,False,Mode(963497464),0.9672,27,0.6365
1.455,THRUST_SEARCH,OPEN_LOOP,0.0001,6e-05,1e-05,6e-05,0.0,-3e-05,0.6382,0.6382,0.6382,,0.67,,False,0.0,0.0,0.0,0.0,0.0,0.5304,0.5252,0.002,True,False,Mode(963497464),0.978,27,0.6365
1.465,THRUST_SEARCH,OPEN_LOOP,0.0001,6e-05,3e-05,6e-05,0.0,-4e-05,0.6386,0.6386,0.6386,,0.67,,False,0.0,0.0,0.0,0.0,0.0,0.5304,0.524,0.001,True,True,Mode(963497464),0.9887,27,0.6365
1.477,THRUST_SEARCH,OPEN_LOOP,0.0001,6e-05,5e-05,6e-05,0.0,-5e-05,0.6391,0.6391,0.6391,,0.67,,False,0.0,0.0,0.0,0.0,0.0,0.5304,0.525,0.0063,True,False,Mode(963497464),1.0,28,0.6386
1.487,THRUST_SEARCH,OPEN_LOOP,0.0001,6e-05,0.00011,0.00011,0.0,-3e-05,0.6395,0.6395,0.6395,,0.67,,False,0.0,0.0,0.0,0.0,0.0,0.5304,0.5245,0.008,True,False,Mode(963497464),1.0107,28,0.6386
1.498,THRUST_SEARCH,OPEN_LOOP,0.0001,6e-05,3e-05,6e-05,0.0,-4e-05,0.6399,0.6399,0.6399,,0.67,,False,0.0,0.0,0.0,0.0,0.0,0.5304,0.5267,0.004,True,False,Mode(963497464),0.0,28,0.6386
1.51,THRUST_SEARCH,OPEN_LOOP,0.0001,6e-05,6e-05,6e-05,0.0,-4e-05,0.6404,0.6404,0.6404,,0.67,,False,0.0,0.0,0.0,0.0,0.0,0.5304,0.526,0.006,True,False,Mode(963497464),0.011,28,0.6386
1.52,THRUST_SEARCH,OPEN_LOOP,0.0001,6e-05,2e-05,6e-05,0.0,-6e-05,0.6408,0.6408,0.6408,,0.67,,False,0.0,0.0,0.0,0.0,0.0,0.5304,0.525,0.001,True,True,Mode(963497464),0.0219,28,0.6386
1.531,THRUST_SEARCH,OPEN_LOOP,0.0001,5e-05,3e-05,5e-05,0.0,-6e-05,0.6413,0.6413,0.6413,,0.67,,False,0.0,0.0,0.0,0.0,0.0,0.5304,0.5237,0.003,True,False,Mode(963497464),0.0329,29,0.6408
1.542,THRUST_SEARCH,OPEN_LOOP,0.0001,5e-05,7e-05,7e-05,0.0,-6e-05,0.6417,0.6417,0.6417,,0.67,,False,0.0,0.0,0.0,0.0,0.0,0.5304,0.5238,0.005,True,False,Mode(963497464),0.0439,29,0.6408
1.554,THRUST_SEARCH,OPEN_LOOP,0.0001,5e-05,7e-05,7e-05,0.0,-5e-05,0.6421,0.6421,0.6421,,0.67,,False,0.0,0.0,0.0,0.0,0.0,0.5304,0.5213,0.001,True,False,Mode(963497464),0.0552,29,0.6408
1.564,THRUST_SEARCH,OPEN_LOOP,0.0001,5e-05,3e-05,5e-05,0.0,-6e-05,0.6426,0.6426,0.6426,,0.67,,False,0.0,0.0,0.0,0.0,0.0,0.5304,0.5193,0.003,True,False,Mode(963497464),0.0661,29,0.6408
1.575,THRUST_SEARCH,OPEN_LOOP,0.0001,5e-05,6e-05,6e-05,0.0,-6e-05,0.643,0.643,0.643,,0.67,,False,0.0,0.0,0.0,0.0,0.0,0.5304,0.5178,0.005,True,True,Mode(963497464),0.0771,29,0.6408
1.586,THRUST_SEARCH,OPEN_LOOP,0.0001,5e-05,5e-05,5e-05,0.0,-6e-05,0.6435,0.6435,0.6435,,0.67,,False,0.0,0.0,0.0,0.0,0.0,0.5304,0.5189,0.007,True,False,Mode(963497464),0.088,30,0.643
1.598,THRUST_SEARCH,OPEN_LOOP,0.0001,6e-05,0.00013,0.00013,0.0,-3e-05,0.6439,0.6439,0.6439,,0.67,,False,0.0,0.0,0.0,0.0,0.0,0.5304,0.5269,0.009,True,False,Mode(963497464),0.0985,30,0.643
1.607,THRUST_SEARCH,OPEN_LOOP,0.0001,5e-05,3e-05,5e-05,0.0,-4e-05,0.6443,0.6443,0.6443,,0.67,,False,0.0,0.0,0.0,0.0,0.0,0.5304,0.5379,0.0045,True,False,Mode(963497464),0.109,30,0.643
1.619,THRUST_SEARCH,OPEN_LOOP,0.0001,7e-05,0.00022,0.00022,0.0,2e-05,0.6447,0.6447,0.6447,,0.67,,False,0.0,0.0,0.0,0.0,0.0,0.5304,0.5443,0.0072,True,False,Mode(963497464),0.1202,30,0.643
1.629,THRUST_SEARCH,OPEN_LOOP,0.0001,7e-05,7e-05,7e-05,0.0,2e-05,0.6452,0.6452,0.6452,,0.67,,False,0.0,0.0,0.0,0.0,0.0,0.5304,0.5434,0.001,True,True,Mode(963497464),0.1311,30,0.643
1.641,THRUST_SEARCH,OPEN_LOOP,0.0001,7e-05,4e-05,7e-05,0.0,1e-05,0.6456,0.6456,0.6456,,0.67,,False,0.0,0.0,0.0,0.0,0.0,0.5304,0.5439,0.0031,True,False,Mode(963497464),0.1422,31,0.6452
1.651,THRUST_SEARCH,OPEN_LOOP,0.0001,7e-05,8e-05,8e-05,0.0,1e-05,0.646,0.646,0.646,,0.67,,False,0.0,0.0,0.0,0.0,0.0,0.5304,0.5409,0.0045,True,False,Mode(963497464),0.1526,31,0.6452
1.662,THRUST_SEARCH,OPEN_LOOP,0.0001,7e-05,7e-05,7e-05,0.0,1e-05,0.6465,0.6465,0.6465,,0.67,,False,0.0,0.0,0.0,0.0,0.0,0.5304,0.5384,0.007,True,False,Mode(963497464),0.1636,31,0.6452
1.675,THRUST_SEARCH,OPEN_LOOP,0.0001,7e-05,7e-05,7e-05,0.0,2e-05,0.647,0.647,0.647,,0.67,,False,0.0,0.0,0.0,0.0,0.0,0.5304,0.5314,0.0046,True,False,Mode(963497464),0.1762,31,0.6452
1.685,THRUST_SEARCH,OPEN_LOOP,0.0001,7e-05,0.0001,0.0001,0.0,3e-05,0.6474,0.6474,0.6474,,0.67,,False,0.0,0.0,0.0,0.0,0.0,0.5304,0.534,0.005,True,True,Mode(963497464),0.1865,31,0.6452
1.696,THRUST_SEARCH,OPEN_LOOP,0.0001,9e-05,0.00025,0.00025,0.0,9e-05,0.6478,0.6478,0.6478,,0.67,,False,0.0,0.0,0.0,0.0,0.0,0.5304,0.5442,0.0014,True,False,Mode(963497464),0.1976,32,0.6474
1.707,THRUST_SEARCH,OPEN_LOOP,0.0001,8e-05,4e-05,8e-05,0.0,8e-05,0.6483,0.6483,0.6483,,0.67,,False,0.0,0.0,0.0,0.0,0.0,0.5304,0.5453,0.003,True,False,Mode(963497464),0.2086,32,0.6474
1.718,THRUST_SEARCH,OPEN_LOOP,0.0001,8e-05,2e-05,8e-05,0.0,5e-05,0.6487,0.6487,0.6487,,0.67,,False,0.0,0.0,0.0,0.0,0.0,0.5304,0.5418,0.005,True,False,Mode(963497464),0.2196,32,0.6474
1.729,THRUST_SEARCH,OPEN_LOOP,0.0001,8e-05,0.00011,0.00011,0.0,6e-05,0.6492,0.6492,0.6492,,0.67,,False,0.0,0.0,0.0,0.0,0.0,0.5304,0.5368,0.001,True,False,Mode(963497464),0.2307,32,0.6474
1.74,THRUST_SEARCH,OPEN_LOOP,0.0001,8e-05,5e-05,8e-05,0.0,5e-05,0.6496,0.6496,0.6496,,0.67,,False,0.0,0.0,0.0,0.0,0.0,0.5304,0.5331,0.003,True,True,Mode(963497464),0.2416,32,0.6474
1.751,THRUST_SEARCH,OPEN_LOOP,0.0001,8e-05,6e-05,8e-05,0.0,5e-05,0.65,0.65,0.65,,0.67,,False,0.0,0.0,0.0,0.0,0.0,0.5304,0.5307,0.005,True,False,Mode(963497464),0.2526,33,0.6496
1.762,THRUST_SEARCH,OPEN_LOOP,0.0001,8e-05,9e-05,9e-05,0.0,5e-05,0.6505,0.6505,0.6505,,0.67,,False,0.0,0.0,0.0,0.0,0.0,0.5304,0.5281,0.007,True,False,Mode(963497464),0.2635,33,0.6496
1.773,THRUST_SEARCH,OPEN_LOOP,0.0001,8e-05,5e-05,8e-05,0.0,4e-05,0.6509,0.6509,0.6509,,0.67,,False,0.0,0.0,0.0,0.0,0.0,0.5304,0.5286,0.003,True,False,Mode(963497464),0.2745,33,0.6496
1.783,THRUST_SEARCH,OPEN_LOOP,0.0001,9e-05,0.00023,0.00023,0.0,9e-05,0.6513,0.6513,0.6513,,0.67,,False,0.0,0.0,0.0,0.0,0.0,0.5304,0.539,0.0045,True,False,Mode(963497464),0.285,33,0.6496
1.794,THRUST_SEARCH,OPEN_LOOP,0.0001,9e-05,3e-05,9e-05,0.0,7e-05,0.6518,0.6518,0.6518,,0.67,,False,0.0,0.0,0.0,0.0,0.0,0.5304,0.5376,0.0069,True,True,Mode(963497464),0.296,33,0.6496
1.805,THRUST_SEARCH,OPEN_LOOP,0.0001,9e-05,7e-05,9e-05,0.0,6e-05,0.6522,0.6522,0.6522,,0.67,,False,0.0,0.0,0.0,0.0,0.0,0.5304,0.5326,0.009,True,False,Mode(963497464),0.3066,34,0.6518
1.815,THRUST_SEARCH,OPEN_LOOP,0.0001,9e-05,0.0001,0.0001,0.0,6e-05,0.6526,0.6526,0.6526,,0.67,,False,0.0,0.0,0.0,0.0,0.0,0.5304,0.5304,0.0045,True,False,Mode(963497464),0.3171,34,0.6518
1.826,THRUST_SEARCH,OPEN_LOOP,0.0001,9e-05,0.0001,0.0001,0.0,7e-05,0.6531,0.6531,0.6531,,0.67,,False,0.0,0.0,0.0,0.0,0.0,0.5304,0.5341,0.007,True,False,Mode(963497464),0.3281,34,0.6518
1.838,THRUST_SEARCH,OPEN_LOOP,0.0001,9e-05,9e-05,9e-05,0.0,7e-05,0.6535,0.6535,0.6535,,0.67,,False,0.0,0.0,0.0,0.0,0.0,0.5304,0.5359,0.009,True,False,Mode(963497464),0.3386,34,0.6518
1.847,THRUST_SEARCH,OPEN_LOOP,0.0001,9e-05,5e-05,9e-05,0.0,5e-05,0.6539,0.6539,0.6539,,0.67,,False,0.0,0.0,0.0,0.0,0.0,0.5304,0.5323,0.0015,True,True,Mode(963497464),0.3491,34,0.6518
1.858,THRUST_SEARCH,OPEN_LOOP,0.0001,9e-05,8e-05,9e-05,0.0,5e-05,0.6543,0.6543,0.6543,,0.67,,False,0.0,0.0,0.0,0.0,0.0,0.5304,0.5334,0.0036,True,False,Mode(963497464),0.3597,35,0.6539
1.869,THRUST_SEARCH,OPEN_LOOP,0.0001,8e-05,-1e-05,8e-05,0.0,2e-05,0.6548,0.6548,0.6548,,0.67,,False,0.0,0.0,0.0,0.0,0.0,0.5304,0.5305,0.006,True,False,Mode(963497464),0.3707,35,0.6539
1.88,THRUST_SEARCH,OPEN_LOOP,0.0001,8e-05,6e-05,8e-05,0.0,1e-05,0.6552,0.6552,0.6552,,0.67,,False,0.0,0.0,0.0,0.0,0.0,0.5304,0.5297,0.002,True,False,Mode(963497464),0.3817,35,0.6539
1.891,THRUST_SEARCH,OPEN_LOOP,0.0001,8e-05,7e-05,8e-05,0.0,1e-05,0.6556,0.6556,0.6556,,0.67,,False,0.0,0.0,0.0,0.0,0.0,0.5304,0.5302,0.0039,True,False,Mode(963497464),0.3926,35,0.6539
1.902,THRUST_SEARCH,OPEN_LOOP,0.0001,8e-05,7e-05,8e-05,0.0,0.0,0.6561,0.6561,0.6561,,0.67,,False,0.0,0.0,0.0,0.0,0.0,0.5304,0.5333,0.004,True,True,Mode(963497464),0.4035,35,0.6539
1.913,THRUST_SEARCH,OPEN_LOOP,0.0001,7e-05,4e-05,7e-05,0.0,-1e-05,0.6565,0.6565,0.6565,,0.67,,False,0.0,0.0,0.0,0.0,0.0,0.5304,0.5296,0.0,True,False,Mode(963497464),0.415,36,0.6561
1.924,THRUST_SEARCH,OPEN_LOOP,0.0001,7e-05,4e-05,7e-05,0.0,-2e-05,0.657,0.657,0.657,,0.67,,False,0.0,0.0,0.0,0.0,0.0,0.5304,0.5281,0.002,True,False,Mode(963497464),0.426,36,0.6561
1.936,THRUST_SEARCH,OPEN_LOOP,0.0001,7e-05,5e-05,7e-05,0.0,-3e-05,0.6574,0.6574,0.6574,,0.67,,False,0.0,0.0,0.0,0.0,0.0,0.5304,0.5274,0.0072,True,False,Mode(963497464),0.4372,36,0.6561
1.947,THRUST_SEARCH,OPEN_LOOP,0.0001,7e-05,4e-05,7e-05,0.0,-4e-05,0.6579,0.6579,0.6579,,0.67,,False,0.0,0.0,0.0,0.0,0.0,0.5304,0.5317,0.001,True,False,Mode(963497464),0.4482,36,0.6561
1.958,THRUST_SEARCH,OPEN_LOOP,0.0001,7e-05,8e-05,8e-05,0.0,-3e-05,0.6583,0.6583,0.6583,,0.67,,False,0.0,0.0,0.0,0.0,0.0,0.5304,0.5321,0.003,True,True,Mode(963497464),0.4591,36,0.6561
1.968,THRUST_SEARCH,OPEN_LOOP,0.0001,7e-05,6e-05,7e-05,0.0,-4e-05,0.6587,0.6587,0.6587,,0.67,,False,0.0,0.0,0.0,0.0,0.0,0.5304,0.5308,0.0045,True,False,Mode(963497464),0.4696,37,0.6583
1.979,THRUST_SEARCH,OPEN_LOOP,0.0001,6e-05,1e-05,6e-05,0.0,-6e-05,0.6592,0.6592,0.6592,,0.67,,False,0.0,0.0,0.0,0.0,0.0,0.5304,0.5297,0.0013,True,False,Mode(963497464),0.4809,37,0.6583
1.99,THRUST_SEARCH,OPEN_LOOP,0.0001,6e-05,4e-05,6e-05,0.0,-6e-05,0.6596,0.6596,0.6596,,0.67,,False,0.0,0.0,0.0,0.0,0.0,0.5304,0.5283,0.003,True,False,Mode(963497464),0.4919,37,0.6583
2.001,THRUST_SEARCH,OPEN_LOOP,0.0001,6e-05,6e-05,6e-05,0.0,-6e-05,0.66,0.66,0.66,,0.67,,False,0.0,0.0,0.0,0.0,0.0,0.5304,0.5265,0.0045,True,False,Mode(963497464),0.5024,37,0.6583
2.012,THRUST_SEARCH,OPEN_LOOP,0.0001,6e-05,9e-05,9e-05,0.0,-5e-05,0.6605,0.6605,0.6605,,0.67,,False,0.0,0.0,0.0,0.0,0.0,0.5304,0.5236,0.007,True,True,Mode(963497464),0.5133,37,0.6583
2.023,THRUST_SEARCH,OPEN_LOOP,0.0001,6e-05,7e-05,7e-05,0.0,-5e-05,0.6609,0.6609,0.6609,,0.67,,False,0.0,0.0,0.0,0.0,0.0,0.5304,0.5264,0.003,True,False,Mode(963497464),0.5243,38,0.6605
2.033,THRUST_SEARCH,OPEN_LOOP,0.0001,6e-05,6e-05,6e-05,0.0,-5e-05,0.6613,0.6613,0.6613,,0.67,,False,0.0,0.0,0.0,0.0,0.0,0.5304,0.5262,0.0045,True,False,Mode(963497464),0.5348,38,0.6605
2.044,THRUST_SEARCH,OPEN_LOOP,0.0001,6e-05,5e-05,6e-05,0.0,-5e-05,0.6618,0.6618,0.6618,,0.67,,False,0.0,0.0,0.0,0.0,0.0,0.5304,0.5259,0.0067,True,False,Mode(963497464),0.5455,38,0.6605
2.055,THRUST_SEARCH,OPEN_LOOP,0.0001,7e-05,0.0002,0.0002,0.0,0.0,0.6622,0.6622,0.6622,,0.67,,False,0.0,0.0,0.0,0.0,0.0,0.5304,0.5364,0.009,True,False,Mode(963497464),0.5565,38,0.6605
2.065,THRUST_SEARCH,OPEN_LOOP,0.0001,7e-05,1e-05,7e-05,0.0,-2e-05,0.6626,0.6626,0.6626,,0.67,,False,0.0,0.0,0.0,0.0,0.0,0.5304,0.5353,0.0015,True,True,Mode(963497464),0.567,38,0.6605
2.076,THRUST_SEARCH,OPEN_LOOP,0.0001,7e-05,7e-05,7e-05,0.0,-2e-05,0.6631,0.6631,0.6631,,0.67,,False,0.0,0.0,0.0,0.0,0.0,0.5304,0.5371,0.006,True,False,Mode(963497464),0.5779,39,0.6626
2.087,THRUST_SEARCH,OPEN_LOOP,0.0001,7e-05,7e-05,7e-05,0.0,-2e-05,0.6635,0.6635,0.6635,,0.67,,False,0.0,0.0,0.0,0.0,0.0,0.5304,0.5353,0.0065,True,False,Mode(963497464),0.5884,39,0.6626
2.098,THRUST_SEARCH,OPEN_LOOP,0.0001,7e-05,7e-05,7e-05,0.0,-2e-05,0.6639,0.6639,0.6639,,0.67,,False,0.0,0.0,0.0,0.0,0.0,0.5304,0.5283,0.001,True,False,Mode(963497464),0.5999,39,0.6626
2.109,THRUST_SEARCH,OPEN_LOOP,0.0001,6e-05,2e-05,6e-05,0.0,-3e-05,0.6644,0.6644,0.6644,,0.67,,False,0.0,0.0,0.0,0.0,0.0,0.5304,0.5282,0.006,True,False,Mode(963497464),0.6109,39,0.6626
2.12,THRUST_SEARCH,OPEN_LOOP,0.0001,6e-05,6e-05,6e-05,0.0,-3e-05,0.6648,0.6648,0.6648,,0.67,,False,0.0,0.0,0.0,0.0,0.0,0.5304,0.5274,0.0068,True,True,Mode(963497464),0.6216,39,0.6626
2.131,THRUST_SEARCH,OPEN_LOOP,0.0001,6e-05,1e-05,6e-05,0.0,-5e-05,0.6652,0.6652,0.6652,,0.67,,False,0.0,0.0,0.0,0.0,0.0,0.5304,0.5233,0.003,True,False,Mode(963497464),0.6326,40,0.6648
2.142,THRUST_SEARCH,OPEN_LOOP,0.0001,7e-05,0.00022,0.00022,0.0,1e-05,0.6657,0.6657,0.6657,,0.67,,False,0.0,0.0,0.0,0.0,0.0,0.5304,0.5349,0.005,True,False,Mode(963497464),0.6435,40,0.6648
2.153,THRUST_SEARCH,OPEN_LOOP,0.0001,7e-05,9e-05,9e-05,0.0,2e-05,0.6661,0.6661,0.6661,,0.67,,False,0.0,0.0,0.0,0.0,0.0,0.5304,0.5355,0.0072,True,False,Mode(963497464),0.6547,40,0.6648
2.164,THRUST_SEARCH,OPEN_LOOP,0.0001,7e-05,9e-05,9e-05,0.0,2e-05,0.6666,0.6666,0.6666,,0.67,,False,0.0,0.0,0.0,0.0,0.0,0.5304,0.5361,0.0014,True,False,Mode(963497464),0.6661,40,0.6648
2.175,THRUST_SEARCH,OPEN_LOOP,0.0001,8e-05,9e-05,9e-05,0.0,3e-05,0.667,0.667,0.667,,0.67,,False,0.0,0.0,0.0,0.0,0.0,0.5304,0.534,0.006,True,True,Mode(963497464),0.6771,40,0.6648
2.186,THRUST_SEARCH,OPEN_LOOP,0.0001,8e-05,8e-05,8e-05,0.0,3e-05,0.6675,0.6675,0.6675,,0.67,,False,0.0,0.0,0.0,0.0,0.0,0.5304,0.5358,0.008,True,False,Mode(963497464),0.6881,41,0.667
2.197,THRUST_SEARCH,OPEN_LOOP,0.0001,8e-05,5e-05,8e-05,0.0,2e-05,0.6679,0.6679,0.6679,,0.67,,False,0.0,0.0,0.0,0.0,0.0,0.5304,0.5316,0.0006,True,False,Mode(963497464),0.6986,41,0.667
2.208,THRUST_SEARCH,OPEN_LOOP,0.0001,8e-05,8e-05,8e-05,0.0,2e-05,0.6683,0.6683,0.6683,,0.67,,False,0.0,0.0,0.0,0.0,0.0,0.5304,0.529,0.003,True,False,Mode(963497464),0.7096,41,0.667
2.218,THRUST_SEARCH,OPEN_LOOP,0.0001,8e-05,0.00011,0.00011,0.0,3e-05,0.6687,0.6687,0.6687,,0.67,,False,0.0,0.0,0.0,0.0,0.0,0.5304,0.5301,0.0045,True,False,Mode(963497464),0.7201,41,0.667
2.229,THRUST_SEARCH,OPEN_LOOP,0.0001,7e-05,1e-05,7e-05,0.0,1e-05,0.6692,0.6692,0.6692,,0.67,,False,0.0,0.0,0.0,0.0,0.0,0.5304,0.5229,0.001,True,True,Mode(963497464),0.7311,41,0.667
2.24,THRUST_SEARCH,OPEN_LOOP,0.0001,7e-05,7e-05,7e-05,0.0,1e-05,0.6696,0.6696,0.6696,,0.67,,False,0.0,0.0,0.0,0.0,0.0,0.5304,0.5245,0.003,True,False,Mode(963497464),0.742,42,0.6692
2.251,THRUST_SEARCH,OPEN_LOOP,0.0001,7e-05,7e-05,7e-05,0.0,1e-05,0.67,0.67,0.67,,0.67,,False,0.0,0.0,0.0,0.0,0.0,0.5304,0.5245,0.0045,True,False,Mode(963497464),0.7525,42,0.6692
2.261,THRUST_SEARCH,OPEN_LOOP,0.0001,7e-05,6e-05,7e-05,0.0,0.0,0.6705,0.6705,0.6705,,0.67,,False,0.0,0.0,0.0,0.0,0.0,0.5304,0.524,0.0066,True,False,Mode(963497464),0.7631,42,0.6692
2.272,THRUST_SEARCH,OPEN_LOOP,0.0001,7e-05,7e-05,7e-05,0.0,0.0,0.6709,0.6709,0.6709,,0.67,,False,0.0,0.0,0.0,0.0,0.0,0.5304,0.5295,0.009,True,False,Mode(963497464),0.774,42,0.6692
2.283,THRUST_SEARCH,OPEN_LOOP,0.0001,7e-05,3e-05,7e-05,0.0,-1e-05,0.6713,0.6713,0.6713,,0.67,,False,0.0,0.0,0.0,0.0,0.0,0.5304,0.5258,0.0045,True,True,Mode(963497464),0.7845,42,0.6692
2.294,THRUST_SEARCH,OPEN_LOOP,0.0001,7e-05,0.00011,0.00011,0.0,0.0,0.6717,0.6717,0.6717,,0.67,,False,0.0,0.0,0.0,0.0,0.0,0.5304,0.5233,0.0068,True,False,Mode(963497464),0.7953,43,0.6713
2.305,THRUST_SEARCH,OPEN_LOOP,0.0001,7e-05,9e-05,9e-05,0.0,1e-05,0.6722,0.6722,0.6722,,0.67,,False,0.0,0.0,0.0,0.0,0.0,0.5304,0.5225,0.009,True,False,Mode(963497464),0.8063,43,0.6713
2.316,THRUST_SEARCH,OPEN_LOOP,0.0001,7e-05,5e-05,7e-05,0.0,0.0,0.6726,0.6726,0.6726,,0.67,,False,0.0,0.0,0.0,0.0,0.0,0.5304,0.522,0.004,True,False,Mode(963497464),0.8172,43,0.6713
2.326,THRUST_SEARCH,OPEN_LOOP,0.0001,7e-05,4e-05,7e-05,0.0,-1e-05,0.673,0.673,0.673,,0.67,,False,0.0,0.0,0.0,0.0,0.0,0.5304,0.5201,0.006,True,False,Mode(963497464),0.8278,43,0.6713
2.337,THRUST_SEARCH,OPEN_LOOP,0.0001,7e-05,0.00011,0.00011,0.0,1e-05,0.6735,0.6735,0.6735,,0.67,,False,0.0,0.0,0.0,0.0,0.0,0.5304,0.5196,0.0007,True,True,Mode(963497464),0.8385,43,0.6713
2.348,THRUST_SEARCH,OPEN_LOOP,0.0001,7e-05,6e-05,7e-05,0.0,0.0,0.6739,0.6739,0.6739,,0.67,,False,0.0,0.0,0.0,0.0,0.0,0.5304,0.5245,0.003,True,False,Mode(963497464),0.8495,44,0.6735
2.359,THRUST_SEARCH,OPEN_LOOP,0.0001,7e-05,2e-05,7e-05,0.0,-1e-05,0.6744,0.6744,0.6744,,0.67,,False,0.0,0.0,0.0,0.0,0.0,0.5304,0.5273,0.002,True,False,Mode(963497464),0.8604,44,0.6735
2.37,THRUST_SEARCH,OPEN_LOOP,0.0001,7e-05,5e-05,7e-05,0.0,-2e-05,0.6748,0.6748,0.6748,,0.67,,False,0.0,0.0,0.0,0.0,0.0,0.5304,0.5275,0.007,True,False,Mode(963497464),0.8714,44,0.6735
2.381,THRUST_SEARCH,OPEN_LOOP,0.0001,7e-05,7e-05,7e-05,0.0,-2e-05,0.6752,0.6752,0.6752,,0.67,,False,0.0,0.0,0.0,0.0,0.0,0.5304,0.5247,0.0007,True,False,Mode(963497464),0.8827,44,0.6735
2.392,THRUST_SEARCH,OPEN_LOOP,0.0001,6e-05,4e-05,6e-05,0.0,-3e-05,0.6757,0.6757,0.6757,,0.67,,False,0.0,0.0,0.0,0.0,0.0,0.5304,0.5233,0.0029,True,True,Mode(963497464),0.8936,44,0.6735
2.403,THRUST_SEARCH,OPEN_LOOP,0.0001,6e-05,3e-05,6e-05,0.0,-4e-05,0.6761,0.6761,0.6761,,0.67,,False,0.0,0.0,0.0,0.0,0.0,0.5304,0.5255,0.006,True,False,Mode(963497464),0.9046,45,0.6757
2.413,THRUST_SEARCH,OPEN_LOOP,0.0001,6e-05,5e-05,6e-05,0.0,-4e-05,0.6765,0.6765,0.6765,,0.67,,False,0.0,0.0,0.0,0.0,0.0,0.5304,0.5235,0.0015,True,False,Mode(963497464),0.9151,45,0.6757
2.424,THRUST_SEARCH,OPEN_LOOP,0.0001,6e-05,8e-05,8e-05,0.0,-4e-05,0.677,0.677,0.677,,0.67,,False,0.0,0.0,0.0,0.0,0.0,0.5304,0.5244,0.0025,True,False,Mode(963497464),0.9259,45,0.6757
2.435,THRUST_SEARCH,OPEN_LOOP,0.0001,6e-05,5e-05,6e-05,0.0,-4e-05,0.6774,0.6774,0.6774,,0.67,,False,0.0,0.0,0.0,0.0,0.0,0.5304,0.5254,0.005,True,False,Mode(963497464),0.9368,45,0.6757
2.446,THRUST_SEARCH,OPEN_LOOP,0.0001,6e-05,7e-05,7e-05,0.0,-4e-05,0.6778,0.6778,0.6778,,0.67,,False,0.0,0.0,0.0,0.0,0.0,0.5304,0.526,0.001,True,True,Mode(963497464),0.9475,45,0.6757
2.457,THRUST_SEARCH,OPEN_LOOP,0.0001,6e-05,6e-05,6e-05,0.0,-4e-05,0.6783,0.6783,0.6783,,0.67,,False,0.0,0.0,0.0,0.0,0.0,0.5304,0.5268,0.003,True,False,Mode(963497464),0.9584,46,0.6778
2.467,THRUST_SEARCH,OPEN_LOOP,0.0001,6e-05,3e-05,6e-05,0.0,-5e-05,0.6787,0.6787,0.6787,,0.67,,False,0.0,0.0,0.0,0.0,0.0,0.5304,0.5224,0.0045,True,False,Mode(963497464),0.9689,46,0.6778
2.478,THRUST_SEARCH,OPEN_LOOP,0.0001,5e-05,2e-05,5e-05,0.0,-6e-05,0.6791,0.6791,0.6791,,0.67,,False,0.0,0.0,0.0,0.0,0.0,0.5304,0.5229,0.007,True,False,Mode(963497464),0.9799,46,0.6778
2.489,THRUST_SEARCH,OPEN_LOOP,0.0001,6e-05,9e-05,9e-05,0.0,-5e-05,0.6796,0.6796,0.6796,,0.67,,False,0.0,0.0,0.0,0.0,0.0,0.5304,0.5351,0.003,True,False,Mode(963497464),0.9909,46,0.6778
2.5,THRUST_SEARCH,OPEN_LOOP,0.0001,5e-05,3e-05,5e-05,0.0,-5e-05,0.68,0.68,0.68,,0.67,,False,0.0,0.0,0.0,0.0,0.0,0.5304,0.534,0.0045,True,True,Mode(963497464),1.0014,46,0.6778
2.511,THRUST_SEARCH,OPEN_LOOP,0.0001,6e-05,9e-05,9e-05,0.0,-4e-05,0.6804,0.6804,0.6804,,0.67,,False,0.0,0.0,0.0,0.0,0.0,0.5304,0.5355,0.007,True,False,Mode(963497464),1.0123,47,0.68
2.522,THRUST_SEARCH,OPEN_LOOP,0.0001,5e-05,5e-05,5e-05,0.0,-4e-05,0.6809,0.6809,0.6809,,0.67,,False,0.0,0.0,0.0,0.0,0.0,0.5304,0.5356,0.009,True,False,Mode(963497464),1.0233,47,0.68
2.533,THRUST_SEARCH,OPEN_LOOP,0.0001,6e-05,8e-05,8e-05,0.0,-3e-05,0.6813,0.6813,0.6813,,0.67,,False,0.0,0.0,0.0,0.0,0.0,0.5304,0.5319,0.005,True,False,Mode(963497464),0.0,47,0.68
2.544,THRUST_SEARCH,OPEN_LOOP,0.0001,7e-05,0.0002,0.0002,0.0,2e-05,0.6817,0.6817,0.6817,,0.67,,False,0.0,0.0,0.0,0.0,0.0,0.5304,0.5434,0.007,True,False,Mode(963497464),0.011,47,0.68
2.556,THRUST_SEARCH,OPEN_LOOP,0.0001,8e-05,0.00019,0.00019,0.0,7e-05,0.6822,0.6822,0.6822,,0.67,,False,0.0,0.0,0.0,0.0,0.0,0.5304,0.5535,0.0006,True,True,Mode(963497464),0.0225,47,0.68
2.566,THRUST_SEARCH,OPEN_LOOP,0.0001,8e-05,0.00013,0.00013,0.0,8e-05,0.6826,0.6826,0.6826,,0.67,,False,0.0,0.0,0.0,0.0,0.0,0.5304,0.55,0.002,True,False,Mode(963497464),0.0329,48,0.6822
2.576,THRUST_SEARCH,OPEN_LOOP,0.0001,8e-05,3e-05,8e-05,0.0,6e-05,0.683,0.683,0.683,,0.67,,False,0.0,0.0,0.0,0.0,0.0,0.5304,0.545,0.0066,True,False,Mode(963497464),0.0434,48,0.6822
2.587,THRUST_SEARCH,OPEN_LOOP,0.0001,8e-05,1e-05,8e-05,0.0,4e-05,0.6835,0.6835,0.6835,,0.67,,False,0.0,0.0,0.0,0.0,0.0,0.5304,0.5463,0.009,True,False,Mode(963497464),0.0544,48,0.6822
2.598,THRUST_SEARCH,OPEN_LOOP,0.0001,7e-05,6e-05,7e-05,0.0,3e-05,0.6839,0.6839,0.6839,,0.67,,False,0.0,0.0,0.0,0.0,0.0,0.5304,0.5378,0.002,True,False,Mode(963497464),0.0654,48,0.6822
2.609,THRUST_SEARCH,OPEN_LOOP,0.0001,7e-05,3e-05,7e-05,0.0,2e-05,0.6844,0.6844,0.6844,,0.67,,False,0.0,0.0,0.0,0.0,0.0,0.5304,0.5398,0.004,True,True,Mode(963497464),0.0763,48,0.6822
2.62,THRUST_SEARCH,OPEN_LOOP,0.0001,7e-05,7e-05,7e-05,0.0,2e-05,0.6848,0.6848,0.6848,,0.67,,False,0.0,0.0,0.0,0.0,0.0,0.5304,0.5395,0.001,True,False,Mode(963497464),0.0878,49,0.6844
2.631,THRUST_SEARCH,OPEN_LOOP,0.0001,7e-05,3e-05,7e-05,0.0,0.0,0.6853,0.6853,0.6853,,0.67,,False,0.0,0.0,0.0,0.0,0.0,0.5304,0.5363,0.003,True,False,Mode(963497464),0.0988,49,0.6844
2.642,THRUST_SEARCH,OPEN_LOOP,0.0001,7e-05,4e-05,7e-05,0.0,-1e-05,0.6857,0.6857,0.6857,,0.67,,False,0.0,0.0,0.0,0.0,0.0,0.5304,0.5401,0.005,True,False,Mode(963497464),0.1097,49,0.6844
2.654,THRUST_SEARCH,OPEN_LOOP,0.0001,7e-05,6e-05,7e-05,0.0,-1e-05,0.6861,0.6861,0.6861,,0.67,,False,0.0,0.0,0.0,0.0,0.0,0.5304,0.5353,0.007,True,False,Mode(963497464),0.1211,49,0.6844
2.665,THRUST_SEARCH,OPEN_LOOP,0.0001,7e-05,7e-05,7e-05,0.0,-0.0,0.6866,0.6866,0.6866,,0.67,,False,0.0,0.0,0.0,0.0,0.0,0.5304,0.5321,0.003,True,True,Mode(963497464),0.1315,49,0.6844
2.675,THRUST_SEARCH,OPEN_LOOP,0.0001,7e-05,0.00011,0.00011,0.0,1e-05,0.687,0.687,0.687,,0.67,,False,0.0,0.0,0.0,0.0,0.0,0.5304,0.5341,0.0045,True,False,Mode(963497464),0.142,50,0.6866
2.685,THRUST_SEARCH,OPEN_LOOP,0.0001,7e-05,3e-05,7e-05,0.0,-1e-05,0.6874,0.6874,0.6874,,0.67,,False,0.0,0.0,0.0,0.0,0.0,0.5304,0.5339,0.0067,True,False,Mode(963497464),0.1526,50,0.6866
2.696,THRUST_SEARCH,OPEN_LOOP,0.0001,6e-05,5e-05,6e-05,0.0,-1e-05,0.6878,0.6878,0.6878,,0.67,,False,0.0,0.0,0.0,0.0,0.0,0.5304,0.5352,0.009,True,False,Mode(963497464),0.1636,50,0.6866
2.707,THRUST_SEARCH,OPEN_LOOP,0.0001,6e-05,7e-05,7e-05,0.0,-1e-05,0.6883,0.6883,0.6883,,0.67,,False,0.0,0.0,0.0,0.0,0.0,0.5304,0.5399,0.0037,True,False,Mode(963497464),0.1743,50,0.6866
2.719,THRUST_SEARCH,OPEN_LOOP,0.0001,6e-05,5e-05,6e-05,0.0,-2e-05,0.6887,0.6887,0.6887,,0.67,,False,0.0,0.0,0.0,0.0,0.0,0.5304,0.5358,0.0061,True,True,Mode(963497464),0.1854,50,0.6866
2.728,THRUST_SEARCH,OPEN_LOOP,0.0001,6e-05,8e-05,8e-05,0.0,-1e-05,0.6891,0.6891,0.6891,,0.67,,False,0.0,0.0,0.0,0.0,0.0,0.5304,0.535,0.0075,True,False,Mode(963497464),0.1957,51,0.6887
2.74,THRUST_SEARCH,OPEN_LOOP,0.0001,7e-05,0.00018,0.00018,0.0,3e-05,0.6896,0.6896,0.6896,,0.67,,False,0.0,0.0,0.0,0.0,0.0,0.5304,0.5439,0.0015,True,False,Mode(963497464),0.2072,51,0.6887
2.751,THRUST_SEARCH,OPEN_LOOP,0.0001,7e-05,5e-05,7e-05,0.0,2e-05,0.69,0.69,0.69,,0.67,,False,0.0,0.0,0.0,0.0,0.0,0.5304,0.5381,0.006,True,False,Mode(963497464),0.2181,51,0.6887
2.761,THRUST_SEARCH,OPEN_LOOP,0.0001,7e-05,8e-05,8e-05,0.0,2e-05,0.6904,0.6904,0.6904,,0.67,,False,0.0,0.0,0.0,0.0,0.0,0.5304,0.5348,0.0075,True,False,Mode(963497464),0.2286,51,0.6887
2.772,THRUST_SEARCH,OPEN_LOOP,0.0001,7e-05,7e-05,7e-05,0.0,2e-05,0.6909,0.6909,0.6909,,0.67,,False,0.0,0.0,0.0,0.0,0.0,0.5304,0.5342,0.0006,True,True,Mode(963497464),0.2391,51,0.6887
2.783,THRUST_SEARCH,OPEN_LOOP,0.0001,7e-05,8e-05,8e-05,0.0,2e-05,0.6913,0.6913,0.6913,,0.67,,False,0.0,0.0,0.0,0.0,0.0,0.5304,0.5333,0.0035,True,False,Mode(963497464),0.2506,52,0.6909
2.794,THRUST_SEARCH,OPEN_LOOP,0.0001,7e-05,6e-05,7e-05,0.0,2e-05,0.6917,0.6917,0.6917,,0.67,,False,0.0,0.0,0.0,0.0,0.0,0.5304,0.5328,0.005,True,False,Mode(963497464),0.2611,52,0.6909
2.805,THRUST_SEARCH,OPEN_LOOP,0.0001,7e-05,6e-05,7e-05,0.0,1e-05,0.6922,0.6922,0.6922,,0.67,,False,0.0,0.0,0.0,0.0,0.0,0.5304,0.5288,0.001,True,False,Mode(963497464),0.2721,52,0.6909
2.816,THRUST_SEARCH,OPEN_LOOP,0.0001,7e-05,3e-05,7e-05,0.0,-0.0,0.6926,0.6926,0.6926,,0.67,,False,0.0,0.0,0.0,0.0,0.0,0.5304,0.5235,0.003,True,False,Mode(963497464),0.283,52,0.6909
2.826,THRUST_SEARCH,OPEN_LOOP,0.0001,7e-05,7e-05,7e-05,0.0,-0.0,0.693,0.693,0.693,,0.67,,False,0.0,0.0,0.0,0.0,0.0,0.5304,0.5196,0.0045,True,True,Mode(963497464),0.2935,52,0.6909
2.837,THRUST_SEARCH,OPEN_LOOP,0.0001,7e-05,9e-05,9e-05,0.0,1e-05,0.6935,0.6935,0.6935,,0.67,,False,0.0,0.0,0.0,0.0,0.0,0.5304,0.5177,0.007,True,False,Mode(963497464),0.3045,53,0.693
2.848,THRUST_SEARCH,OPEN_LOOP,0.0001,7e-05,3e-05,7e-05,0.0,-1e-05,0.6939,0.6939,0.6939,,0.67,,False,0.0,0.0,0.0,0.0,0.0,0.5304,0.5179,0.009,True,False,Mode(963497464),0.315,53,0.693
2.858,THRUST_SEARCH,OPEN_LOOP,0.0001,7e-05,9e-05,9e-05,0.0,0.0,0.6943,0.6943,0.6943,,0.67,,False,0.0,0.0,0.0,0.0,0.0,0.5304,0.5219,0.0045,True,False,Mode(963497464),0.3255,53,0.693
2.869,THRUST_SEARCH,OPEN_LOOP,0.0001,7e-05,0.0001,0.0001,0.0,1e-05,0.6947,0.6947,0.6947,,0.67,,False,0.0,0.0,0.0,0.0,0.0,0.5304,0.5226,0.0066,True,False,Mode(963497464),0.336,53,0.693
2.881,THRUST_SEARCH,OPEN_LOOP,0.0001,7e-05,9e-05,9e-05,0.0,2e-05,0.6952,0.6952,0.6952,,0.67,,False,0.0,0.0,0.0,0.0,0.0,0.5304,0.5265,0.009,True,True,Mode(963497464),0.347,53,0.693
2.89,THRUST_SEARCH,OPEN_LOOP,0.0001,7e-05,4e-05,7e-05,0.0,1e-05,0.6956,0.6956,0.6956,,0.67,,False,0.0,0.0,0.0,0.0,0.0,0.5304,0.5249,0.0015,True,False,Mode(963497464),0.3574,54,0.6952
2.901,THRUST_SEARCH,OPEN_LOOP,0.0001,7e-05,7e-05,7e-05,0.0,1e-05,0.696,0.696,0.696,,0.67,,False,0.0,0.0,0.0,0.0,0.0,0.5304,0.5254,0.0045,True,False,Mode(963497464),0.3679,54,0.6952
2.911,THRUST_SEARCH,OPEN_LOOP,0.0001,7e-05,6e-05,7e-05,0.0,0.0,0.6965,0.6965,0.6965,,0.67,,False,0.0,0.0,0.0,0.0,0.0,0.5304,0.5218,0.007,True,False,Mode(963497464),0.3789,54,0.6952
2.923,THRUST_SEARCH,OPEN_LOOP,0.0001,7e-05,6e-05,7e-05,0.0,0.0,0.6969,0.6969,0.6969,,0.67,,False,0.0,0.0,0.0,0.0,0.0,0.5304,0.5349,0.001,True,False,Mode(963497464),0.3904,54,0.6952
2.934,THRUST_SEARCH,OPEN_LOOP,0.0001,7e-05,9e-05,9e-05,0.0,1e-05,0.6974,0.6974,0.6974,,0.67,,False,0.0,0.0,0.0,0.0,0.0,0.5304,0.5335,0.0031,True,True,Mode(963497464),0.4015,54,0.6952
2.945,THRUST_SEARCH,OPEN_LOOP,0.0001,7e-05,0.0001,0.0001,0.0,2e-05,0.6978,0.6978,0.6978,,0.67,,False,0.0,0.0,0.0,0.0,0.0,0.5304,0.5331,0.008,True,False,Mode(963497464),0.4123,55,0.6974
2.956,THRUST_SEARCH,OPEN_LOOP,0.0001,8e-05,9e-05,9e-05,0.0,2e-05,0.6982,0.6982,0.6982,,0.67,,False,0.0,0.0,0.0,0.0,0.0,0.5304,0.5302,0.0,True,False,Mode(963497464),0.4233,55,0.6974
2.967,THRUST_SEARCH,OPEN_LOOP,0.0001,8e-05,8e-05,8e-05,0.0,3e-05,0.6987,0.6987,0.6987,,0.67,,False,0.0,0.0,0.0,0.0,0.0,0.5304,0.5332,0.003,True,False,Mode(963497464),0.4342,55,0.6974
2.978,THRUST_SEARCH,OPEN_LOOP,0.0001,8e-05,0.00013,0.00013,0.0,4e-05,0.6991,0.6991,0.6991,,0.67,,False,0.0,0.0,0.0,0.0,0.0,0.5304,0.5317,0.008,True,False,Mode(963497464),0.4452,55,0.6974
2.989,THRUST_SEARCH,OPEN_LOOP,0.0001,0.0001,0.00026,0.00026,0.0,0.00011,0.6996,0.6996,0.6996,,0.67,,False,0.0,0.0,0.0,0.0,0.0,0.5304,0.5538,0.0,True,True,Mode(963497464),0.4563,55,0.6974
3.0,THRUST_SEARCH,OPEN_LOOP,0.0001,0.00012,0.00032,0.00032,0.0,0.00019,0.7,0.7,0.7,,0.67,,False,0.0,0.0,0.0,0.0,0.0,0.5304,0.5662,0.002,True,False,Mode(963497464),0.4672,56,0.6996
3.01,THRUST_SEARCH,OPEN_LOOP,0.0002,0.00016,0.00062,0.00062,0.0,0.00037,0.7004,0.7004,0.7004,,0.67,,False,0.0,0.0,0.0,0.0,0.0,0.5304,0.5729,0.0066,True,False,Mode(963497464),0.4778,56,0.6996
3.021,THRUST_SEARCH,OPEN_LOOP,0.0003,0.00026,0.00128,0.00128,0.0,0.00076,0.7009,0.7009,0.7009,,0.67,,False,0.0,0.0,0.0,0.0,0.0,0.5304,0.6518,0.009,True,False,Mode(963497464),0.4887,56,0.6996
3.032,THRUST_SEARCH,OPEN_LOOP,0.0005,0.00047,0.00256,0.00256,0.0,0.00158,0.7013,0.7013,0.7013,,0.67,,False,0.0,0.0,0.0,0.0,0.0,0.5304,0.8701,0.0015,True,False,Mode(963497464),0.4992,56,0.6996
3.043,THRUST_SEARCH,OPEN_LOOP,0.0008,0.00078,0.00387,0.00387,0.0,0.00278,0.7017,0.7017,0.7017,,0.67,,False,0.0,0.0,0.0,0.0,0.0,0.5304,0.9269,0.006,True,True,Mode(963497464),0.5102,56,0.6996
3.054,THRUST_SEARCH,OPEN_LOOP,0.0012,0.00118,0.00515,0.00515,0.0,0.00433,0.7022,0.7022,0.7022,,0.67,,False,0.0,0.0,0.0,0.0,0.0,0.5304,0.8365,0.008,True,False,Mode(963497464),0.5212,57,0.7017
3.065,THRUST_SEARCH,OPEN_LOOP,0.0018,0.0018,0.00793,0.00793,0.0,0.00672,0.7026,0.7026,0.7026,,0.67,,False,0.0,0.0,0.0,0.0,0.0,0.5304,0.3375,0.001,True,False,Mode(963497464),0.5321,57,0.7017
3.076,THRUST_SEARCH,OPEN_LOOP,0.0027,0.00265,0.01085,0.01085,0.0,0.00992,0.703,0.703,0.703,,0.67,,False,0.0,0.0,0.0,0.0,0.0,0.5304,-0.0911,0.006,True,False,Mode(963497464),0.5431,57,0.7017
3.087,THRUST_SEARCH,OPEN_LOOP,0.0036,0.00357,0.01214,0.01214,0.0,0.01327,0.7035,0.7035,0.7035,,0.67,,False,0.0,0.0,0.0,0.0,0.0,0.5304,-0.4872,0.008,True,False,Mode(963497464),0.5541,57,0.7017
3.098,THRUST_SEARCH,OPEN_LOOP,0.0045,0.00455,0.01337,0.01337,0.0,0.01672,0.7039,0.7039,0.7039,,0.67,,False,0.0,0.0,0.0,0.0,0.0,0.5304,-1.1806,0.001,True,True,Mode(963497464),0.565,57,0.7017
3.109,THRUST_SEARCH,OPEN_LOOP,0.0056,0.0056,0.01481,0.01481,0.0,0.02032,0.7043,0.7043,0.7043,,0.67,,False,0.0,0.0,0.0,0.0,0.0,0.5304,-1.5816,0.003,True,False,Mode(963497464),0.576,58,0.7039
3.12,THRUST_SEARCH,OPEN_LOOP,0.0067,0.00674,0.01648,0.01648,0.0,0.02413,0.7048,0.7048,0.7048,,0.67,,False,0.0,0.0,0.0,0.0,0.0,0.5304,-2.0109,0.008,True,False,Mode(963497464),0.587,58,0.7039
3.131,THRUST_SEARCH,OPEN_LOOP,0.0082,0.00815,0.02024,0.02024,0.0,0.02886,0.7052,0.7052,0.7052,,0.67,,False,0.0,0.0,0.0,0.0,0.0,0.5304,-2.5665,0.001,True,False,Mode(963497464),0.598,58,0.7039
3.142,THRUST_SEARCH,OPEN_LOOP,0.0096,0.00963,0.02194,0.02194,0.0,0.03368,0.7057,0.7057,0.7057,,0.67,,False,0.0,0.0,0.0,0.0,0.0,0.5304,-2.6884,0.003,True,False,Mode(963497464),0.6089,58,0.7039
3.152,THRUST_SEARCH,OPEN_LOOP,0.0111,0.0111,0.02296,0.02296,0.0,0.03831,0.7061,0.7061,0.7061,,0.67,,False,0.0,0.0,0.0,0.0,0.0,0.5304,-2.7954,0.0075,True,True,Mode(963497464),0.6194,58,0.7039
3.163,THRUST_SEARCH,OPEN_LOOP,0.0127,0.01274,0.02569,0.02569,0.0,0.04336,0.7065,0.7065,0.7065,,0.67,,False,0.0,0.0,0.0,0.0,0.0,0.5304,-3.0577,0.001,True,False,Mode(963497464),0.6304,59,0.7061
3.174,THRUST_SEARCH,OPEN_LOOP,0.0144,0.01436,0.02644,0.02644,0.0,0.04809,0.707,0.707,0.707,,0.67,,False,0.0,0.0,0.0,0.0,0.0,0.5304,-3.2557,0.003,True,False,Mode(963497464),0.6414,59,0.7061
3.185,THRUST_SEARCH,OPEN_LOOP,0.0161,0.01608,0.02875,0.02875,0.0,0.05304,0.7074,0.7074,0.7074,,0.67,,False,0.0,0.0,0.0,0.0,0.0,0.5304,-3.5146,0.005,True,False,Mode(963497464),0.6523,59,0.7061
3.196,THRUST_SEARCH,OPEN_LOOP,0.0179,0.01794,0.03157,0.03157,0.0,0.05836,0.7078,0.7078,0.7078,,0.67,,False,0.0,0.0,0.0,0.0,0.0,0.5304,-3.8099,0.001,True,False,Mode(963497464),0.663,59,0.7061
3.207,THRUST_SEARCH,OPEN_LOOP,0.0198,0.01984,0.03317,0.03317,0.0,0.06357,0.7083,0.7083,0.7083,,0.67,,False,0.0,0.0,0.0,0.0,0.0,0.5304,-3.7568,0.003,True,True,Mode(963497464),0.674,59,0.7061
3.218,THRUST_SEARCH,OPEN_LOOP,0.0217,0.02175,0.03459,0.03459,0.0,0.06859,0.7087,0.7087,0.7087,,0.67,,False,0.0,0.0,0.0,0.0,0.0,0.5304,-3.7583,0.005,True,False,Mode(963497464),0.685,60,0.7083
3.228,THRUST_SEARCH,OPEN_LOOP,0.0236,0.02364,0.036,0.036,0.0,0.07341,0.7091,0.7091,0.7091,,0.67,,False,0.0,0.0,0.0,0.0,0.0,0.5304,-3.8426,0.007,True,False,Mode(963497464),0.6955,60,0.7083
3.239,THRUST_SEARCH,OPEN_LOOP,0.0255,0.02551,0.03734,0.03734,0.0,0.07801,0.7095,0.7095,0.7095,,0.67,,False,0.0,0.0,0.0,0.0,0.0,0.5304,-3.9788,0.009,True,False,Mode(963497464),0.706,60,0.7083
3.25,THRUST_SEARCH,OPEN_LOOP,0.0276,0.02757,0.04038,0.04038,0.0,0.08299,0.71,0.71,0.71,,0.67,,False,0.0,0.0,0.0,0.0,0.0,0.5304,-4.4474,0.002,True,False,Mode(963497464),0.717,60,0.7083
3.261,THRUST_SEARCH,OPEN_LOOP,0.0296,0.02964,0.04197,0.04197,0.0,0.08779,0.7104,0.7104,0.7104,,0.67,,False,0.0,0.0,0.0,0.0,0.0,0.5304,-4.6255,0.007,True,True,Mode(963497464),0.7279,60,0.7083
3.271,THRUST_SEARCH,OPEN_LOOP,0.0317,0.03174,0.04401,0.04401,0.0,0.09256,0.7109,0.7109,0.7109,,0.67,,False,0.0,0.0,0.0,0.0,0.0,0.5304,-5.0633,0.0006,True,False,Mode(963497464),0.7387,61,0.7104
3.282,THRUST_SEARCH,OPEN_LOOP,0.0339,0.0339,0.04599,0.04599,0.0,0.09727,0.7113,0.7113,0.7113,,0.67,,False,0.0,0.0,0.0,0.0,0.0,0.5304,-5.3561,0.003,True,False,Mode(963497464),0.7497,61,0.7104
3.293,THRUST_SEARCH,OPEN_LOOP,0.0359,0.03595,0.04695,0.04695,0.0,0.10155,0.7117,0.7117,0.7117,,0.67,,False,0.0,0.0,0.0,0.0,0.0,0.5304,-5.7252,0.0045,True,False,Mode(963497464),0.7602,61,0.7104
3.304,THRUST_SEARCH,OPEN_LOOP,0.0381,0.03815,0.04973,0.04973,0.0,0.10605,0.7121,0.7121,0.7121,,0.67,,False,0.0,0.0,0.0,0.0,0.0,0.5304,-6.0754,0.007,True,False,Mode(963497464),0.7711,61,0.7104
3.315,THRUST_SEARCH,OPEN_LOOP,0.0404,0.04042,0.0516,0.0516,0.0,0.11042,0.7126,0.7126,0.7126,,0.67,,False,0.0,0.0,0.0,0.0,0.0,0.5304,-6.7956,0.001,True,True,Mode(963497464),0.7826,61,0.7104
3.326,THRUST_SEARCH,OPEN_LOOP,0.0427,0.04271,0.05447,0.05447,0.0,0.115,0.713,0.713,0.713,,0.67,,False,0.0,0.0,0.0,0.0,0.0,0.5304,-7.1632,0.006,True,False,Mode(963497464),0.7933,62,0.7126
3.337,THRUST_SEARCH,OPEN_LOOP,0.0449,0.0449,0.05472,0.05472,0.0,0.11884,0.7135,0.7135,0.7135,,0.67,,False,0.0,0.0,0.0,0.0,0.0,0.5304,-7.5099,0.008,True,False,Mode(963497464),0.8043,62,0.7126
3.347,THRUST_SEARCH,OPEN_LOOP,0.0473,0.04725,0.05892,0.05892,0.0,0.12339,0.7139,0.7139,0.7139,,0.67,,False,0.0,0.0,0.0,0.0,0.0,0.5304,-8.158,0.0006,True,False,Mode(963497464),0.8148,62,0.7126
3.358,THRUST_SEARCH,OPEN_LOOP,0.0496,0.04962,0.06041,0.06041,0.0,0.12759,0.7143,0.7143,0.7143,,0.67,,False,0.0,0.0,0.0,0.0,0.0,0.5304,-8.4922,0.003,True,False,Mode(963497464),0.8258,62,0.7126
3.37,THRUST_SEARCH,OPEN_LOOP,0.0521,0.05208,0.06253,0.06253,0.0,0.13169,0.7148,0.7148,0.7148,,0.67,,False,0.0,0.0,0.0,0.0,0.0,0.5304,-8.8283,0.0045,True,True,Mode(963497464),0.8373,62,0.7126
3.381,THRUST_SEARCH,OPEN_LOOP,0.0545,0.05452,0.06509,0.06509,0.0,0.13583,0.7152,0.7152,0.7152,,0.67,,False,0.0,0.0,0.0,0.0,0.0,0.5304,-9.789,0.001,True,False,Mode(963497464),0.8482,63,0.7148
3.391,THRUST_SEARCH,OPEN_LOOP,0.0569,0.05689,0.06692,0.06692,0.0,0.13974,0.7157,0.7157,0.7157,,0.67,,False,0.0,0.0,0.0,0.0,0.0,0.5304,-10.3116,0.0045,True,False,Mode(963497464),0.8587,63,0.7148
3.402,THRUST_SEARCH,OPEN_LOOP,0.0593,0.05926,0.06811,0.06811,0.0,0.14321,0.7161,0.7161,0.7161,,0.67,,False,0.0,0.0,0.0,0.0,0.0,0.5304,-10.8296,0.006,True,False,Mode(963497464),0.8697,63,0.7148
3.413,THRUST_SEARCH,OPEN_LOOP,0.0617,0.06174,0.07216,0.07216,0.0,0.14727,0.7165,0.7165,0.7165,,0.67,,False,0.0,0.0,0.0,0.0,0.0,0.5304,-11.6518,0.0015,True,False,Mode(963497464),0.8802,63,0.7148
3.424,THRUST_SEARCH,OPEN_LOOP,0.0643,0.06429,0.07421,0.07421,0.0,0.15113,0.717,0.717,0.717,,0.67,,False,0.0,0.0,0.0,0.0,0.0,0.5304,-11.928,0.0031,True,True,Mode(963497464),0.8913,63,0.7148
3.434,THRUST_SEARCH,OPEN_LOOP,0.0667,0.0667,0.0756,0.0756,0.0,0.15459,0.7174,0.7174,0.7174,,0.67,,False,0.0,0.0,0.0,0.0,0.0,0.5304,-12.1401,0.0045,True,False,Mode(963497464),0.9016,64,0.717
3.445,THRUST_SEARCH,OPEN_LOOP,0.0691,0.06912,0.07737,0.07737,0.0,0.15779,0.7178,0.7178,0.7178,,0.67,,False,0.0,0.0,0.0,0.0,0.0,0.5304,-12.3366,0.0067,True,False,Mode(963497464),0.9122,64,0.717
3.456,THRUST_SEARCH,OPEN_LOOP,0.0715,0.07149,0.07824,0.07824,0.0,0.16041,0.7182,0.7182,0.7182,,0.67,,False,0.0,0.0,0.0,0.0,0.0,0.5304,-12.5895,0.009,True,False,Mode(963497464),0.0,64,0.717
3.466,THRUST_SEARCH,OPEN_LOOP,0.0739,0.07388,0.08136,0.08136,0.0,0.16331,0.7187,0.7187,0.7187,,0.67,,False,0.0,0.0,0.0,0.0,0.0,0.5304,-13.3055,0.0046,True,False,Mode(963497464),0.0105,64,0.717
3.477,THRUST_SEARCH,OPEN_LOOP,0.0763,0.07629,0.08316,0.08316,0.0,0.16598,0.7191,0.7191,0.7191,,0.67,,False,0.0,0.0,0.0,0.0,0.0,0.5304,-13.7384,0.0069,True,True,Mode(963497464),0.0213,64,0.717
3.488,THRUST_SEARCH,OPEN_LOOP,0.0787,0.07874,0.08555,0.08555,0.0,0.16862,0.7195,0.7195,0.7195,,0.67,,False,0.0,0.0,0.0,0.0,0.0,0.5304,-14.1268,0.009,True,False,Mode(963497464),0.0323,65,0.7191
