time,state,controller_mode,target_z,curr_z,raw_z,height_for_safety,target_vz,curr_vz,thrust,raw_thrust,search_thrust,liftoff_thrust,hover_thrust_est,thrust_no_floor,floor_applied,a_cmd_z,v_cmd_z,z_integral,roll_cmd_deg,pitch_cmd_deg,yaw_cmd_deg,yaw_mocap_deg,mocap_age,kf_used_measurement,mavlink_sent,mav_mode,mav_heartbeat_age,mav_send_count,mav_last_thrust
0.003,THRUST_SEARCH,OPEN_LOOP,-0.0,-1e-05,0.0,0.0,0.0,0.0,0.5801,0.5801,0.5801,,0.65,,False,0.0,0.0,0.0,0.0,0.0,172.9764,172.9856,0.0127,True,True,Mode(963497464),0.0,0,
0.012,THRUST_SEARCH,OPEN_LOOP,0.0,1e-05,2e-05,2e-05,0.0,4e-05,0.5802,0.5802,0.5802,,0.65,,False,0.0,0.0,0.0,0.0,0.0,172.9764,172.9813,0.002,True,False,Mode(963497464),0.012,1,0.5801
0.023,THRUST_SEARCH,OPEN_LOOP,0.0,5e-05,0.00013,0.00013,0.0,0.00041,0.5805,0.5805,0.5805,,0.65,,False,0.0,0.0,0.0,0.0,0.0,172.9764,172.9824,0.001,True,False,Mode(963497464),0.0233,1,0.5801
0.034,THRUST_SEARCH,OPEN_LOOP,0.0001,8e-05,0.00013,0.00013,0.0,0.0007,0.5807,0.5807,0.5807,,0.65,,False,0.0,0.0,0.0,0.0,0.0,172.9764,172.9824,0.012,True,False,Mode(963497464),0.0343,1,0.5801
0.045,THRUST_SEARCH,OPEN_LOOP,0.0001,9e-05,0.0001,0.0001,0.0,0.00078,0.5809,0.5809,0.5809,,0.65,,False,0.0,0.0,0.0,0.0,0.0,172.9764,172.9879,0.0015,True,False,Mode(963497464),0.0448,1,0.5801
0.056,THRUST_SEARCH,OPEN_LOOP,0.0001,0.00012,0.00015,0.00015,0.0,0.00103,0.5811,0.5811,0.5811,,0.65,,False,0.0,0.0,0.0,0.0,0.0,172.9764,172.99,0.001,True,True,Mode(963497464),0.0557,1,0.5801
0.067,THRUST_SEARCH,OPEN_LOOP,0.0001,0.00014,0.00016,0.00016,0.0,0.00116,0.5813,0.5813,0.5813,,0.65,,False,0.0,0.0,0.0,0.0,0.0,172.9764,172.9901,0.001,True,False,Mode(963497464),0.0667,2,0.5811
0.078,THRUST_SEARCH,OPEN_LOOP,0.0001,0.00015,0.00014,0.00015,0.0,0.00113,0.5816,0.5816,0.5816,,0.65,,False,0.0,0.0,0.0,0.0,0.0,172.9764,172.9874,0.009,True,False,Mode(963497464),0.0777,2,0.5811
0.089,THRUST_SEARCH,OPEN_LOOP,0.0001,0.00015,0.00013,0.00015,0.0,0.00101,0.5818,0.5818,0.5818,,0.65,,False,0.0,0.0,0.0,0.0,0.0,172.9764,172.9839,0.004,True,False,Mode(963497464),0.0887,2,0.5811
0.099,THRUST_SEARCH,OPEN_LOOP,0.0001,0.00015,0.00011,0.00015,0.0,0.00082,0.582,0.582,0.582,,0.65,,False,0.0,0.0,0.0,0.0,0.0,172.9764,172.9847,0.0,True,False,Mode(963497464),0.0991,2,0.5811
0.11,THRUST_SEARCH,OPEN_LOOP,0.0002,0.00015,0.00014,0.00015,0.0,0.00079,0.5822,0.5822,0.5822,,0.65,,False,0.0,0.0,0.0,0.0,0.0,172.9764,172.9826,0.008,True,True,Mode(963497464),0.1101,2,0.5811
0.121,THRUST_SEARCH,OPEN_LOOP,0.0002,0.00015,0.00013,0.00015,0.0,0.00071,0.5824,0.5824,0.5824,,0.65,,False,0.0,0.0,0.0,0.0,0.0,172.9764,172.9876,0.001,True,False,Mode(963497464),0.1214,3,0.5822
0.132,THRUST_SEARCH,OPEN_LOOP,0.0001,0.00015,0.00011,0.00015,0.0,0.00058,0.5826,0.5826,0.5826,,0.65,,False,0.0,0.0,0.0,0.0,0.0,172.9764,172.9848,0.006,True,False,Mode(963497464),0.1324,3,0.5822
0.143,THRUST_SEARCH,OPEN_LOOP,0.0002,0.00016,0.00018,0.00018,0.0,0.00063,0.5829,0.5829,0.5829,,0.65,,False,0.0,0.0,0.0,0.0,0.0,172.9764,172.9822,0.008,True,False,Mode(963497464),0.1434,3,0.5822
0.155,THRUST_SEARCH,OPEN_LOOP,0.0002,0.00016,0.00016,0.00016,0.0,0.00061,0.5831,0.5831,0.5831,,0.65,,False,0.0,0.0,0.0,0.0,0.0,172.9764,172.9788,0.001,True,False,Mode(963497464),0.1547,3,0.5822
0.166,THRUST_SEARCH,OPEN_LOOP,0.0001,0.00013,-4e-05,0.00013,0.0,0.00022,0.5833,0.5833,0.5833,,0.65,,False,0.0,0.0,0.0,0.0,0.0,172.9764,172.9776,0.006,True,True,Mode(963497464),0.1657,3,0.5822
0.177,THRUST_SEARCH,OPEN_LOOP,0.0001,0.0001,-2e-05,0.0001,0.0,-2e-05,0.5835,0.5835,0.5835,,0.65,,False,0.0,0.0,0.0,0.0,0.0,172.9764,172.9745,0.008,True,False,Mode(963497464),0.1767,4,0.5833
0.188,THRUST_SEARCH,OPEN_LOOP,0.0001,0.0001,0.00011,0.00011,0.0,-0.0,0.5838,0.5838,0.5838,,0.65,,False,0.0,0.0,0.0,0.0,0.0,172.9764,172.9831,0.001,True,False,Mode(963497464),0.1876,4,0.5833
0.198,THRUST_SEARCH,OPEN_LOOP,0.0001,0.00011,0.00015,0.00015,0.0,6e-05,0.584,0.584,0.584,,0.65,,False,0.0,0.0,0.0,0.0,0.0,172.9764,172.9794,0.003,True,False,Mode(963497464),0.1981,4,0.5833
0.209,THRUST_SEARCH,OPEN_LOOP,0.0001,0.00012,0.00015,0.00015,0.0,0.0001,0.5842,0.5842,0.5842,,0.65,,False,0.0,0.0,0.0,0.0,0.0,172.9764,172.9819,0.0045,True,False,Mode(963497464),0.2086,4,0.5833
0.22,THRUST_SEARCH,OPEN_LOOP,0.0001,0.00012,0.00015,0.00015,0.0,0.00014,0.5844,0.5844,0.5844,,0.65,,False,0.0,0.0,0.0,0.0,0.0,172.9764,172.9819,0.0155,True,True,Mode(963497464),0.2196,4,0.5833
0.231,THRUST_SEARCH,OPEN_LOOP,0.0001,0.0001,1e-05,0.0001,0.0,1e-05,0.5846,0.5846,0.5846,,0.65,,False,0.0,0.0,0.0,0.0,0.0,172.9764,173.0219,0.004,True,False,Mode(963497464),0.2305,5,0.5844
0.242,THRUST_SEARCH,OPEN_LOOP,0.0001,0.0001,8e-05,0.0001,0.0,-1e-05,0.5848,0.5848,0.5848,,0.65,,False,0.0,0.0,0.0,0.0,0.0,172.9764,173.0202,0.006,True,False,Mode(963497464),0.2415,5,0.5844
0.252,THRUST_SEARCH,OPEN_LOOP,0.0001,8e-05,-2e-05,8e-05,0.0,-0.00012,0.585,0.585,0.585,,0.65,,False,0.0,0.0,0.0,0.0,0.0,172.9764,173.027,0.0075,True,False,Mode(963497464),0.252,5,0.5844
0.263,THRUST_SEARCH,OPEN_LOOP,0.0001,6e-05,-8e-05,6e-05,0.0,-0.00026,0.5853,0.5853,0.5853,,0.65,,False,0.0,0.0,0.0,0.0,0.0,172.9764,173.0483,0.01,True,False,Mode(963497464),0.263,5,0.5844
0.274,THRUST_SEARCH,OPEN_LOOP,0.0001,6e-05,9e-05,9e-05,0.0,-0.00023,0.5855,0.5855,0.5855,,0.65,,False,0.0,0.0,0.0,0.0,0.0,172.9764,173.0937,0.004,True,True,Mode(963497464),0.2739,5,0.5844
0.285,THRUST_SEARCH,OPEN_LOOP,0.0001,9e-05,0.00031,0.00031,0.0,-4e-05,0.5857,0.5857,0.5857,,0.65,,False,0.0,0.0,0.0,0.0,0.0,172.9764,173.1129,0.006,True,False,Mode(963497464),0.2849,6,0.5855
0.296,THRUST_SEARCH,OPEN_LOOP,0.0002,0.00022,0.00104,0.00104,0.0,0.00063,0.5859,0.5859,0.5859,,0.65,,False,0.0,0.0,0.0,0.0,0.0,172.9764,173.1416,0.008,True,False,Mode(963497464),0.2959,6,0.5855
0.307,THRUST_SEARCH,OPEN_LOOP,0.0003,0.00033,0.00104,0.00104,0.0,0.00118,0.5861,0.5861,0.5861,,0.65,,False,0.0,0.0,0.0,0.0,0.0,172.9764,173.1416,0.0186,True,False,Mode(963497464),0.3065,6,0.5855
0.317,THRUST_SEARCH,OPEN_LOOP,0.0004,0.00043,0.00104,0.00104,0.0,0.00162,0.5863,0.5863,0.5863,,0.65,,False,0.0,0.0,0.0,0.0,0.0,172.9764,173.1416,0.0295,True,False,Mode(963497464),0.3174,6,0.5855
0.357,THRUST_SEARCH,OPEN_LOOP,0.0006,0.00058,0.00104,0.00104,0.0,0.00202,0.5871,0.5871,0.5871,,0.65,,False,0.0,0.0,0.0,0.0,0.0,172.9764,173.1416,0.0694,True,True,Mode(963497464),0.3573,6,0.5855
0.381,THRUST_SEARCH,OPEN_LOOP,0.0007,0.0007,0.00104,0.00104,0.0,0.00232,0.5876,0.5876,0.5876,,0.65,,False,0.0,0.0,0.0,0.0,0.0,172.9764,173.1416,0.0933,True,False,Mode(963497464),0.3812,7,0.5871
0.394,THRUST_SEARCH,OPEN_LOOP,0.0008,0.00078,0.00104,0.00104,0.0,0.00254,0.5879,0.5879,0.5879,,0.65,,False,0.0,0.0,0.0,0.0,0.0,172.9764,173.1416,0.1063,True,False,Mode(963497464),0.3942,7,0.5871
0.407,THRUST_SEARCH,OPEN_LOOP,0.0008,0.00085,0.00104,0.00104,0.0,0.00269,0.5881,0.5881,0.5881,,0.65,,False,0.0,0.0,0.0,0.0,0.0,172.9764,173.1416,0.1192,True,False,Mode(963497464),0.4072,7,0.5871
0.423,THRUST_SEARCH,OPEN_LOOP,0.0009,0.00091,0.00104,0.00104,0.0,0.00279,0.5885,0.5885,0.5885,,0.65,,False,0.0,0.0,0.0,0.0,0.0,172.9764,173.1416,0.1342,True,False,Mode(963497464),0.4221,7,0.5871
0.433,THRUST_SEARCH,OPEN_LOOP,0.001,0.00095,0.00104,0.00104,0.0,0.00285,0.5887,0.5887,0.5887,,0.65,,False,0.0,0.0,0.0,0.0,0.0,172.9764,173.1416,0.1452,True,True,Mode(963497464),0.4331,7,0.5871
0.444,THRUST_SEARCH,OPEN_LOOP,0.0016,0.00162,0.0058,0.0058,0.0,0.00561,0.5889,0.5889,0.5889,,0.65,,False,0.0,0.0,0.0,0.0,0.0,172.9764,173.3976,0.007,True,False,Mode(963497464),0.4441,8,0.5887
0.455,THRUST_SEARCH,OPEN_LOOP,0.0022,0.0022,0.0058,0.0058,0.0,0.00787,0.5891,0.5891,0.5891,,0.65,,False,0.0,0.0,0.0,0.0,0.0,172.9764,173.3976,0.018,True,False,Mode(963497464),0.455,8,0.5887
0.467,THRUST_SEARCH,OPEN_LOOP,0.0059,0.00589,0.03147,0.03147,0.0,0.02334,0.5893,0.5893,0.5893,,0.65,,False,0.0,0.0,0.0,0.0,0.0,172.9764,173.3958,0.004,True,False,Mode(963497464),0.467,8,0.5887
0.478,THRUST_SEARCH,OPEN_LOOP,0.0093,0.00927,0.03234,0.03234,0.0,0.03673,0.5896,0.5896,0.5896,,0.65,,False,0.0,0.0,0.0,0.0,0.0,172.9764,173.1559,0.005,True,False,Mode(963497464),0.478,8,0.5887
0.49,THRUST_SEARCH,OPEN_LOOP,0.0126,0.01256,0.03462,0.03462,0.0,0.04908,0.5898,0.5898,0.5898,,0.65,,False,0.0,0.0,0.0,0.0,0.0,172.9764,172.6842,0.002,True,True,Mode(963497464),0.4889,8,0.5887
0.5,THRUST_SEARCH,OPEN_LOOP,0.0155,0.01553,0.03462,0.03462,0.0,0.05942,0.59,0.59,0.59,,0.65,,False,0.0,0.0,0.0,0.0,0.0,172.9764,172.6842,0.013,True,False,Mode(963497464),0.4999,9,0.5898
0.511,THRUST_SEARCH,OPEN_LOOP,0.0184,0.01843,0.03655,0.03655,0.0,0.06897,0.5902,0.5902,0.5902,,0.65,,False,0.0,0.0,0.0,0.0,0.0,172.9764,172.6888,0.006,True,False,Mode(963497464),0.0,9,0.5898
0.526,THRUST_SEARCH,OPEN_LOOP,0.0214,0.02136,0.03655,0.03655,0.0,0.07702,0.5905,0.5905,0.5905,,0.65,,False,0.0,0.0,0.0,0.0,0.0,172.9764,172.6888,0.0209,True,False,Mode(963497464),0.015,9,0.5898
0.537,THRUST_SEARCH,OPEN_LOOP,0.024,0.02399,0.03861,0.03861,0.0,0.08457,0.5907,0.5907,0.5907,,0.65,,False,0.0,0.0,0.0,0.0,0.0,172.9764,172.686,0.001,True,False,Mode(963497464),0.0259,9,0.5898
0.547,THRUST_SEARCH,OPEN_LOOP,0.0266,0.02663,0.04135,0.04135,0.0,0.09195,0.5909,0.5909,0.5909,,0.65,,False,0.0,0.0,0.0,0.0,0.0,172.9764,172.4656,0.003,True,True,Mode(963497464),0.0364,9,0.5898
0.558,THRUST_SEARCH,OPEN_LOOP,0.0291,0.02912,0.04189,0.04189,0.0,0.09821,0.5912,0.5912,0.5912,,0.65,,False,0.0,0.0,0.0,0.0,0.0,172.9764,172.4849,0.005,True,False,Mode(963497464),0.0474,10,0.5909
0.569,THRUST_SEARCH,OPEN_LOOP,0.0314,0.0314,0.04189,0.04189,0.0,0.10326,0.5914,0.5914,0.5914,,0.65,,False,0.0,0.0,0.0,0.0,0.0,172.9764,172.4849,0.016,True,False,Mode(963497464),0.0584,10,0.5909
0.58,THRUST_SEARCH,OPEN_LOOP,0.0337,0.03366,0.0437,0.0437,0.0,0.10801,0.5916,0.5916,0.5916,,0.65,,False,0.0,0.0,0.0,0.0,0.0,172.9764,173.3598,0.001,True,False,Mode(963497464),0.0693,10,0.5909
0.591,THRUST_SEARCH,OPEN_LOOP,0.0358,0.0358,0.04439,0.04439,0.0,0.11201,0.5918,0.5918,0.5918,,0.65,,False,0.0,0.0,0.0,0.0,0.0,172.9764,173.5322,0.006,True,False,Mode(963497464),0.0803,10,0.5909
0.602,THRUST_SEARCH,OPEN_LOOP,0.0378,0.03779,0.04474,0.04474,0.0,0.1152,0.592,0.592,0.592,,0.65,,False,0.0,0.0,0.0,0.0,0.0,172.9764,173.4729,0.007,True,True,Mode(963497464),0.0913,10,0.5909
0.613,THRUST_SEARCH,OPEN_LOOP,0.0398,0.03985,0.04714,0.04714,0.0,0.1185,0.5923,0.5923,0.5923,,0.65,,False,0.0,0.0,0.0,0.0,0.0,172.9764,173.1639,0.003,True,False,Mode(963497464),0.1022,11,0.592
0.624,THRUST_SEARCH,OPEN_LOOP,0.0417,0.04169,0.04736,0.04736,0.0,0.12103,0.5925,0.5925,0.5925,,0.65,,False,0.0,0.0,0.0,0.0,0.0,172.9764,173.0456,0.0045,True,False,Mode(963497464),0.1127,11,0.592
0.635,THRUST_SEARCH,OPEN_LOOP,0.0435,0.0435,0.04805,0.04805,0.0,0.12303,0.5927,0.5927,0.5927,,0.65,,False,0.0,0.0,0.0,0.0,0.0,172.9764,173.1548,0.0062,True,False,Mode(963497464),0.1239,11,0.592
0.645,THRUST_SEARCH,OPEN_LOOP,0.0451,0.04507,0.04773,0.04773,0.0,0.12419,0.5929,0.5929,0.5929,,0.65,,False,0.0,0.0,0.0,0.0,0.0,172.9764,173.7744,0.0015,True,False,Mode(963497464),0.1342,11,0.592
0.656,THRUST_SEARCH,OPEN_LOOP,0.0467,0.04666,0.04892,0.04892,0.0,0.12516,0.5931,0.5931,0.5931,,0.65,,False,0.0,0.0,0.0,0.0,0.0,172.9764,174.1227,0.0031,True,True,Mode(963497464),0.1453,11,0.592
0.667,THRUST_SEARCH,OPEN_LOOP,0.0482,0.04815,0.04929,0.04929,0.0,0.12565,0.5933,0.5933,0.5933,,0.65,,False,0.0,0.0,0.0,0.0,0.0,172.9764,174.2589,0.005,True,False,Mode(963497464),0.1561,12,0.5931
0.678,THRUST_SEARCH,OPEN_LOOP,0.0496,0.04962,0.05046,0.05046,0.0,0.126,0.5936,0.5936,0.5936,,0.65,,False,0.0,0.0,0.0,0.0,0.0,172.9764,173.843,0.001,True,False,Mode(963497464),0.1671,12,0.5931
0.689,THRUST_SEARCH,OPEN_LOOP,0.051,0.05099,0.05022,0.05099,0.0,0.12568,0.5938,0.5938,0.5938,,0.65,,False,0.0,0.0,0.0,0.0,0.0,172.9764,173.414,0.004,True,False,Mode(963497464),0.1786,12,0.5931
0.7,THRUST_SEARCH,OPEN_LOOP,0.0522,0.05219,0.05102,0.05219,0.0,0.12519,0.594,0.594,0.594,,0.65,,False,0.0,0.0,0.0,0.0,0.0,172.9764,173.0302,0.006,True,False,Mode(963497464),0.1891,12,0.5931
0.711,THRUST_SEARCH,OPEN_LOOP,0.0533,0.05332,0.05097,0.05332,0.0,0.12421,0.5942,0.5942,0.5942,,0.65,,False,0.0,0.0,0.0,0.0,0.0,172.9764,172.8299,0.008,True,True,Mode(963497464),0.2,12,0.5931
0.722,THRUST_SEARCH,OPEN_LOOP,0.0544,0.05438,0.05133,0.05438,0.0,0.12294,0.5944,0.5944,0.5944,,0.65,,False,0.0,0.0,0.0,0.0,0.0,172.9764,173.1478,0.001,True,False,Mode(963497464),0.211,13,0.5942
0.733,THRUST_SEARCH,OPEN_LOOP,0.0554,0.05539,0.05197,0.05539,0.0,0.12153,0.5947,0.5947,0.5947,,0.65,,False,0.0,0.0,0.0,0.0,0.0,172.9764,173.4332,0.006,True,False,Mode(963497464),0.222,13,0.5942
0.744,THRUST_SEARCH,OPEN_LOOP,0.0562,0.05625,0.05144,0.05625,0.0,0.11955,0.5949,0.5949,0.5949,,0.65,,False,0.0,0.0,0.0,0.0,0.0,172.9764,173.5869,0.008,True,False,Mode(963497464),0.2329,13,0.5942
0.755,THRUST_SEARCH,OPEN_LOOP,0.0571,0.05706,0.05198,0.05706,0.0,0.11747,0.5951,0.5951,0.5951,,0.65,,False,0.0,0.0,0.0,0.0,0.0,172.9764,173.4003,0.001,True,False,Mode(963497464),0.2439,13,0.5942
0.766,THRUST_SEARCH,OPEN_LOOP,0.0577,0.05774,0.05154,0.05774,0.0,0.11494,0.5953,0.5953,0.5953,,0.65,,False,0.0,0.0,0.0,0.0,0.0,172.9764,172.9818,0.002,True,True,Mode(963497464),0.2549,13,0.5942
0.777,THRUST_SEARCH,OPEN_LOOP,0.0584,0.05835,0.05182,0.05835,0.0,0.11228,0.5955,0.5955,0.5955,,0.65,,False,0.0,0.0,0.0,0.0,0.0,172.9764,172.6342,0.007,True,False,Mode(963497464),0.2659,14,0.5953
0.788,THRUST_SEARCH,OPEN_LOOP,0.0589,0.05887,0.05158,0.05887,0.0,0.10932,0.5958,0.5958,0.5958,,0.65,,False,0.0,0.0,0.0,0.0,0.0,172.9764,172.4574,0.009,True,False,Mode(963497464),0.2768,14,0.5953
0.798,THRUST_SEARCH,OPEN_LOOP,0.0593,0.05928,0.05173,0.05928,0.0,0.10628,0.596,0.596,0.596,,0.65,,False,0.0,0.0,0.0,0.0,0.0,172.9764,172.657,0.0045,True,False,Mode(963497464),0.2873,14,0.5953
0.809,THRUST_SEARCH,OPEN_LOOP,0.0597,0.05967,0.05165,0.05967,0.0,0.10305,0.5962,0.5962,0.5962,,0.65,,False,0.0,0.0,0.0,0.0,0.0,172.9764,172.9147,0.005,True,False,Mode(963497464),0.2983,14,0.5953
0.82,THRUST_SEARCH,OPEN_LOOP,0.06,0.05998,0.05135,0.05998,0.0,0.09958,0.5964,0.5964,0.5964,,0.65,,False,0.0,0.0,0.0,0.0,0.0,172.9764,173.1878,0.001,True,True,Mode(963497464),0.3094,14,0.5953
0.831,THRUST_SEARCH,OPEN_LOOP,0.0602,0.06021,0.05135,0.06021,0.0,0.09602,0.5966,0.5966,0.5966,,0.65,,False,0.0,0.0,0.0,0.0,0.0,172.9764,173.1878,0.012,True,False,Mode(963497464),0.3204,15,0.5964
0.842,THRUST_SEARCH,OPEN_LOOP,0.0604,0.06037,0.05105,0.06037,0.0,0.09229,0.5968,0.5968,0.5968,,0.65,,False,0.0,0.0,0.0,0.0,0.0,172.9764,172.9803,0.004,True,False,Mode(963497464),0.3313,15,0.5964
0.853,THRUST_SEARCH,OPEN_LOOP,0.0604,0.06045,0.05079,0.06045,0.0,0.08843,0.5971,0.5971,0.5971,,0.65,,False,0.0,0.0,0.0,0.0,0.0,172.9764,172.8448,0.0095,True,False,Mode(963497464),0.3423,15,0.5964
0.864,THRUST_SEARCH,OPEN_LOOP,0.0604,0.06038,0.04967,0.06038,0.0,0.08415,0.5973,0.5973,0.5973,,0.65,,False,0.0,0.0,0.0,0.0,0.0,172.9764,172.8102,0.01,True,False,Mode(963497464),0.3533,15,0.5964
0.88,THRUST_SEARCH,OPEN_LOOP,0.0606,0.06056,0.04967,0.06056,0.0,0.07966,0.5976,0.5976,0.5976,,0.65,,False,0.0,0.0,0.0,0.0,0.0,172.9764,172.8102,0.0249,True,True,Mode(963497464),0.3683,15,0.5964
0.89,THRUST_SEARCH,OPEN_LOOP,0.0604,0.06037,0.04967,0.06037,0.0,0.07527,0.5978,0.5978,0.5978,,0.65,,False,0.0,0.0,0.0,0.0,0.0,172.9764,172.8102,0.0359,True,False,Mode(963497464),0.3792,16,0.5976
0.901,THRUST_SEARCH,OPEN_LOOP,0.0601,0.06007,0.04863,0.06007,0.0,0.07058,0.598,0.598,0.598,,0.65,,False,0.0,0.0,0.0,0.0,0.0,172.9764,172.8523,0.004,True,False,Mode(963497464),0.3902,16,0.5976
0.913,THRUST_SEARCH,OPEN_LOOP,0.0597,0.0597,0.04779,0.0597,0.0,0.06571,0.5983,0.5983,0.5983,,0.65,,False,0.0,0.0,0.0,0.0,0.0,172.9764,172.4513,0.001,True,False,Mode(963497464),0.4017,16,0.5976
0.924,THRUST_SEARCH,OPEN_LOOP,0.0592,0.0592,0.04688,0.0592,0.0,0.06067,0.5985,0.5985,0.5985,,0.65,,False,0.0,0.0,0.0,0.0,0.0,172.9764,172.2893,0.001,True,False,Mode(963497464),0.4127,16,0.5976
0.937,THRUST_SEARCH,OPEN_LOOP,0.0588,0.05876,0.04688,0.05876,0.0,0.05578,0.5987,0.5987,0.5987,,0.65,,False,0.0,0.0,0.0,0.0,0.0,172.9764,172.2893,0.0131,True,True,Mode(963497464),0.4248,16,0.5976
0.946,THRUST_SEARCH,OPEN_LOOP,0.0581,0.05813,0.04591,0.05813,0.0,0.0508,0.5989,0.5989,0.5989,,0.65,,False,0.0,0.0,0.0,0.0,0.0,172.9764,172.2716,0.0005,True,False,Mode(963497464),0.4351,17,0.5987
0.957,THRUST_SEARCH,OPEN_LOOP,0.0575,0.05746,0.04489,0.05746,0.0,0.04569,0.5991,0.5991,0.5991,,0.65,,False,0.0,0.0,0.0,0.0,0.0,172.9764,172.1364,0.003,True,False,Mode(963497464),0.4461,17,0.5987
0.968,THRUST_SEARCH,OPEN_LOOP,0.0567,0.05673,0.04413,0.05673,0.0,0.04058,0.5994,0.5994,0.5994,,0.65,,False,0.0,0.0,0.0,0.0,0.0,172.9764,172.0198,0.008,True,False,Mode(963497464),0.4571,17,0.5987
0.978,THRUST_SEARCH,OPEN_LOOP,0.0559,0.05593,0.04329,0.05593,0.0,0.03549,0.5996,0.5996,0.5996,,0.65,,False,0.0,0.0,0.0,0.0,0.0,172.9764,171.7259,0.009,True,False,Mode(963497464),0.4675,17,0.5987
0.989,THRUST_SEARCH,OPEN_LOOP,0.0551,0.05508,0.0424,0.05508,0.0,0.03039,0.5998,0.5998,0.5998,,0.65,,False,0.0,0.0,0.0,0.0,0.0,172.9764,171.0858,0.002,True,True,Mode(963497464),0.4785,17,0.5987
1.0,THRUST_SEARCH,OPEN_LOOP,0.0541,0.05415,0.04106,0.05415,0.0,0.02513,0.6,0.6,0.6,,0.65,,False,0.0,0.0,0.0,0.0,0.0,172.9764,170.8867,0.007,True,False,Mode(963497464),0.4895,18,0.5998
1.012,THRUST_SEARCH,OPEN_LOOP,0.0532,0.05319,0.04039,0.05319,0.0,0.01998,0.6002,0.6002,0.6002,,0.65,,False,0.0,0.0,0.0,0.0,0.0,172.9764,170.7348,0.001,True,False,Mode(963497464),0.501,18,0.5998
1.023,THRUST_SEARCH,OPEN_LOOP,0.0522,0.05217,0.03929,0.05217,0.0,0.01481,0.6005,0.6005,0.6005,,0.65,,False,0.0,0.0,0.0,0.0,0.0,172.9764,170.6703,0.003,True,False,Mode(963497464),0.5119,18,0.5998
1.033,THRUST_SEARCH,OPEN_LOOP,0.0511,0.05109,0.03836,0.05109,0.0,0.00972,0.6007,0.6007,0.6007,,0.65,,False,0.0,0.0,0.0,0.0,0.0,172.9764,170.5712,0.0045,True,False,Mode(963497464),0.5224,18,0.5998
1.045,THRUST_SEARCH,OPEN_LOOP,0.05,0.05001,0.0376,0.05001,0.0,0.00477,0.6009,0.6009,0.6009,,0.65,,False,0.0,0.0,0.0,0.0,0.0,172.9764,170.4324,0.007,True,True,Mode(963497464),0.5334,18,0.5998
1.055,THRUST_SEARCH,OPEN_LOOP,0.0488,0.04885,0.03624,0.04885,0.0,-0.00024,0.6011,0.6011,0.6011,,0.65,,False,0.0,0.0,0.0,0.0,0.0,172.9764,169.8844,0.001,True,False,Mode(963497464),0.5439,19,0.6009
1.066,THRUST_SEARCH,OPEN_LOOP,0.0477,0.04774,0.03624,0.04774,0.0,-0.00481,0.6013,0.6013,0.6013,,0.65,,False,0.0,0.0,0.0,0.0,0.0,172.9764,169.8844,0.012,True,False,Mode(963497464),0.5548,19,0.6009
1.077,THRUST_SEARCH,OPEN_LOOP,0.0465,0.04651,0.03416,0.04651,0.0,-0.0097,0.6015,0.6015,0.6015,,0.65,,False,0.0,0.0,0.0,0.0,0.0,172.9764,169.7467,0.005,True,False,Mode(963497464),0.5658,19,0.6009
1.088,THRUST_SEARCH,OPEN_LOOP,0.0453,0.04526,0.03335,0.04526,0.0,-0.01444,0.6018,0.6018,0.6018,,0.65,,False,0.0,0.0,0.0,0.0,0.0,172.9764,169.7409,0.003,True,False,Mode(963497464),0.577,19,0.6009
1.099,THRUST_SEARCH,OPEN_LOOP,0.044,0.04404,0.03296,0.04404,0.0,-0.01883,0.602,0.602,0.602,,0.65,,False,0.0,0.0,0.0,0.0,0.0,172.9764,169.6976,0.009,True,True,Mode(963497464),0.588,19,0.6009
1.11,THRUST_SEARCH,OPEN_LOOP,0.0429,0.04288,0.03296,0.04288,0.0,-0.02277,0.6022,0.6022,0.6022,,0.65,,False,0.0,0.0,0.0,0.0,0.0,172.9764,169.6976,0.0199,True,False,Mode(963497464),0.599,20,0.602
1.121,THRUST_SEARCH,OPEN_LOOP,0.0418,0.04179,0.03296,0.04179,0.0,-0.02627,0.6024,0.6024,0.6024,,0.65,,False,0.0,0.0,0.0,0.0,0.0,172.9764,169.6976,0.0309,True,False,Mode(963497464),0.6099,20,0.602
1.133,THRUST_SEARCH,OPEN_LOOP,0.0404,0.04039,0.02886,0.04039,0.0,-0.03084,0.6027,0.6027,0.6027,,0.65,,False,0.0,0.0,0.0,0.0,0.0,172.9764,169.4156,0.007,True,False,Mode(963497464),0.6219,20,0.602
1.142,THRUST_SEARCH,OPEN_LOOP,0.0389,0.03886,0.02612,0.03886,0.0,-0.03587,0.6028,0.6028,0.6028,,0.65,,False,0.0,0.0,0.0,0.0,0.0,172.9764,169.001,0.003,True,False,Mode(963497464),0.6314,20,0.602
1.153,THRUST_SEARCH,OPEN_LOOP,0.0372,0.03725,0.02447,0.03725,0.0,-0.04091,0.6031,0.6031,0.6031,,0.65,,False,0.0,0.0,0.0,0.0,0.0,172.9764,168.7808,0.001,True,True,Mode(963497464),0.6424,20,0.602
1.164,THRUST_SEARCH,OPEN_LOOP,0.0357,0.03573,0.02447,0.03573,0.0,-0.04534,0.6033,0.6033,0.6033,,0.65,,False,0.0,0.0,0.0,0.0,0.0,172.9764,168.7808,0.012,True,False,Mode(963497464),0.6533,21,0.6031
1.176,THRUST_SEARCH,OPEN_LOOP,0.034,0.03405,0.02164,0.03405,0.0,-0.05024,0.6035,0.6035,0.6035,,0.65,,False,0.0,0.0,0.0,0.0,0.0,172.9764,168.3428,0.006,True,False,Mode(963497464),0.6643,21,0.6031
1.186,THRUST_SEARCH,OPEN_LOOP,0.0324,0.03239,0.02047,0.03239,0.0,-0.05492,0.6037,0.6037,0.6037,,0.65,,False,0.0,0.0,0.0,0.0,0.0,172.9764,168.0051,0.0075,True,False,Mode(963497464),0.6748,21,0.6031
1.197,THRUST_SEARCH,OPEN_LOOP,0.0307,0.03067,0.01892,0.03067,0.0,-0.05953,0.6039,0.6039,0.6039,,0.65,,False,0.0,0.0,0.0,0.0,0.0,172.9764,167.06,0.003,True,False,Mode(963497464),0.6858,21,0.6031
1.208,THRUST_SEARCH,OPEN_LOOP,0.0289,0.02892,0.0173,0.02892,0.0,-0.0641,0.6042,0.6042,0.6042,,0.65,,False,0.0,0.0,0.0,0.0,0.0,172.9764,166.728,0.005,True,True,Mode(963497464),0.6967,21,0.6031
1.219,THRUST_SEARCH,OPEN_LOOP,0.0271,0.02709,0.01559,0.02709,0.0,-0.06863,0.6044,0.6044,0.6044,,0.65,,False,0.0,0.0,0.0,0.0,0.0,172.9764,166.486,0.007,True,False,Mode(963497464),0.7081,22,0.6042
1.229,THRUST_SEARCH,OPEN_LOOP,0.0254,0.02538,0.01494,0.02538,0.0,-0.07274,0.6046,0.6046,0.6046,,0.65,,False,0.0,0.0,0.0,0.0,0.0,172.9764,166.3788,0.009,True,False,Mode(963497464),0.7186,22,0.6042
1.24,THRUST_SEARCH,OPEN_LOOP,0.0235,0.02351,0.01219,0.02351,0.0,-0.07718,0.6048,0.6048,0.6048,,0.65,,False,0.0,0.0,0.0,0.0,0.0,172.9764,166.0262,0.005,True,False,Mode(963497464),0.7296,22,0.6042
1.251,THRUST_SEARCH,OPEN_LOOP,0.0217,0.0217,0.0112,0.0217,0.0,-0.08129,0.605,0.605,0.605,,0.65,,False,0.0,0.0,0.0,0.0,0.0,172.9764,165.6897,0.0066,True,False,Mode(963497464),0.7401,22,0.6042
1.263,THRUST_SEARCH,OPEN_LOOP,0.0199,0.01988,0.00998,0.01988,0.0,-0.08517,0.6053,0.6053,0.6053,,0.65,,False,0.0,0.0,0.0,0.0,0.0,172.9764,165.332,0.009,True,True,Mode(963497464),0.7511,22,0.6042
1.273,THRUST_SEARCH,OPEN_LOOP,0.0179,0.01793,0.00723,0.01793,0.0,-0.08936,0.6055,0.6055,0.6055,,0.65,,False,0.0,0.0,0.0,0.0,0.0,172.9764,164.6697,0.003,True,False,Mode(963497464),0.7621,23,0.6053
1.284,THRUST_SEARCH,OPEN_LOOP,0.016,0.01598,0.00571,0.01598,0.0,-0.09338,0.6057,0.6057,0.6057,,0.65,,False,0.0,0.0,0.0,0.0,0.0,172.9764,164.614,0.005,True,False,Mode(963497464),0.773,23,0.6053
1.295,THRUST_SEARCH,OPEN_LOOP,0.014,0.01397,0.00358,0.01397,0.0,-0.09746,0.6059,0.6059,0.6059,,0.65,,False,0.0,0.0,0.0,0.0,0.0,172.9764,164.745,0.0008,True,False,Mode(963497464),0.7839,23,0.6053
1.306,THRUST_SEARCH,OPEN_LOOP,0.0119,0.01191,0.00168,0.01191,0.0,-0.10148,0.6061,0.6061,0.6061,,0.65,,False,0.0,0.0,0.0,0.0,0.0,172.9764,164.7069,0.004,True,False,Mode(963497464),0.7952,23,0.6053
1.317,THRUST_SEARCH,OPEN_LOOP,0.0099,0.00987,0.00016,0.00987,0.0,-0.10529,0.6063,0.6063,0.6063,,0.65,,False,0.0,0.0,0.0,0.0,0.0,172.9764,164.5791,0.006,True,True,Mode(963497464),0.8061,23,0.6053
1.329,THRUST_SEARCH,OPEN_LOOP,0.0079,0.00789,-0.0008,0.00789,0.0,-0.10871,0.6066,0.6066,0.6066,,0.65,,False,0.0,0.0,0.0,0.0,0.0,172.9764,164.3047,0.008,True,False,Mode(963497464),0.8171,24,0.6063
1.339,THRUST_SEARCH,OPEN_LOOP,0.006,0.00596,-0.00233,0.00596,0.0,-0.11196,0.6068,0.6068,0.6068,,0.65,,False,0.0,0.0,0.0,0.0,0.0,172.9764,163.3835,0.0036,True,False,Mode(963497464),0.8277,24,0.6063
1.35,THRUST_SEARCH,OPEN_LOOP,0.004,0.00404,-0.00328,0.00404,0.0,-0.11482,0.607,0.607,0.607,,0.65,,False,0.0,0.0,0.0,0.0,0.0,172.9764,163.1347,0.006,True,False,Mode(963497464),0.8387,24,0.6063
1.361,THRUST_SEARCH,OPEN_LOOP,0.0022,0.00222,-0.00361,0.00222,0.0,-0.11711,0.6072,0.6072,0.6072,,0.65,,False,0.0,0.0,0.0,0.0,0.0,172.9764,162.9104,0.008,True,False,Mode(963497464),0.8496,24,0.6063
1.372,THRUST_SEARCH,OPEN_LOOP,0.0008,0.00078,-0.00095,0.00078,0.0,-0.11779,0.6074,0.6074,0.6074,,0.65,,False,0.0,0.0,0.0,0.0,0.0,172.9764,162.3995,0.001,True,True,Mode(963497464),0.8606,24,0.6063
1.382,THRUST_SEARCH,OPEN_LOOP,-0.0004,-0.00042,0.00059,0.00059,0.0,-0.11739,0.6076,0.6076,0.6076,,0.65,,False,0.0,0.0,0.0,0.0,0.0,172.9764,161.9569,0.006,True,False,Mode(963497464),0.8716,25,0.6074
1.393,THRUST_SEARCH,OPEN_LOOP,-0.0014,-0.00139,0.00202,0.00202,0.0,-0.11605,0.6079,0.6079,0.6079,,0.65,,False,0.0,0.0,0.0,0.0,0.0,172.9764,161.4656,0.008,True,False,Mode(963497464),0.8826,25,0.6074
1.404,THRUST_SEARCH,OPEN_LOOP,-0.002,-0.002,0.00489,0.00489,0.0,-0.11334,0.6081,0.6081,0.6081,,0.65,,False,0.0,0.0,0.0,0.0,0.0,172.9764,160.8007,0.003,True,False,Mode(963497464),0.8935,25,0.6074
1.415,THRUST_SEARCH,OPEN_LOOP,-0.0025,-0.00247,0.00576,0.00576,0.0,-0.11011,0.6083,0.6083,0.6083,,0.65,,False,0.0,0.0,0.0,0.0,0.0,172.9764,160.6773,0.005,True,False,Mode(963497464),0.9045,25,0.6074
1.426,THRUST_SEARCH,OPEN_LOOP,-0.0027,-0.00272,0.00707,0.00707,0.0,-0.10628,0.6085,0.6085,0.6085,,0.65,,False,0.0,0.0,0.0,0.0,0.0,172.9764,160.6035,0.0067,True,True,Mode(963497464),0.9152,25,0.6074
1.437,THRUST_SEARCH,OPEN_LOOP,-0.0027,-0.00269,0.00995,0.00995,0.0,-0.10132,0.6087,0.6087,0.6087,,0.65,,False,0.0,0.0,0.0,0.0,0.0,172.9764,160.3595,0.002,True,False,Mode(963497464),0.9262,26,0.6085
1.448,THRUST_SEARCH,OPEN_LOOP,-0.0025,-0.00249,0.01097,0.01097,0.0,-0.09606,0.609,0.609,0.609,,0.65,,False,0.0,0.0,0.0,0.0,0.0,172.9764,160.0342,0.004,True,False,Mode(963497464),0.9368,26,0.6085
1.459,THRUST_SEARCH,OPEN_LOOP,-0.0022,-0.00223,0.01204,0.01204,0.0,-0.09046,0.6092,0.6092,0.6092,,0.65,,False,0.0,0.0,0.0,0.0,0.0,172.9764,159.5621,0.0069,True,False,Mode(963497464),0.9482,26,0.6085
1.47,THRUST_SEARCH,OPEN_LOOP,-0.0018,-0.0018,0.01323,0.01323,0.0,-0.08456,0.6094,0.6094,0.6094,,0.65,,False,0.0,0.0,0.0,0.0,0.0,172.9764,159.024,0.007,True,False,Mode(963497464),0.9592,26,0.6085
1.481,THRUST_SEARCH,OPEN_LOOP,-0.0012,-0.00118,0.01542,0.01542,0.0,-0.07802,0.6096,0.6096,0.6096,,0.65,,False,0.0,0.0,0.0,0.0,0.0,172.9764,158.2612,0.0043,True,True,Mode(963497464),0.9704,26,0.6085
1.492,THRUST_SEARCH,OPEN_LOOP,-0.0004,-0.00042,0.01655,0.01655,0.0,-0.07133,0.6098,0.6098,0.6098,,0.65,,False,0.0,0.0,0.0,0.0,0.0,172.9764,158.1629,0.0071,True,False,Mode(963497464),0.9815,27,0.6096
1.503,THRUST_SEARCH,OPEN_LOOP,0.0005,0.0005,0.01824,0.01824,0.0,-0.06436,0.6101,0.6101,0.6101,,0.65,,False,0.0,0.0,0.0,0.0,0.0,172.9764,158.2653,0.0006,True,False,Mode(963497464),0.9921,27,0.6096
1.514,THRUST_SEARCH,OPEN_LOOP,0.0015,0.0015,0.01946,0.01946,0.0,-0.0573,0.6103,0.6103,0.6103,,0.65,,False,0.0,0.0,0.0,0.0,0.0,172.9764,158.1893,0.002,True,False,Mode(963497464),1.0031,27,0.6096
1.525,THRUST_SEARCH,OPEN_LOOP,0.0025,0.0025,0.01963,0.01963,0.0,-0.05057,0.6105,0.6105,0.6105,,0.65,,False,0.0,0.0,0.0,0.0,0.0,172.9764,157.9551,0.004,True,False,Mode(963497464),1.0141,27,0.6096
1.537,THRUST_SEARCH,OPEN_LOOP,0.0037,0.0037,0.02221,0.02221,0.0,-0.04329,0.6107,0.6107,0.6107,,0.65,,False,0.0,0.0,0.0,0.0,0.0,172.9764,157.0914,0.0,True,True,Mode(963497464),0.0,27,0.6096
1.546,THRUST_SEARCH,OPEN_LOOP,0.0049,0.00493,0.02271,0.02271,0.0,-0.03633,0.6109,0.6109,0.6109,,0.65,,False,0.0,0.0,0.0,0.0,0.0,172.9764,156.6584,0.0015,True,False,Mode(963497464),0.0105,28,0.6107
1.557,THRUST_SEARCH,OPEN_LOOP,0.0062,0.0062,0.02379,0.02379,0.0,-0.02944,0.6111,0.6111,0.6111,,0.65,,False,0.0,0.0,0.0,0.0,0.0,172.9764,156.3488,0.006,True,False,Mode(963497464),0.0215,28,0.6107
1.568,THRUST_SEARCH,OPEN_LOOP,0.0074,0.00744,0.02396,0.02396,0.0,-0.02296,0.6114,0.6114,0.6114,,0.65,,False,0.0,0.0,0.0,0.0,0.0,172.9764,156.2343,0.008,True,False,Mode(963497464),0.0324,28,0.6107
1.579,THRUST_SEARCH,OPEN_LOOP,0.0089,0.00885,0.02642,0.02642,0.0,-0.01606,0.6116,0.6116,0.6116,,0.65,,False,0.0,0.0,0.0,0.0,0.0,172.9764,156.1773,0.0011,True,False,Mode(963497464),0.0435,28,0.6107
1.59,THRUST_SEARCH,OPEN_LOOP,0.0102,0.01021,0.02639,0.02639,0.0,-0.00971,0.6118,0.6118,0.6118,,0.65,,False,0.0,0.0,0.0,0.0,0.0,172.9764,156.0181,0.003,True,True,Mode(963497464),0.0545,28,0.6107
1.601,THRUST_SEARCH,OPEN_LOOP,0.0116,0.01163,0.02778,0.02778,0.0,-0.00337,0.612,0.612,0.612,,0.65,,False,0.0,0.0,0.0,0.0,0.0,172.9764,155.6811,0.008,True,False,Mode(963497464),0.0654,29,0.6118
1.612,THRUST_SEARCH,OPEN_LOOP,0.0132,0.01315,0.02953,0.02953,0.0,0.00306,0.6122,0.6122,0.6122,,0.65,,False,0.0,0.0,0.0,0.0,0.0,172.9764,154.6928,0.001,True,False,Mode(963497464),0.0764,29,0.6118
1.624,THRUST_SEARCH,OPEN_LOOP,0.0147,0.01465,0.03013,0.03013,0.0,0.00914,0.6125,0.6125,0.6125,,0.65,,False,0.0,0.0,0.0,0.0,0.0,172.9764,154.2125,0.003,True,False,Mode(963497464),0.0874,29,0.6118
1.634,THRUST_SEARCH,OPEN_LOOP,0.0161,0.0161,0.03042,0.03042,0.0,0.01474,0.6127,0.6127,0.6127,,0.65,,False,0.0,0.0,0.0,0.0,0.0,172.9764,153.8847,0.0045,True,False,Mode(963497464),0.0979,29,0.6118
1.645,THRUST_SEARCH,OPEN_LOOP,0.0177,0.01766,0.03228,0.03228,0.0,0.02048,0.6129,0.6129,0.6129,,0.65,,False,0.0,0.0,0.0,0.0,0.0,172.9764,153.6076,0.002,True,True,Mode(963497464),0.1091,29,0.6118
1.656,THRUST_SEARCH,OPEN_LOOP,0.0191,0.01914,0.0324,0.0324,0.0,0.02569,0.6131,0.6131,0.6131,,0.65,,False,0.0,0.0,0.0,0.0,0.0,172.9764,153.4945,0.004,True,False,Mode(963497464),0.1201,30,0.6129
1.667,THRUST_SEARCH,OPEN_LOOP,0.0206,0.0206,0.03306,0.03306,0.0,0.03058,0.6133,0.6133,0.6133,,0.65,,False,0.0,0.0,0.0,0.0,0.0,172.9764,153.299,0.006,True,False,Mode(963497464),0.1311,30,0.6129
1.682,THRUST_SEARCH,OPEN_LOOP,0.0223,0.02228,0.03486,0.03486,0.0,0.03568,0.6136,0.6136,0.6136,,0.65,,False,0.0,0.0,0.0,0.0,0.0,172.9764,152.703,0.0007,True,False,Mode(963497464),0.1457,30,0.6129
1.692,THRUST_SEARCH,OPEN_LOOP,0.0238,0.02379,0.03555,0.03555,0.0,0.04041,0.6138,0.6138,0.6138,,0.65,,False,0.0,0.0,0.0,0.0,0.0,172.9764,152.3663,0.005,True,False,Mode(963497464),0.156,30,0.6129
1.703,THRUST_SEARCH,OPEN_LOOP,0.0253,0.02532,0.03633,0.03633,0.0,0.04484,0.6141,0.6141,0.6141,,0.65,,False,0.0,0.0,0.0,0.0,0.0,172.9764,151.95,0.001,True,True,Mode(963497464),0.1675,30,0.6129
1.715,THRUST_SEARCH,OPEN_LOOP,0.0268,0.02681,0.03705,0.03705,0.0,0.04896,0.6143,0.6143,0.6143,,0.65,,False,0.0,0.0,0.0,0.0,0.0,172.9764,151.8707,0.0032,True,False,Mode(963497464),0.1787,31,0.6141
1.725,THRUST_SEARCH,OPEN_LOOP,0.0282,0.02821,0.0374,0.0374,0.0,0.05264,0.6145,0.6145,0.6145,,0.65,,False,0.0,0.0,0.0,0.0,0.0,172.9764,151.7334,0.0045,True,False,Mode(963497464),0.189,31,0.6141
1.736,THRUST_SEARCH,OPEN_LOOP,0.0296,0.02961,0.03819,0.03819,0.0,0.05607,0.6147,0.6147,0.6147,,0.65,,False,0.0,0.0,0.0,0.0,0.0,172.9764,151.3604,0.001,True,False,Mode(963497464),0.1999,31,0.6141
1.747,THRUST_SEARCH,OPEN_LOOP,0.031,0.031,0.03898,0.03898,0.0,0.05926,0.6149,0.6149,0.6149,,0.65,,False,0.0,0.0,0.0,0.0,0.0,172.9764,151.1386,0.0032,True,False,Mode(963497464),0.2111,31,0.6141
1.757,THRUST_SEARCH,OPEN_LOOP,0.0323,0.03229,0.03931,0.03931,0.0,0.06205,0.6151,0.6151,0.6151,,0.65,,False,0.0,0.0,0.0,0.0,0.0,172.9764,150.8976,0.0045,True,True,Mode(963497464),0.2214,31,0.6141
1.768,THRUST_SEARCH,OPEN_LOOP,0.0335,0.03352,0.03929,0.03929,0.0,0.06434,0.6154,0.6154,0.6154,,0.65,,False,0.0,0.0,0.0,0.0,0.0,172.9764,150.7227,0.006,True,False,Mode(963497464),0.2324,32,0.6151
1.779,THRUST_SEARCH,OPEN_LOOP,0.0348,0.03479,0.04062,0.04062,0.0,0.06665,0.6156,0.6156,0.6156,,0.65,,False,0.0,0.0,0.0,0.0,0.0,172.9764,150.5245,0.001,True,False,Mode(963497464),0.2433,32,0.6151
1.79,THRUST_SEARCH,OPEN_LOOP,0.036,0.03603,0.04139,0.04139,0.0,0.06878,0.6158,0.6158,0.6158,,0.65,,False,0.0,0.0,0.0,0.0,0.0,172.9764,150.4753,0.0031,True,False,Mode(963497464),0.2544,32,0.6151
1.801,THRUST_SEARCH,OPEN_LOOP,0.0372,0.03718,0.04162,0.04162,0.0,0.07053,0.616,0.616,0.616,,0.65,,False,0.0,0.0,0.0,0.0,0.0,172.9764,150.3755,0.0075,True,False,Mode(963497464),0.2648,32,0.6151
1.812,THRUST_SEARCH,OPEN_LOOP,0.0383,0.0383,0.04195,0.04195,0.0,0.07197,0.6162,0.6162,0.6162,,0.65,,False,0.0,0.0,0.0,0.0,0.0,172.9764,149.9744,0.001,True,True,Mode(963497464),0.2758,32,0.6151
1.823,THRUST_SEARCH,OPEN_LOOP,0.0394,0.03941,0.0424,0.0424,0.0,0.07316,0.6165,0.6165,0.6165,,0.65,,False,0.0,0.0,0.0,0.0,0.0,172.9764,149.6855,0.004,True,False,Mode(963497464),0.2873,33,0.6162
1.834,THRUST_SEARCH,OPEN_LOOP,0.0404,0.04043,0.04271,0.04271,0.0,0.07406,0.6167,0.6167,0.6167,,0.65,,False,0.0,0.0,0.0,0.0,0.0,172.9764,149.472,0.006,True,False,Mode(963497464),0.2982,33,0.6162
1.845,THRUST_SEARCH,OPEN_LOOP,0.0414,0.04137,0.04266,0.04266,0.0,0.07458,0.6169,0.6169,0.6169,,0.65,,False,0.0,0.0,0.0,0.0,0.0,172.9764,149.3078,0.008,True,False,Mode(963497464),0.3092,33,0.6162
1.856,THRUST_SEARCH,OPEN_LOOP,0.0423,0.04234,0.04395,0.04395,0.0,0.07521,0.6171,0.6171,0.6171,,0.65,,False,0.0,0.0,0.0,0.0,0.0,172.9764,148.9525,0.004,True,False,Mode(963497464),0.3201,33,0.6162
1.867,THRUST_SEARCH,OPEN_LOOP,0.0432,0.04323,0.04426,0.04426,0.0,0.07562,0.6173,0.6173,0.6173,,0.65,,False,0.0,0.0,0.0,0.0,0.0,172.9764,148.6714,0.004,True,True,Mode(963497464),0.3306,33,0.6162
1.878,THRUST_SEARCH,OPEN_LOOP,0.0441,0.04408,0.04434,0.04434,0.0,0.07572,0.6176,0.6176,0.6176,,0.65,,False,0.0,0.0,0.0,0.0,0.0,172.9764,148.2988,0.003,True,False,Mode(963497464),0.3416,34,0.6173
1.889,THRUST_SEARCH,OPEN_LOOP,0.0449,0.04486,0.04431,0.04486,0.0,0.0755,0.6178,0.6178,0.6178,,0.65,,False,0.0,0.0,0.0,0.0,0.0,172.9764,147.7052,0.003,True,False,Mode(963497464),0.3526,34,0.6173
1.899,THRUST_SEARCH,OPEN_LOOP,0.0456,0.04558,0.04483,0.04558,0.0,0.07521,0.618,0.618,0.618,,0.65,,False,0.0,0.0,0.0,0.0,0.0,172.9764,147.6009,0.0045,True,False,Mode(963497464),0.3631,34,0.6173
1.91,THRUST_SEARCH,OPEN_LOOP,0.0462,0.04623,0.04472,0.04623,0.0,0.07462,0.6182,0.6182,0.6182,,0.65,,False,0.0,0.0,0.0,0.0,0.0,172.9764,147.5366,0.0065,True,False,Mode(963497464),0.3736,34,0.6173
1.921,THRUST_SEARCH,OPEN_LOOP,0.0469,0.04688,0.04513,0.04688,0.0,0.07393,0.6184,0.6184,0.6184,,0.65,,False,0.0,0.0,0.0,0.0,0.0,172.9764,147.5268,0.009,True,True,Mode(963497464),0.3846,34,0.6173
1.932,THRUST_SEARCH,OPEN_LOOP,0.0475,0.04754,0.04559,0.04754,0.0,0.07316,0.6186,0.6186,0.6186,,0.65,,False,0.0,0.0,0.0,0.0,0.0,172.9764,147.2368,0.0015,True,False,Mode(963497464),0.396,35,0.6184
1.943,THRUST_SEARCH,OPEN_LOOP,0.0481,0.04813,0.04583,0.04813,0.0,0.07226,0.6189,0.6189,0.6189,,0.65,,False,0.0,0.0,0.0,0.0,0.0,172.9764,146.8734,0.006,True,False,Mode(963497464),0.407,35,0.6184
1.953,THRUST_SEARCH,OPEN_LOOP,0.0486,0.04863,0.04588,0.04863,0.0,0.07118,0.6191,0.6191,0.6191,,0.65,,False,0.0,0.0,0.0,0.0,0.0,172.9764,145.9114,0.0015,True,False,Mode(963497464),0.4175,35,0.6184
1.964,THRUST_SEARCH,OPEN_LOOP,0.0491,0.0491,0.04592,0.0491,0.0,0.06993,0.6193,0.6193,0.6193,,0.65,,False,0.0,0.0,0.0,0.0,0.0,172.9764,145.6089,0.004,True,False,Mode(963497464),0.4285,35,0.6184
1.975,THRUST_SEARCH,OPEN_LOOP,0.0495,0.0495,0.04563,0.0495,0.0,0.06841,0.6195,0.6195,0.6195,,0.65,,False,0.0,0.0,0.0,0.0,0.0,172.9764,145.4787,0.0061,True,True,Mode(963497464),0.4395,35,0.6184
1.986,THRUST_SEARCH,OPEN_LOOP,0.0498,0.04982,0.04527,0.04982,0.0,0.06662,0.6197,0.6197,0.6197,,0.65,,False,0.0,0.0,0.0,0.0,0.0,172.9764,145.5385,0.008,True,False,Mode(963497464),0.4504,36,0.6195
1.997,THRUST_SEARCH,OPEN_LOOP,0.0501,0.05012,0.0458,0.05012,0.0,0.06494,0.6199,0.6199,0.6199,,0.65,,False,0.0,0.0,0.0,0.0,0.0,172.9764,145.6633,0.0035,True,False,Mode(963497464),0.4609,36,0.6195
2.008,THRUST_SEARCH,OPEN_LOOP,0.0504,0.05036,0.04539,0.05036,0.0,0.06299,0.6202,0.6202,0.6202,,0.65,,False,0.0,0.0,0.0,0.0,0.0,172.9764,145.514,0.006,True,False,Mode(963497464),0.4719,36,0.6195
2.019,THRUST_SEARCH,OPEN_LOOP,0.0505,0.05055,0.04535,0.05055,0.0,0.06096,0.6204,0.6204,0.6204,,0.65,,False,0.0,0.0,0.0,0.0,0.0,172.9764,145.266,0.0068,True,False,Mode(963497464),0.4827,36,0.6195
2.031,THRUST_SEARCH,OPEN_LOOP,0.0507,0.05071,0.04538,0.05071,0.0,0.05887,0.6206,0.6206,0.6206,,0.65,,False,0.0,0.0,0.0,0.0,0.0,172.9764,145.0241,0.009,True,True,Mode(963497464),0.4937,36,0.6195
2.041,THRUST_SEARCH,OPEN_LOOP,0.0508,0.05076,0.04436,0.05076,0.0,0.05637,0.6208,0.6208,0.6208,,0.65,,False,0.0,0.0,0.0,0.0,0.0,172.9764,144.8893,0.004,True,False,Mode(963497464),0.5046,37,0.6206
2.051,THRUST_SEARCH,OPEN_LOOP,0.0507,0.05069,0.04369,0.05069,0.0,0.05364,0.621,0.621,0.621,,0.65,,False,0.0,0.0,0.0,0.0,0.0,172.9764,145.1169,0.006,True,False,Mode(963497464),0.5151,37,0.6206
2.062,THRUST_SEARCH,OPEN_LOOP,0.0507,0.05068,0.04466,0.05068,0.0,0.0513,0.6212,0.6212,0.6212,,0.65,,False,0.0,0.0,0.0,0.0,0.0,172.9764,145.5386,0.0015,True,False,Mode(963497464),0.5256,37,0.6206
2.072,THRUST_SEARCH,OPEN_LOOP,0.0506,0.0506,0.04386,0.0506,0.0,0.04869,0.6214,0.6214,0.6214,,0.65,,False,0.0,0.0,0.0,0.0,0.0,172.9764,145.6265,0.0037,True,False,Mode(963497464),0.5363,37,0.6206
2.084,THRUST_SEARCH,OPEN_LOOP,0.0505,0.05051,0.04384,0.05051,0.0,0.04609,0.6217,0.6217,0.6217,,0.65,,False,0.0,0.0,0.0,0.0,0.0,172.9764,145.6341,0.006,True,True,Mode(963497464),0.5472,37,0.6206
2.094,THRUST_SEARCH,OPEN_LOOP,0.0504,0.0504,0.04392,0.0504,0.0,0.04357,0.6219,0.6219,0.6219,,0.65,,False,0.0,0.0,0.0,0.0,0.0,172.9764,145.4835,0.007,True,False,Mode(963497464),0.5582,38,0.6217
2.106,THRUST_SEARCH,OPEN_LOOP,0.0502,0.05022,0.04292,0.05022,0.0,0.04072,0.6221,0.6221,0.6221,,0.65,,False,0.0,0.0,0.0,0.0,0.0,172.9764,145.2854,0.0,True,False,Mode(963497464),0.5697,38,0.6217
2.117,THRUST_SEARCH,OPEN_LOOP,0.0499,0.0499,0.04185,0.0499,0.0,0.03756,0.6223,0.6223,0.6223,,0.65,,False,0.0,0.0,0.0,0.0,0.0,172.9764,145.2921,0.005,True,False,Mode(963497464),0.5807,38,0.6217
2.128,THRUST_SEARCH,OPEN_LOOP,0.0496,0.04962,0.04224,0.04962,0.0,0.03467,0.6226,0.6226,0.6226,,0.65,,False,0.0,0.0,0.0,0.0,0.0,172.9764,145.3691,0.001,True,False,Mode(963497464),0.592,38,0.6217
2.139,THRUST_SEARCH,OPEN_LOOP,0.0492,0.04925,0.04125,0.04925,0.0,0.03153,0.6228,0.6228,0.6228,,0.65,,False,0.0,0.0,0.0,0.0,0.0,172.9764,145.2748,0.003,True,True,Mode(963497464),0.6029,38,0.6217
2.15,THRUST_SEARCH,OPEN_LOOP,0.0489,0.04887,0.04128,0.04887,0.0,0.02854,0.623,0.623,0.623,,0.65,,False,0.0,0.0,0.0,0.0,0.0,172.9764,145.0675,0.005,True,False,Mode(963497464),0.6139,39,0.6228
2.161,THRUST_SEARCH,OPEN_LOOP,0.0485,0.04851,0.04147,0.04851,0.0,0.02578,0.6232,0.6232,0.6232,,0.65,,False,0.0,0.0,0.0,0.0,0.0,172.9764,144.7973,0.007,True,False,Mode(963497464),0.6248,39,0.6228
2.171,THRUST_SEARCH,OPEN_LOOP,0.0481,0.04807,0.04046,0.04807,0.0,0.0228,0.6234,0.6234,0.6234,,0.65,,False,0.0,0.0,0.0,0.0,0.0,172.9764,144.232,0.003,True,False,Mode(963497464),0.6353,39,0.6228
2.182,THRUST_SEARCH,OPEN_LOOP,0.0475,0.04755,0.0395,0.04755,0.0,0.01966,0.6236,0.6236,0.6236,,0.65,,False,0.0,0.0,0.0,0.0,0.0,172.9764,144.0669,0.0045,True,False,Mode(963497464),0.6458,39,0.6228
2.192,THRUST_SEARCH,OPEN_LOOP,0.047,0.04699,0.03875,0.04699,0.0,0.01646,0.6238,0.6238,0.6238,,0.65,,False,0.0,0.0,0.0,0.0,0.0,172.9764,144.127,0.0068,True,True,Mode(963497464),0.6566,39,0.6228
2.203,THRUST_SEARCH,OPEN_LOOP,0.0465,0.0465,0.03946,0.0465,0.0,0.01371,0.6241,0.6241,0.6241,,0.65,,False,0.0,0.0,0.0,0.0,0.0,172.9764,144.2394,0.009,True,False,Mode(963497464),0.6675,40,0.6238
2.214,THRUST_SEARCH,OPEN_LOOP,0.0459,0.04594,0.03842,0.04594,0.0,0.01078,0.6243,0.6243,0.6243,,0.65,,False,0.0,0.0,0.0,0.0,0.0,172.9764,144.4939,0.002,True,False,Mode(963497464),0.6785,40,0.6238
2.226,THRUST_SEARCH,OPEN_LOOP,0.0455,0.04545,0.03898,0.04545,0.0,0.00824,0.6245,0.6245,0.6245,,0.65,,False,0.0,0.0,0.0,0.0,0.0,172.9764,144.5621,0.0074,True,False,Mode(963497464),0.6899,40,0.6238
2.237,THRUST_SEARCH,OPEN_LOOP,0.0449,0.0449,0.03808,0.0449,0.0,0.00556,0.6247,0.6247,0.6247,,0.65,,False,0.0,0.0,0.0,0.0,0.0,172.9764,144.56,0.001,True,False,Mode(963497464),0.7009,40,0.6238
2.248,THRUST_SEARCH,OPEN_LOOP,0.0443,0.04431,0.03746,0.04431,0.0,0.00288,0.625,0.625,0.625,,0.65,,False,0.0,0.0,0.0,0.0,0.0,172.9764,144.646,0.0031,True,True,Mode(963497464),0.712,40,0.6238
2.259,THRUST_SEARCH,OPEN_LOOP,0.0437,0.04367,0.03655,0.04367,0.0,8e-05,0.6252,0.6252,0.6252,,0.65,,False,0.0,0.0,0.0,0.0,0.0,172.9764,144.8042,0.005,True,False,Mode(963497464),0.7228,41,0.625
2.27,THRUST_SEARCH,OPEN_LOOP,0.0431,0.04306,0.0367,0.04306,0.0,-0.00242,0.6254,0.6254,0.6254,,0.65,,False,0.0,0.0,0.0,0.0,0.0,172.9764,145.1393,0.001,True,False,Mode(963497464),0.7338,41,0.625
2.281,THRUST_SEARCH,OPEN_LOOP,0.0424,0.04244,0.03611,0.04244,0.0,-0.0049,0.6256,0.6256,0.6256,,0.65,,False,0.0,0.0,0.0,0.0,0.0,172.9764,145.2203,0.002,True,False,Mode(963497464),0.7448,41,0.625
2.292,THRUST_SEARCH,OPEN_LOOP,0.0419,0.0419,0.03683,0.0419,0.0,-0.00689,0.6258,0.6258,0.6258,,0.65,,False,0.0,0.0,0.0,0.0,0.0,172.9764,145.2496,0.004,True,False,Mode(963497464),0.7558,41,0.625
2.304,THRUST_SEARCH,OPEN_LOOP,0.0414,0.04138,0.03663,0.04138,0.0,-0.00876,0.6261,0.6261,0.6261,,0.65,,False,0.0,0.0,0.0,0.0,0.0,172.9764,145.2787,0.0085,True,True,Mode(963497464),0.7668,41,0.625
2.318,THRUST_SEARCH,OPEN_LOOP,0.0408,0.04076,0.03571,0.04076,0.0,-0.0108,0.6264,0.6264,0.6264,,0.65,,False,0.0,0.0,0.0,0.0,0.0,172.9764,145.3205,0.004,True,False,Mode(963497464),0.7807,42,0.6261
2.328,THRUST_SEARCH,OPEN_LOOP,0.0401,0.04012,0.03468,0.04012,0.0,-0.01298,0.6266,0.6266,0.6266,,0.65,,False,0.0,0.0,0.0,0.0,0.0,172.9764,145.3456,0.006,True,False,Mode(963497464),0.7917,42,0.6261
2.339,THRUST_SEARCH,OPEN_LOOP,0.0396,0.03956,0.03535,0.03956,0.0,-0.01467,0.6268,0.6268,0.6268,,0.65,,False,0.0,0.0,0.0,0.0,0.0,172.9764,145.3519,0.001,True,False,Mode(963497464),0.8027,42,0.6261
2.35,THRUST_SEARCH,OPEN_LOOP,0.0389,0.03894,0.03416,0.03894,0.0,-0.01659,0.627,0.627,0.627,,0.65,,False,0.0,0.0,0.0,0.0,0.0,172.9764,145.2473,0.006,True,False,Mode(963497464),0.8136,42,0.6261
2.36,THRUST_SEARCH,OPEN_LOOP,0.0384,0.0384,0.03458,0.0384,0.0,-0.01811,0.6272,0.6272,0.6272,,0.65,,False,0.0,0.0,0.0,0.0,0.0,172.9764,145.1068,0.0075,True,True,Mode(963497464),0.8241,42,0.6261
2.371,THRUST_SEARCH,OPEN_LOOP,0.0378,0.03781,0.0338,0.03781,0.0,-0.01971,0.6274,0.6274,0.6274,,0.65,,False,0.0,0.0,0.0,0.0,0.0,172.9764,144.727,0.001,True,False,Mode(963497464),0.8351,43,0.6272
2.382,THRUST_SEARCH,OPEN_LOOP,0.0373,0.03728,0.03395,0.03728,0.0,-0.02104,0.6276,0.6276,0.6276,,0.65,,False,0.0,0.0,0.0,0.0,0.0,172.9764,144.5637,0.003,True,False,Mode(963497464),0.8461,43,0.6272
2.392,THRUST_SEARCH,OPEN_LOOP,0.0367,0.03671,0.03308,0.03671,0.0,-0.02248,0.6278,0.6278,0.6278,,0.65,,False,0.0,0.0,0.0,0.0,0.0,172.9764,144.4291,0.0075,True,False,Mode(963497464),0.8566,43,0.6272
2.403,THRUST_SEARCH,OPEN_LOOP,0.0362,0.03617,0.03308,0.03617,0.0,-0.0237,0.6281,0.6281,0.6281,,0.65,,False,0.0,0.0,0.0,0.0,0.0,172.9764,144.2237,0.001,True,False,Mode(963497464),0.8675,43,0.6272
2.415,THRUST_SEARCH,OPEN_LOOP,0.0355,0.03555,0.03176,0.03555,0.0,-0.0252,0.6283,0.6283,0.6283,,0.65,,False,0.0,0.0,0.0,0.0,0.0,172.9764,144.1045,0.003,True,True,Mode(963497464),0.8785,43,0.6272
2.425,THRUST_SEARCH,OPEN_LOOP,0.0349,0.03494,0.03132,0.03494,0.0,-0.02663,0.6285,0.6285,0.6285,,0.65,,False,0.0,0.0,0.0,0.0,0.0,172.9764,143.9787,0.0046,True,False,Mode(963497464),0.889,44,0.6283
2.436,THRUST_SEARCH,OPEN_LOOP,0.0343,0.03429,0.03054,0.03429,0.0,-0.0281,0.6287,0.6287,0.6287,,0.65,,False,0.0,0.0,0.0,0.0,0.0,172.9764,143.758,0.001,True,False,Mode(963497464),0.8999,44,0.6283
2.447,THRUST_SEARCH,OPEN_LOOP,0.0337,0.03366,0.03025,0.03366,0.0,-0.02944,0.6289,0.6289,0.6289,,0.65,,False,0.0,0.0,0.0,0.0,0.0,172.9764,143.7163,0.003,True,False,Mode(963497464),0.9109,44,0.6283
2.457,THRUST_SEARCH,OPEN_LOOP,0.033,0.03302,0.0296,0.03302,0.0,-0.03079,0.6291,0.6291,0.6291,,0.65,,False,0.0,0.0,0.0,0.0,0.0,172.9764,143.6871,0.0046,True,False,Mode(963497464),0.9215,44,0.6283
2.468,THRUST_SEARCH,OPEN_LOOP,0.0324,0.03241,0.02939,0.03241,0.0,-0.03197,0.6294,0.6294,0.6294,,0.65,,False,0.0,0.0,0.0,0.0,0.0,172.9764,143.7382,0.0067,True,True,Mode(963497464),0.9322,44,0.6283
2.479,THRUST_SEARCH,OPEN_LOOP,0.0318,0.03177,0.02871,0.03177,0.0,-0.03317,0.6296,0.6296,0.6296,,0.65,,False,0.0,0.0,0.0,0.0,0.0,172.9764,143.6084,0.0,True,False,Mode(963497464),0.9431,45,0.6294
2.49,THRUST_SEARCH,OPEN_LOOP,0.0312,0.03118,0.02871,0.03118,0.0,-0.03414,0.6298,0.6298,0.6298,,0.65,,False,0.0,0.0,0.0,0.0,0.0,172.9764,143.6084,0.0105,True,False,Mode(963497464),0.9537,45,0.6294
2.501,THRUST_SEARCH,OPEN_LOOP,0.0306,0.0306,0.02839,0.0306,0.0,-0.03501,0.63,0.63,0.63,,0.65,,False,0.0,0.0,0.0,0.0,0.0,172.9764,143.2123,0.007,True,False,Mode(963497464),0.9646,45,0.6294
2.513,THRUST_SEARCH,OPEN_LOOP,0.03,0.02997,0.0276,0.02997,0.0,-0.03594,0.6303,0.6303,0.6303,,0.65,,False,0.0,0.0,0.0,0.0,0.0,172.9764,142.9881,0.007,True,False,Mode(963497464),0.9761,45,0.6294
2.523,THRUST_SEARCH,OPEN_LOOP,0.0294,0.02937,0.02712,0.02937,0.0,-0.03683,0.6305,0.6305,0.6305,,0.65,,False,0.0,0.0,0.0,0.0,0.0,172.9764,142.8758,0.004,True,True,Mode(963497464),0.9871,45,0.6294
2.534,THRUST_SEARCH,OPEN_LOOP,0.0287,0.02872,0.02631,0.02872,0.0,-0.03777,0.6307,0.6307,0.6307,,0.65,,False,0.0,0.0,0.0,0.0,0.0,172.9764,142.9792,0.0069,True,False,Mode(963497464),0.9984,46,0.6305
2.545,THRUST_SEARCH,OPEN_LOOP,0.0282,0.02815,0.02658,0.02815,0.0,-0.0384,0.6309,0.6309,0.6309,,0.65,,False,0.0,0.0,0.0,0.0,0.0,172.9764,143.0532,0.009,True,False,Mode(963497464),1.0094,46,0.6305
2.556,THRUST_SEARCH,OPEN_LOOP,0.0275,0.0275,0.02503,0.0275,0.0,-0.03937,0.6311,0.6311,0.6311,,0.65,,False,0.0,0.0,0.0,0.0,0.0,172.9764,142.8909,0.004,True,False,Mode(963497464),1.0204,46,0.6305
2.567,THRUST_SEARCH,OPEN_LOOP,0.0269,0.02693,0.02547,0.02693,0.0,-0.03995,0.6313,0.6313,0.6313,,0.65,,False,0.0,0.0,0.0,0.0,0.0,172.9764,142.6938,0.006,True,False,Mode(963497464),0.0,46,0.6305
2.578,THRUST_SEARCH,OPEN_LOOP,0.0263,0.02629,0.02419,0.02629,0.0,-0.04077,0.6316,0.6316,0.6316,,0.65,,False,0.0,0.0,0.0,0.0,0.0,172.9764,142.2319,0.0009,True,True,Mode(963497464),0.011,46,0.6305
2.589,THRUST_SEARCH,OPEN_LOOP,0.0257,0.02572,0.02448,0.02572,0.0,-0.04126,0.6318,0.6318,0.6318,,0.65,,False,0.0,0.0,0.0,0.0,0.0,172.9764,142.2131,0.003,True,False,Mode(963497464),0.022,47,0.6316
2.6,THRUST_SEARCH,OPEN_LOOP,0.0251,0.02514,0.02355,0.02514,0.0,-0.04189,0.632,0.632,0.632,,0.65,,False,0.0,0.0,0.0,0.0,0.0,172.9764,142.2727,0.0045,True,False,Mode(963497464),0.0324,47,0.6316
2.611,THRUST_SEARCH,OPEN_LOOP,0.0246,0.0246,0.02381,0.0246,0.0,-0.0422,0.6322,0.6322,0.6322,,0.65,,False,0.0,0.0,0.0,0.0,0.0,172.9764,142.2903,0.007,True,False,Mode(963497464),0.0434,47,0.6316
2.622,THRUST_SEARCH,OPEN_LOOP,0.024,0.02402,0.02279,0.02402,0.0,-0.04268,0.6324,0.6324,0.6324,,0.65,,False,0.0,0.0,0.0,0.0,0.0,172.9764,142.0536,0.003,True,False,Mode(963497464),0.0544,47,0.6316
2.633,THRUST_SEARCH,OPEN_LOOP,0.0235,0.02351,0.02302,0.02351,0.0,-0.04288,0.6327,0.6327,0.6327,,0.65,,False,0.0,0.0,0.0,0.0,0.0,172.9764,141.79,0.004,True,True,Mode(963497464),0.0654,47,0.6316
2.644,THRUST_SEARCH,OPEN_LOOP,0.023,0.02301,0.02267,0.02301,0.0,-0.04301,0.6329,0.6329,0.6329,,0.65,,False,0.0,0.0,0.0,0.0,0.0,172.9764,141.4867,0.006,True,False,Mode(963497464),0.0763,48,0.6327
2.654,THRUST_SEARCH,OPEN_LOOP,0.0225,0.02245,0.02153,0.02245,0.0,-0.04337,0.6331,0.6331,0.6331,,0.65,,False,0.0,0.0,0.0,0.0,0.0,172.9764,141.2099,0.0012,True,False,Mode(963497464),0.0872,48,0.6327
2.666,THRUST_SEARCH,OPEN_LOOP,0.0219,0.02191,0.02116,0.02191,0.0,-0.04366,0.6333,0.6333,0.6333,,0.65,,False,0.0,0.0,0.0,0.0,0.0,172.9764,141.286,0.0032,True,False,Mode(963497464),0.0984,48,0.6327
2.676,THRUST_SEARCH,OPEN_LOOP,0.0214,0.02142,0.02116,0.02142,0.0,-0.04376,0.6335,0.6335,0.6335,,0.65,,False,0.0,0.0,0.0,0.0,0.0,172.9764,141.439,0.0045,True,False,Mode(963497464),0.1087,48,0.6327
2.687,THRUST_SEARCH,OPEN_LOOP,0.0209,0.02088,0.02018,0.02088,0.0,-0.04404,0.6337,0.6337,0.6337,,0.65,,False,0.0,0.0,0.0,0.0,0.0,172.9764,141.5538,0.001,True,True,Mode(963497464),0.1196,48,0.6327
2.698,THRUST_SEARCH,OPEN_LOOP,0.0204,0.02043,0.02075,0.02075,0.0,-0.04391,0.634,0.634,0.634,,0.65,,False,0.0,0.0,0.0,0.0,0.0,172.9764,141.5475,0.003,True,False,Mode(963497464),0.1306,49,0.6337
2.709,THRUST_SEARCH,OPEN_LOOP,0.02,0.02,0.02063,0.02063,0.0,-0.04366,0.6342,0.6342,0.6342,,0.65,,False,0.0,0.0,0.0,0.0,0.0,172.9764,141.4897,0.005,True,False,Mode(963497464),0.1416,49,0.6337
2.72,THRUST_SEARCH,OPEN_LOOP,0.0196,0.01958,0.02013,0.02013,0.0,-0.04344,0.6344,0.6344,0.6344,,0.65,,False,0.0,0.0,0.0,0.0,0.0,172.9764,141.4622,0.006,True,False,Mode(963497464),0.1526,49,0.6337
2.73,THRUST_SEARCH,OPEN_LOOP,0.0192,0.01917,0.01971,0.01971,0.0,-0.04324,0.6346,0.6346,0.6346,,0.65,,False,0.0,0.0,0.0,0.0,0.0,172.9764,141.5957,0.0005,True,False,Mode(963497464),0.1631,49,0.6337
2.741,THRUST_SEARCH,OPEN_LOOP,0.0187,0.01874,0.01923,0.01923,0.0,-0.04304,0.6348,0.6348,0.6348,,0.65,,False,0.0,0.0,0.0,0.0,0.0,172.9764,141.6578,0.006,True,True,Mode(963497464),0.174,49,0.6337
2.752,THRUST_SEARCH,OPEN_LOOP,0.0184,0.01839,0.01968,0.01968,0.0,-0.04254,0.635,0.635,0.635,,0.65,,False,0.0,0.0,0.0,0.0,0.0,172.9764,141.676,0.007,True,False,Mode(963497464),0.185,50,0.6348
2.764,THRUST_SEARCH,OPEN_LOOP,0.0181,0.01813,0.02011,0.02011,0.0,-0.04177,0.6353,0.6353,0.6353,,0.65,,False,0.0,0.0,0.0,0.0,0.0,172.9764,141.4926,0.0,True,False,Mode(963497464),0.1955,50,0.6348
2.773,THRUST_SEARCH,OPEN_LOOP,0.0179,0.0179,0.02006,0.02006,0.0,-0.04093,0.6355,0.6355,0.6355,,0.65,,False,0.0,0.0,0.0,0.0,0.0,172.9764,141.3575,0.0045,True,False,Mode(963497464),0.2059,50,0.6348
2.785,THRUST_SEARCH,OPEN_LOOP,0.0176,0.01761,0.01935,0.01935,0.0,-0.04025,0.6357,0.6357,0.6357,,0.65,,False,0.0,0.0,0.0,0.0,0.0,172.9764,141.2573,0.007,True,False,Mode(963497464),0.2169,50,0.6348
2.796,THRUST_SEARCH,OPEN_LOOP,0.0173,0.01734,0.01893,0.01893,0.0,-0.03964,0.6359,0.6359,0.6359,,0.65,,False,0.0,0.0,0.0,0.0,0.0,172.9764,141.1976,0.0075,True,True,Mode(963497464),0.2274,50,0.6348
2.806,THRUST_SEARCH,OPEN_LOOP,0.017,0.01702,0.01824,0.01824,0.0,-0.03916,0.6361,0.6361,0.6361,,0.65,,False,0.0,0.0,0.0,0.0,0.0,172.9764,141.2176,0.004,True,False,Mode(963497464),0.2384,51,0.6359
2.816,THRUST_SEARCH,OPEN_LOOP,0.0168,0.01679,0.01874,0.01874,0.0,-0.03841,0.6363,0.6363,0.6363,,0.65,,False,0.0,0.0,0.0,0.0,0.0,172.9764,141.1503,0.006,True,False,Mode(963497464),0.2488,51,0.6359
2.827,THRUST_SEARCH,OPEN_LOOP,0.0165,0.01654,0.01831,0.01831,0.0,-0.03772,0.6365,0.6365,0.6365,,0.65,,False,0.0,0.0,0.0,0.0,0.0,172.9764,141.0052,0.008,True,False,Mode(963497464),0.2598,51,0.6359
2.838,THRUST_SEARCH,OPEN_LOOP,0.0163,0.01628,0.01795,0.01795,0.0,-0.03707,0.6368,0.6368,0.6368,,0.65,,False,0.0,0.0,0.0,0.0,0.0,172.9764,140.635,0.003,True,False,Mode(963497464),0.2708,51,0.6359
2.849,THRUST_SEARCH,OPEN_LOOP,0.016,0.01604,0.01763,0.01763,0.0,-0.03645,0.637,0.637,0.637,,0.65,,False,0.0,0.0,0.0,0.0,0.0,172.9764,140.5046,0.0045,True,True,Mode(963497464),0.2813,51,0.6359
2.859,THRUST_SEARCH,OPEN_LOOP,0.0158,0.01577,0.0171,0.0171,0.0,-0.03594,0.6372,0.6372,0.6372,,0.65,,False,0.0,0.0,0.0,0.0,0.0,172.9764,140.4817,0.0067,True,False,Mode(963497464),0.292,52,0.637
2.87,THRUST_SEARCH,OPEN_LOOP,0.0155,0.01551,0.01686,0.01686,0.0,-0.03541,0.6374,0.6374,0.6374,,0.65,,False,0.0,0.0,0.0,0.0,0.0,172.9764,140.583,0.009,True,False,Mode(963497464),0.303,52,0.637
2.881,THRUST_SEARCH,OPEN_LOOP,0.0153,0.01529,0.01711,0.01711,0.0,-0.03471,0.6376,0.6376,0.6376,,0.65,,False,0.0,0.0,0.0,0.0,0.0,172.9764,140.7986,0.002,True,False,Mode(963497464),0.3139,52,0.637
2.892,THRUST_SEARCH,OPEN_LOOP,0.0151,0.01507,0.01667,0.01667,0.0,-0.03409,0.6378,0.6378,0.6378,,0.65,,False,0.0,0.0,0.0,0.0,0.0,172.9764,140.8669,0.0066,True,False,Mode(963497464),0.3246,52,0.637
2.904,THRUST_SEARCH,OPEN_LOOP,0.0149,0.01495,0.01764,0.01764,0.0,-0.03304,0.6381,0.6381,0.6381,,0.65,,False,0.0,0.0,0.0,0.0,0.0,172.9764,140.907,0.0,True,True,Mode(963497464),0.3355,52,0.637
2.913,THRUST_SEARCH,OPEN_LOOP,0.0148,0.01481,0.01705,0.01705,0.0,-0.03218,0.6383,0.6383,0.6383,,0.65,,False,0.0,0.0,0.0,0.0,0.0,172.9764,140.9397,0.0015,True,False,Mode(963497464),0.346,53,0.6381
2.924,THRUST_SEARCH,OPEN_LOOP,0.0146,0.01464,0.01656,0.01656,0.0,-0.03143,0.6385,0.6385,0.6385,,0.65,,False,0.0,0.0,0.0,0.0,0.0,172.9764,141.0583,0.003,True,False,Mode(963497464),0.357,53,0.6381
2.935,THRUST_SEARCH,OPEN_LOOP,0.0145,0.01451,0.01666,0.01666,0.0,-0.0306,0.6387,0.6387,0.6387,,0.65,,False,0.0,0.0,0.0,0.0,0.0,172.9764,141.2025,0.0075,True,False,Mode(963497464),0.3675,53,0.6381
2.946,THRUST_SEARCH,OPEN_LOOP,0.0144,0.01444,0.01725,0.01725,0.0,-0.02951,0.6389,0.6389,0.6389,,0.65,,False,0.0,0.0,0.0,0.0,0.0,172.9764,141.4316,0.001,True,False,Mode(963497464),0.3784,53,0.6381
2.957,THRUST_SEARCH,OPEN_LOOP,0.0144,0.01435,0.01694,0.01694,0.0,-0.02851,0.6391,0.6391,0.6391,,0.65,,False,0.0,0.0,0.0,0.0,0.0,172.9764,141.479,0.003,True,True,Mode(963497464),0.3894,53,0.6381
2.967,THRUST_SEARCH,OPEN_LOOP,0.0143,0.01434,0.01741,0.01741,0.0,-0.02733,0.6393,0.6393,0.6393,,0.65,,False,0.0,0.0,0.0,0.0,0.0,172.9764,141.4691,0.0045,True,False,Mode(963497464),0.3999,54,0.6391
2.978,THRUST_SEARCH,OPEN_LOOP,0.0143,0.01428,0.01678,0.01678,0.0,-0.02636,0.6396,0.6396,0.6396,,0.65,,False,0.0,0.0,0.0,0.0,0.0,172.9764,141.4457,0.001,True,False,Mode(963497464),0.4109,54,0.6391
2.989,THRUST_SEARCH,OPEN_LOOP,0.0142,0.01424,0.01686,0.01686,0.0,-0.02534,0.6398,0.6398,0.6398,,0.65,,False,0.0,0.0,0.0,0.0,0.0,172.9764,141.537,0.003,True,False,Mode(963497464),0.4213,54,0.6391
2.999,THRUST_SEARCH,OPEN_LOOP,0.0142,0.0142,0.01664,0.01664,0.0,-0.02441,0.64,0.64,0.64,,0.65,,False,0.0,0.0,0.0,0.0,0.0,172.9764,141.6476,0.0045,True,False,Mode(963497464),0.4318,54,0.6391
3.01,THRUST_SEARCH,OPEN_LOOP,0.0141,0.01414,0.01628,0.01628,0.0,-0.02359,0.6402,0.6402,0.6402,,0.65,,False,0.0,0.0,0.0,0.0,0.0,172.9764,141.6658,0.0066,True,True,Mode(963497464),0.4424,54,0.6391
3.021,THRUST_SEARCH,OPEN_LOOP,0.0141,0.01412,0.01669,0.01669,0.0,-0.0226,0.6404,0.6404,0.6404,,0.65,,False,0.0,0.0,0.0,0.0,0.0,172.9764,141.6472,0.009,True,False,Mode(963497464),0.4534,55,0.6402
3.032,THRUST_SEARCH,OPEN_LOOP,0.0142,0.01417,0.01738,0.01738,0.0,-0.02136,0.6406,0.6406,0.6406,,0.65,,False,0.0,0.0,0.0,0.0,0.0,172.9764,141.3516,0.002,True,False,Mode(963497464),0.4644,55,0.6402
3.043,THRUST_SEARCH,OPEN_LOOP,0.0143,0.01427,0.01785,0.01785,0.0,-0.01997,0.6409,0.6409,0.6409,,0.65,,False,0.0,0.0,0.0,0.0,0.0,172.9764,141.1743,0.007,True,False,Mode(963497464),0.4754,55,0.6402
3.054,THRUST_SEARCH,OPEN_LOOP,0.0143,0.01433,0.01729,0.01729,0.0,-0.01883,0.6411,0.6411,0.6411,,0.65,,False,0.0,0.0,0.0,0.0,0.0,172.9764,141.0562,0.009,True,False,Mode(963497464),0.4864,55,0.6402
3.064,THRUST_SEARCH,OPEN_LOOP,0.0144,0.01439,0.01708,0.01708,0.0,-0.01778,0.6413,0.6413,0.6413,,0.65,,False,0.0,0.0,0.0,0.0,0.0,172.9764,141.1327,0.0015,True,True,Mode(963497464),0.4969,55,0.6402
3.075,THRUST_SEARCH,OPEN_LOOP,0.0144,0.01442,0.01687,0.01687,0.0,-0.01684,0.6415,0.6415,0.6415,,0.65,,False,0.0,0.0,0.0,0.0,0.0,172.9764,141.232,0.006,True,False,Mode(963497464),0.5078,56,0.6413
3.086,THRUST_SEARCH,OPEN_LOOP,0.0145,0.01451,0.01747,0.01747,0.0,-0.01569,0.6417,0.6417,0.6417,,0.65,,False,0.0,0.0,0.0,0.0,0.0,172.9764,141.2703,0.008,True,False,Mode(963497464),0.5188,56,0.6413
3.097,THRUST_SEARCH,OPEN_LOOP,0.0147,0.01466,0.01802,0.01802,0.0,-0.01438,0.6419,0.6419,0.6419,,0.65,,False,0.0,0.0,0.0,0.0,0.0,172.9764,141.2719,0.001,True,False,Mode(963497464),0.5298,56,0.6413
3.108,THRUST_SEARCH,OPEN_LOOP,0.0149,0.01485,0.01866,0.01866,0.0,-0.01291,0.6422,0.6422,0.6422,,0.65,,False,0.0,0.0,0.0,0.0,0.0,172.9764,141.241,0.003,True,False,Mode(963497464),0.5407,56,0.6413
3.121,THRUST_SEARCH,OPEN_LOOP,0.015,0.01504,0.01866,0.01866,0.0,-0.01148,0.6424,0.6424,0.6424,,0.65,,False,0.0,0.0,0.0,0.0,0.0,172.9764,141.241,0.0158,True,True,Mode(963497464),0.5535,56,0.6413
3.132,THRUST_SEARCH,OPEN_LOOP,0.0152,0.01524,0.01869,0.01869,0.0,-0.01011,0.6426,0.6426,0.6426,,0.65,,False,0.0,0.0,0.0,0.0,0.0,172.9764,141.6129,0.003,True,False,Mode(963497464),0.5647,57,0.6424
3.143,THRUST_SEARCH,OPEN_LOOP,0.0154,0.01544,0.01867,0.01867,0.0,-0.00883,0.6429,0.6429,0.6429,,0.65,,False,0.0,0.0,0.0,0.0,0.0,172.9764,141.8772,0.005,True,False,Mode(963497464),0.5757,57,0.6424
3.154,THRUST_SEARCH,OPEN_LOOP,0.0158,0.01575,0.02011,0.02011,0.0,-0.00711,0.6431,0.6431,0.6431,,0.65,,False,0.0,0.0,0.0,0.0,0.0,172.9764,142.3008,0.001,True,False,Mode(963497464),0.5866,57,0.6424
3.165,THRUST_SEARCH,OPEN_LOOP,0.0161,0.01607,0.02022,0.02022,0.0,-0.00547,0.6433,0.6433,0.6433,,0.65,,False,0.0,0.0,0.0,0.0,0.0,172.9764,142.3711,0.003,True,False,Mode(963497464),0.5976,57,0.6424
3.176,THRUST_SEARCH,OPEN_LOOP,0.0164,0.01643,0.02084,0.02084,0.0,-0.00373,0.6435,0.6435,0.6435,,0.65,,False,0.0,0.0,0.0,0.0,0.0,172.9764,142.4291,0.005,True,True,Mode(963497464),0.6086,57,0.6424
3.187,THRUST_SEARCH,OPEN_LOOP,0.0168,0.01679,0.02102,0.02102,0.0,-0.00206,0.6437,0.6437,0.6437,,0.65,,False,0.0,0.0,0.0,0.0,0.0,172.9764,142.8267,0.001,True,False,Mode(963497464),0.6195,58,0.6435
3.197,THRUST_SEARCH,OPEN_LOOP,0.0172,0.01716,0.02119,0.02119,0.0,-0.00047,0.6439,0.6439,0.6439,,0.65,,False,0.0,0.0,0.0,0.0,0.0,172.9764,143.0279,0.003,True,False,Mode(963497464),0.63,58,0.6435
3.208,THRUST_SEARCH,OPEN_LOOP,0.0175,0.01746,0.02071,0.02071,0.0,0.0008,0.6442,0.6442,0.6442,,0.65,,False,0.0,0.0,0.0,0.0,0.0,172.9764,143.2061,0.0045,True,False,Mode(963497464),0.6405,58,0.6435
3.219,THRUST_SEARCH,OPEN_LOOP,0.0178,0.01785,0.02184,0.02184,0.0,0.00237,0.6444,0.6444,0.6444,,0.65,,False,0.0,0.0,0.0,0.0,0.0,172.9764,143.2182,0.007,True,False,Mode(963497464),0.6515,58,0.6435
3.23,THRUST_SEARCH,OPEN_LOOP,0.0183,0.01825,0.02231,0.02231,0.0,0.00396,0.6446,0.6446,0.6446,,0.65,,False,0.0,0.0,0.0,0.0,0.0,172.9764,142.7955,0.0,True,True,Mode(963497464),0.6619,58,0.6435
3.24,THRUST_SEARCH,OPEN_LOOP,0.0188,0.01879,0.02398,0.02398,0.0,0.00599,0.6448,0.6448,0.6448,,0.65,,False,0.0,0.0,0.0,0.0,0.0,172.9764,142.5699,0.002,True,False,Mode(963497464),0.6729,59,0.6446
3.251,THRUST_SEARCH,OPEN_LOOP,0.0193,0.01927,0.02364,0.02364,0.0,0.0077,0.645,0.645,0.645,,0.65,,False,0.0,0.0,0.0,0.0,0.0,172.9764,142.4019,0.0069,True,False,Mode(963497464),0.6838,59,0.6446
3.262,THRUST_SEARCH,OPEN_LOOP,0.0197,0.01972,0.02365,0.02365,0.0,0.00923,0.6452,0.6452,0.6452,,0.65,,False,0.0,0.0,0.0,0.0,0.0,172.9764,142.4287,0.009,True,False,Mode(963497464),0.6948,59,0.6446
3.273,THRUST_SEARCH,OPEN_LOOP,0.0202,0.02018,0.02395,0.02395,0.0,0.01071,0.6455,0.6455,0.6455,,0.65,,False,0.0,0.0,0.0,0.0,0.0,172.9764,142.8833,0.004,True,False,Mode(963497464),0.7057,59,0.6446
3.283,THRUST_SEARCH,OPEN_LOOP,0.0207,0.02069,0.02495,0.02495,0.0,0.01237,0.6457,0.6457,0.6457,,0.65,,False,0.0,0.0,0.0,0.0,0.0,172.9764,143.1148,0.006,True,True,Mode(963497464),0.7162,59,0.6446
3.294,THRUST_SEARCH,OPEN_LOOP,0.0212,0.02119,0.02502,0.02502,0.0,0.01386,0.6459,0.6459,0.6459,,0.65,,False,0.0,0.0,0.0,0.0,0.0,172.9764,143.2491,0.008,True,False,Mode(963497464),0.7272,60,0.6457
3.306,THRUST_SEARCH,OPEN_LOOP,0.0218,0.02179,0.02653,0.02653,0.0,0.01572,0.6461,0.6461,0.6461,,0.65,,False,0.0,0.0,0.0,0.0,0.0,172.9764,143.2243,0.001,True,False,Mode(963497464),0.7384,60,0.6457
3.317,THRUST_SEARCH,OPEN_LOOP,0.0224,0.02235,0.02642,0.02642,0.0,0.01731,0.6463,0.6463,0.6463,,0.65,,False,0.0,0.0,0.0,0.0,0.0,172.9764,143.1642,0.0038,True,False,Mode(963497464),0.7494,60,0.6457
3.328,THRUST_SEARCH,OPEN_LOOP,0.0229,0.02292,0.02699,0.02699,0.0,0.0189,0.6466,0.6466,0.6466,,0.65,,False,0.0,0.0,0.0,0.0,0.0,172.9764,143.1777,0.009,True,False,Mode(963497464),0.7604,60,0.6457
3.339,THRUST_SEARCH,OPEN_LOOP,0.0235,0.02352,0.02764,0.02764,0.0,0.02052,0.6468,0.6468,0.6468,,0.65,,False,0.0,0.0,0.0,0.0,0.0,172.9764,143.5002,0.001,True,True,Mode(963497464),0.7714,60,0.6457
3.35,THRUST_SEARCH,OPEN_LOOP,0.0242,0.02416,0.02848,0.02848,0.0,0.02222,0.647,0.647,0.647,,0.65,,False,0.0,0.0,0.0,0.0,0.0,172.9764,143.7552,0.0061,True,False,Mode(963497464),0.7825,61,0.6468
3.361,THRUST_SEARCH,OPEN_LOOP,0.0248,0.02481,0.02917,0.02917,0.0,0.02392,0.6472,0.6472,0.6472,,0.65,,False,0.0,0.0,0.0,0.0,0.0,172.9764,143.9887,0.008,True,False,Mode(963497464),0.7933,61,0.6468
3.372,THRUST_SEARCH,OPEN_LOOP,0.0256,0.02559,0.03105,0.03105,0.0,0.02607,0.6474,0.6474,0.6474,,0.65,,False,0.0,0.0,0.0,0.0,0.0,172.9764,144.4512,0.003,True,False,Mode(963497464),0.8043,61,0.6468
3.383,THRUST_SEARCH,OPEN_LOOP,0.0263,0.02633,0.03103,0.03103,0.0,0.02791,0.6477,0.6477,0.6477,,0.65,,False,0.0,0.0,0.0,0.0,0.0,172.9764,144.6461,0.005,True,False,Mode(963497464),0.8153,61,0.6468
