time,state,controller_mode,target_z,curr_z,raw_z,height_for_safety,target_vz,curr_vz,thrust,raw_thrust,search_thrust,liftoff_thrust,hover_thrust_est,thrust_no_floor,floor_applied,a_cmd_z,v_cmd_z,z_integral,roll_cmd_deg,pitch_cmd_deg,yaw_cmd_deg,yaw_mocap_deg,mocap_age,kf_used_measurement,mavlink_sent,mav_mode,mav_heartbeat_age,mav_send_count,mav_last_thrust
0.002,THRUST_SEARCH,OPEN_LOOP,-0.0,-3e-05,-3e-05,-3e-05,0.0,-0.0,0.58,0.58,0.58,,0.67,,False,0.0,0.0,0.0,0.0,0.0,-90.2728,-90.2782,0.003,True,True,Mode(963497464),0.0,0,
0.011,THRUST_SEARCH,OPEN_LOOP,-0.0001,-0.00015,-0.00029,-0.00015,0.0,-0.00041,0.5802,0.5802,0.5802,,0.67,,False,0.0,0.0,0.0,0.0,0.0,-90.2728,-90.2792,0.006,True,False,Mode(963497464),0.011,1,0.58
0.021,THRUST_SEARCH,OPEN_LOOP,-0.0001,-9e-05,2e-05,2e-05,0.0,6e-05,0.5804,0.5804,0.5804,,0.67,,False,0.0,0.0,0.0,0.0,0.0,-90.2728,-90.2774,0.0015,True,False,Mode(963497464),0.0215,1,0.58
0.033,THRUST_SEARCH,OPEN_LOOP,-0.0001,-6e-05,2e-05,2e-05,0.0,0.00048,0.5807,0.5807,0.5807,,0.67,,False,0.0,0.0,0.0,0.0,0.0,-90.2728,-90.2817,0.003,True,False,Mode(963497464),0.0324,1,0.58
0.043,THRUST_SEARCH,OPEN_LOOP,-0.0001,-6e-05,-8e-05,-6e-05,0.0,0.00036,0.5809,0.5809,0.5809,,0.67,,False,0.0,0.0,0.0,0.0,0.0,-90.2728,-90.2768,0.0075,True,False,Mode(963497464),0.0429,1,0.58
0.055,THRUST_SEARCH,OPEN_LOOP,-0.0,-4e-05,-1e-05,-1e-05,0.0,0.00056,0.5811,0.5811,0.5811,,0.67,,False,0.0,0.0,0.0,0.0,0.0,-90.2728,-90.2739,0.009,True,True,Mode(963497464),0.0539,1,0.58
0.065,THRUST_SEARCH,OPEN_LOOP,-0.0,-2e-05,1e-05,1e-05,0.0,0.00075,0.5813,0.5813,0.5813,,0.67,,False,0.0,0.0,0.0,0.0,0.0,-90.2728,-90.2723,0.004,True,False,Mode(963497464),0.0648,2,0.5811
0.076,THRUST_SEARCH,OPEN_LOOP,-0.0,-2e-05,-3e-05,-2e-05,0.0,0.00068,0.5815,0.5815,0.5815,,0.67,,False,0.0,0.0,0.0,0.0,0.0,-90.2728,-90.2704,0.006,True,False,Mode(963497464),0.0758,2,0.5811
0.087,THRUST_SEARCH,OPEN_LOOP,-0.0,-1e-05,1e-05,1e-05,0.0,0.00078,0.5817,0.5817,0.5817,,0.67,,False,0.0,0.0,0.0,0.0,0.0,-90.2728,-90.273,0.008,True,False,Mode(963497464),0.0868,2,0.5811
0.098,THRUST_SEARCH,OPEN_LOOP,-0.0,-1e-05,-3e-05,-1e-05,0.0,0.00067,0.582,0.582,0.582,,0.67,,False,0.0,0.0,0.0,0.0,0.0,-90.2728,-90.2752,0.0039,True,False,Mode(963497464),0.0977,2,0.5811
0.109,THRUST_SEARCH,OPEN_LOOP,-0.0,-2e-05,-8e-05,-2e-05,0.0,0.00042,0.5822,0.5822,0.5822,,0.67,,False,0.0,0.0,0.0,0.0,0.0,-90.2728,-90.2741,0.006,True,True,Mode(963497464),0.1086,2,0.5811
0.12,THRUST_SEARCH,OPEN_LOOP,-0.0,-2e-05,-3e-05,-2e-05,0.0,0.00039,0.5824,0.5824,0.5824,,0.67,,False,0.0,0.0,0.0,0.0,0.0,-90.2728,-90.2756,0.008,True,False,Mode(963497464),0.1196,3,0.5822
0.131,THRUST_SEARCH,OPEN_LOOP,-0.0001,-8e-05,-0.00028,-8e-05,0.0,-0.00028,0.5826,0.5826,0.5826,,0.67,,False,0.0,0.0,0.0,0.0,0.0,-90.2728,-90.2757,0.0013,True,False,Mode(963497464),0.1309,3,0.5822
0.142,THRUST_SEARCH,OPEN_LOOP,-0.0001,-7e-05,-1e-05,-1e-05,0.0,-0.00013,0.5828,0.5828,0.5828,,0.67,,False,0.0,0.0,0.0,0.0,0.0,-90.2728,-90.2725,0.006,True,False,Mode(963497464),0.1418,3,0.5822
0.153,THRUST_SEARCH,OPEN_LOOP,-0.0001,-6e-05,-2e-05,-2e-05,0.0,-2e-05,0.5831,0.5831,0.5831,,0.67,,False,0.0,0.0,0.0,0.0,0.0,-90.2728,-90.2704,0.008,True,False,Mode(963497464),0.1527,3,0.5822
0.163,THRUST_SEARCH,OPEN_LOOP,-0.0001,-9e-05,-0.00022,-9e-05,0.0,-0.00033,0.5833,0.5833,0.5833,,0.67,,False,0.0,0.0,0.0,0.0,0.0,-90.2728,-90.2708,0.001,True,True,Mode(963497464),0.1632,3,0.5822
0.174,THRUST_SEARCH,OPEN_LOOP,-0.0001,-8e-05,-3e-05,-3e-05,0.0,-0.00022,0.5835,0.5835,0.5835,,0.67,,False,0.0,0.0,0.0,0.0,0.0,-90.2728,-90.2663,0.005,True,False,Mode(963497464),0.1741,4,0.5833
0.185,THRUST_SEARCH,OPEN_LOOP,-0.0001,-7e-05,-1e-05,-1e-05,0.0,-0.00011,0.5837,0.5837,0.5837,,0.67,,False,0.0,0.0,0.0,0.0,0.0,-90.2728,-90.2673,0.0069,True,False,Mode(963497464),0.1851,4,0.5833
0.196,THRUST_SEARCH,OPEN_LOOP,-0.0001,-0.00011,-0.00026,-0.00011,0.0,-0.00037,0.5839,0.5839,0.5839,,0.67,,False,0.0,0.0,0.0,0.0,0.0,-90.2728,-90.272,0.009,True,False,Mode(963497464),0.196,4,0.5833
0.207,THRUST_SEARCH,OPEN_LOOP,-0.0001,-9e-05,1e-05,1e-05,0.0,-0.00022,0.5841,0.5841,0.5841,,0.67,,False,0.0,0.0,0.0,0.0,0.0,-90.2728,-90.2748,0.0045,True,False,Mode(963497464),0.2065,4,0.5833
0.218,THRUST_SEARCH,OPEN_LOOP,-0.0001,-8e-05,1e-05,1e-05,0.0,-0.00011,0.5844,0.5844,0.5844,,0.67,,False,0.0,0.0,0.0,0.0,0.0,-90.2728,-90.2787,0.007,True,True,Mode(963497464),0.0,4,0.5833
0.23,THRUST_SEARCH,OPEN_LOOP,-0.0001,-8e-05,-7e-05,-7e-05,0.0,-0.0001,0.5846,0.5846,0.5846,,0.67,,False,0.0,0.0,0.0,0.0,0.0,-90.2728,-90.2816,0.009,True,False,Mode(963497464),0.011,5,0.5844
0.239,THRUST_SEARCH,OPEN_LOOP,-0.0001,-0.0001,-0.00024,-0.0001,0.0,-0.00026,0.5848,0.5848,0.5848,,0.67,,False,0.0,0.0,0.0,0.0,0.0,-90.2728,-90.2843,0.0015,True,False,Mode(963497464),0.0214,5,0.5844
0.25,THRUST_SEARCH,OPEN_LOOP,-0.0001,-9e-05,-1e-05,-1e-05,0.0,-0.00017,0.585,0.585,0.585,,0.67,,False,0.0,0.0,0.0,0.0,0.0,-90.2728,-90.2839,0.006,True,False,Mode(963497464),0.0324,5,0.5844
0.261,THRUST_SEARCH,OPEN_LOOP,-0.0001,-8e-05,-3e-05,-3e-05,0.0,-0.00012,0.5852,0.5852,0.5852,,0.67,,False,0.0,0.0,0.0,0.0,0.0,-90.2728,-90.2818,0.008,True,False,Mode(963497464),0.0434,5,0.5844
0.272,THRUST_SEARCH,OPEN_LOOP,-0.0001,-8e-05,-3e-05,-3e-05,0.0,-7e-05,0.5854,0.5854,0.5854,,0.67,,False,0.0,0.0,0.0,0.0,0.0,-90.2728,-90.2813,0.001,True,True,Mode(963497464),0.0544,5,0.5844
0.283,THRUST_SEARCH,OPEN_LOOP,-0.0001,-0.0001,-0.00024,-0.0001,0.0,-0.00019,0.5857,0.5857,0.5857,,0.67,,False,0.0,0.0,0.0,0.0,0.0,-90.2728,-90.2793,0.006,True,False,Mode(963497464),0.0653,6,0.5854
0.294,THRUST_SEARCH,OPEN_LOOP,-0.0001,-0.00012,-0.00028,-0.00012,0.0,-0.00032,0.5859,0.5859,0.5859,,0.67,,False,0.0,0.0,0.0,0.0,0.0,-90.2728,-90.278,0.008,True,False,Mode(963497464),0.0763,6,0.5854
0.305,THRUST_SEARCH,OPEN_LOOP,-0.0001,-0.00011,-2e-05,-2e-05,0.0,-0.00024,0.5861,0.5861,0.5861,,0.67,,False,0.0,0.0,0.0,0.0,0.0,-90.2728,-90.2813,0.0011,True,False,Mode(963497464),0.0874,6,0.5854
0.316,THRUST_SEARCH,OPEN_LOOP,-0.0001,-0.00013,-0.00022,-0.00013,0.0,-0.00031,0.5863,0.5863,0.5863,,0.67,,False,0.0,0.0,0.0,0.0,0.0,-90.2728,-90.2777,0.006,True,False,Mode(963497464),0.0983,6,0.5854
0.327,THRUST_SEARCH,OPEN_LOOP,-0.0001,-0.00012,-2e-05,-2e-05,0.0,-0.00024,0.5865,0.5865,0.5865,,0.67,,False,0.0,0.0,0.0,0.0,0.0,-90.2728,-90.2802,0.008,True,True,Mode(963497464),0.1093,6,0.5854
0.338,THRUST_SEARCH,OPEN_LOOP,-0.0001,-0.00011,-1e-05,-1e-05,0.0,-0.00018,0.5868,0.5868,0.5868,,0.67,,False,0.0,0.0,0.0,0.0,0.0,-90.2728,-90.2839,0.001,True,False,Mode(963497464),0.1203,7,0.5865
0.349,THRUST_SEARCH,OPEN_LOOP,-0.0001,-0.0001,-4e-05,-4e-05,0.0,-0.00014,0.587,0.587,0.587,,0.67,,False,0.0,0.0,0.0,0.0,0.0,-90.2728,-90.2836,0.003,True,False,Mode(963497464),0.1312,7,0.5865
0.36,THRUST_SEARCH,OPEN_LOOP,-0.0001,-0.0001,-5e-05,-5e-05,0.0,-0.00011,0.5872,0.5872,0.5872,,0.67,,False,0.0,0.0,0.0,0.0,0.0,-90.2728,-90.2818,0.008,True,False,Mode(963497464),0.1422,7,0.5865
0.371,THRUST_SEARCH,OPEN_LOOP,-0.0001,-9e-05,-0.0,-0.0,0.0,-6e-05,0.5874,0.5874,0.5874,,0.67,,False,0.0,0.0,0.0,0.0,0.0,-90.2728,-90.2798,0.001,True,False,Mode(963497464),0.1533,7,0.5865
0.382,THRUST_SEARCH,OPEN_LOOP,-0.0001,-9e-05,-7e-05,-7e-05,0.0,-5e-05,0.5876,0.5876,0.5876,,0.67,,False,0.0,0.0,0.0,0.0,0.0,-90.2728,-90.2803,0.0031,True,True,Mode(963497464),0.1644,7,0.5865
0.393,THRUST_SEARCH,OPEN_LOOP,-0.0001,-8e-05,-5e-05,-5e-05,0.0,-3e-05,0.5879,0.5879,0.5879,,0.67,,False,0.0,0.0,0.0,0.0,0.0,-90.2728,-90.2795,0.005,True,False,Mode(963497464),0.1752,8,0.5876
0.404,THRUST_SEARCH,OPEN_LOOP,-0.0001,-0.0001,-0.00024,-0.0001,0.0,-0.00011,0.5881,0.5881,0.5881,,0.67,,False,0.0,0.0,0.0,0.0,0.0,-90.2728,-90.279,0.001,True,False,Mode(963497464),0.1862,8,0.5876
0.415,THRUST_SEARCH,OPEN_LOOP,-0.0001,-0.00012,-0.00028,-0.00012,0.0,-0.00019,0.5883,0.5883,0.5883,,0.67,,False,0.0,0.0,0.0,0.0,0.0,-90.2728,-90.2831,0.003,True,False,Mode(963497464),0.1972,8,0.5876
0.426,THRUST_SEARCH,OPEN_LOOP,-0.0001,-0.00014,-0.00027,-0.00014,0.0,-0.00026,0.5885,0.5885,0.5885,,0.67,,False,0.0,0.0,0.0,0.0,0.0,-90.2728,-90.2837,0.005,True,False,Mode(963497464),0.2082,8,0.5876
0.437,THRUST_SEARCH,OPEN_LOOP,-0.0001,-0.00013,-1e-05,-1e-05,0.0,-0.0002,0.5887,0.5887,0.5887,,0.67,,False,0.0,0.0,0.0,0.0,0.0,-90.2728,-90.2855,0.001,True,True,Mode(963497464),0.2191,8,0.5876
0.448,THRUST_SEARCH,OPEN_LOOP,-0.0001,-0.00012,-2e-05,-2e-05,0.0,-0.00016,0.589,0.589,0.589,,0.67,,False,0.0,0.0,0.0,0.0,0.0,-90.2728,-90.2821,0.003,True,False,Mode(963497464),0.2301,9,0.5887
0.459,THRUST_SEARCH,OPEN_LOOP,-0.0001,-0.00013,-0.00025,-0.00013,0.0,-0.00021,0.5892,0.5892,0.5892,,0.67,,False,0.0,0.0,0.0,0.0,0.0,-90.2728,-90.2841,0.005,True,False,Mode(963497464),0.2411,9,0.5887
0.469,THRUST_SEARCH,OPEN_LOOP,-0.0001,-0.00013,-5e-05,-5e-05,0.0,-0.00017,0.5894,0.5894,0.5894,,0.67,,False,0.0,0.0,0.0,0.0,0.0,-90.2728,-90.2853,0.001,True,False,Mode(963497464),0.2517,9,0.5887
0.48,THRUST_SEARCH,OPEN_LOOP,-0.0001,-0.00014,-0.00027,-0.00014,0.0,-0.00023,0.5896,0.5896,0.5896,,0.67,,False,0.0,0.0,0.0,0.0,0.0,-90.2728,-90.2824,0.003,True,False,Mode(963497464),0.2626,9,0.5887
0.492,THRUST_SEARCH,OPEN_LOOP,-0.0001,-0.00012,6e-05,6e-05,0.0,-0.00015,0.5898,0.5898,0.5898,,0.67,,False,0.0,0.0,0.0,0.0,0.0,-90.2728,-90.2769,0.005,True,True,Mode(963497464),0.2736,9,0.5887
0.501,THRUST_SEARCH,OPEN_LOOP,-0.0001,-9e-05,0.00024,0.00024,0.0,-0.0,0.59,0.59,0.59,,0.67,,False,0.0,0.0,0.0,0.0,0.0,-90.2728,-90.273,0.0066,True,False,Mode(963497464),0.2838,10,0.5898
0.513,THRUST_SEARCH,OPEN_LOOP,-0.0001,-6e-05,0.00024,0.00024,0.0,0.00012,0.5903,0.5903,0.5903,,0.67,,False,0.0,0.0,0.0,0.0,0.0,-90.2728,-90.2685,0.009,True,False,Mode(963497464),0.2947,10,0.5898
0.523,THRUST_SEARCH,OPEN_LOOP,-0.0002,-0.00015,-0.00106,-0.00015,0.0,-0.00025,0.5905,0.5905,0.5905,,0.67,,False,0.0,0.0,0.0,0.0,0.0,-90.2728,-90.2402,0.0045,True,False,Mode(963497464),0.3052,10,0.5898
0.534,THRUST_SEARCH,OPEN_LOOP,-0.0001,-0.00011,0.00033,0.00033,0.0,-7e-05,0.5907,0.5907,0.5907,,0.67,,False,0.0,0.0,0.0,0.0,0.0,-90.2728,-90.2167,0.007,True,False,Mode(963497464),0.3162,10,0.5898
0.546,THRUST_SEARCH,OPEN_LOOP,-0.0001,-6e-05,0.00039,0.00039,0.0,0.00012,0.5909,0.5909,0.5909,,0.67,,False,0.0,0.0,0.0,0.0,0.0,-90.2728,-90.1747,0.009,True,True,Mode(963497464),0.3272,10,0.5898
0.555,THRUST_SEARCH,OPEN_LOOP,0.0001,9e-05,0.00165,0.00165,0.0,0.00075,0.5911,0.5911,0.5911,,0.67,,False,0.0,0.0,0.0,0.0,0.0,-90.2728,-89.7211,0.0015,True,False,Mode(963497464),0.3377,11,0.5909
0.566,THRUST_SEARCH,OPEN_LOOP,0.0003,0.00027,0.00204,0.00204,0.0,0.00146,0.5913,0.5913,0.5913,,0.67,,False,0.0,0.0,0.0,0.0,0.0,-90.2728,-89.4291,0.0038,True,False,Mode(963497464),0.3484,11,0.5909
0.577,THRUST_SEARCH,OPEN_LOOP,0.0005,0.00049,0.00255,0.00255,0.0,0.00228,0.5915,0.5915,0.5915,,0.67,,False,0.0,0.0,0.0,0.0,0.0,-90.2728,-89.2742,0.006,True,False,Mode(963497464),0.3594,11,0.5909
0.587,THRUST_SEARCH,OPEN_LOOP,0.0008,0.00083,0.00406,0.00406,0.0,0.00356,0.5917,0.5917,0.5917,,0.67,,False,0.0,0.0,0.0,0.0,0.0,-90.2728,-89.1289,0.0015,True,False,Mode(963497464),0.3699,11,0.5909
0.598,THRUST_SEARCH,OPEN_LOOP,0.0012,0.00121,0.00475,0.00475,0.0,0.00496,0.592,0.592,0.592,,0.67,,False,0.0,0.0,0.0,0.0,0.0,-90.2728,-89.0201,0.0036,True,True,Mode(963497464),0.3805,11,0.5909
0.609,THRUST_SEARCH,OPEN_LOOP,0.0016,0.00161,0.00516,0.00516,0.0,0.00636,0.5922,0.5922,0.5922,,0.67,,False,0.0,0.0,0.0,0.0,0.0,-90.2728,-88.9822,0.006,True,False,Mode(963497464),0.3914,12,0.592
0.62,THRUST_SEARCH,OPEN_LOOP,0.0021,0.00207,0.00618,0.00618,0.0,0.00797,0.5924,0.5924,0.5924,,0.67,,False,0.0,0.0,0.0,0.0,0.0,-90.2728,-89.0735,0.008,True,False,Mode(963497464),0.4024,12,0.592
0.631,THRUST_SEARCH,OPEN_LOOP,0.0027,0.00267,0.008,0.008,0.0,0.01006,0.5926,0.5926,0.5926,,0.67,,False,0.0,0.0,0.0,0.0,0.0,-90.2728,-89.1102,0.004,True,False,Mode(963497464),0.4134,12,0.592
0.641,THRUST_SEARCH,OPEN_LOOP,0.0032,0.00325,0.00817,0.00817,0.0,0.01198,0.5928,0.5928,0.5928,,0.67,,False,0.0,0.0,0.0,0.0,0.0,-90.2728,-89.1898,0.006,True,False,Mode(963497464),0.4239,12,0.592
0.652,THRUST_SEARCH,OPEN_LOOP,0.0039,0.00387,0.00914,0.00914,0.0,0.01403,0.593,0.593,0.593,,0.67,,False,0.0,0.0,0.0,0.0,0.0,-90.2728,-89.275,0.0075,True,True,Mode(963497464),0.4344,12,0.592
0.663,THRUST_SEARCH,OPEN_LOOP,0.0046,0.00457,0.01026,0.01026,0.0,0.01624,0.5933,0.5933,0.5933,,0.67,,False,0.0,0.0,0.0,0.0,0.0,-90.2728,-89.5996,0.0014,True,False,Mode(963497464),0.4457,13,0.593
0.674,THRUST_SEARCH,OPEN_LOOP,0.0052,0.00521,0.01006,0.01006,0.0,0.01813,0.5935,0.5935,0.5935,,0.67,,False,0.0,0.0,0.0,0.0,0.0,-90.2728,-89.7203,0.003,True,False,Mode(963497464),0.4567,13,0.593
0.685,THRUST_SEARCH,OPEN_LOOP,0.0058,0.00583,0.0103,0.0103,0.0,0.01987,0.5937,0.5937,0.5937,,0.67,,False,0.0,0.0,0.0,0.0,0.0,-90.2728,-89.7683,0.0075,True,False,Mode(963497464),0.4672,13,0.593
0.696,THRUST_SEARCH,OPEN_LOOP,0.0065,0.00652,0.01157,0.01157,0.0,0.02183,0.5939,0.5939,0.5939,,0.67,,False,0.0,0.0,0.0,0.0,0.0,-90.2728,-89.9824,0.001,True,False,Mode(963497464),0.4781,13,0.593
0.707,THRUST_SEARCH,OPEN_LOOP,0.0072,0.0072,0.01187,0.01187,0.0,0.02365,0.5941,0.5941,0.5941,,0.67,,False,0.0,0.0,0.0,0.0,0.0,-90.2728,-90.0895,0.003,True,True,Mode(963497464),0.4891,13,0.593
0.718,THRUST_SEARCH,OPEN_LOOP,0.0078,0.00778,0.01116,0.01116,0.0,0.02496,0.5944,0.5944,0.5944,,0.67,,False,0.0,0.0,0.0,0.0,0.0,-90.2728,-90.2006,0.005,True,False,Mode(963497464),0.5001,14,0.5941
0.729,THRUST_SEARCH,OPEN_LOOP,0.0085,0.00848,0.01299,0.01299,0.0,0.02672,0.5946,0.5946,0.5946,,0.67,,False,0.0,0.0,0.0,0.0,0.0,-90.2728,-90.473,0.001,True,False,Mode(963497464),0.5111,14,0.5941
0.74,THRUST_SEARCH,OPEN_LOOP,0.0092,0.00924,0.01416,0.01416,0.0,0.02864,0.5948,0.5948,0.5948,,0.67,,False,0.0,0.0,0.0,0.0,0.0,-90.2728,-90.6098,0.003,True,False,Mode(963497464),0.522,14,0.5941
0.751,THRUST_SEARCH,OPEN_LOOP,0.01,0.01,0.01473,0.01473,0.0,0.03049,0.595,0.595,0.595,,0.67,,False,0.0,0.0,0.0,0.0,0.0,-90.2728,-90.7716,0.005,True,False,Mode(963497464),0.533,14,0.5941
0.761,THRUST_SEARCH,OPEN_LOOP,0.0107,0.01074,0.01514,0.01514,0.0,0.0322,0.5952,0.5952,0.5952,,0.67,,False,0.0,0.0,0.0,0.0,0.0,-90.2728,-91.1603,0.001,True,True,Mode(963497464),0.5437,14,0.5941
0.772,THRUST_SEARCH,OPEN_LOOP,0.0115,0.01152,0.01597,0.01597,0.0,0.03394,0.5954,0.5954,0.5954,,0.67,,False,0.0,0.0,0.0,0.0,0.0,-90.2728,-91.468,0.003,True,False,Mode(963497464),0.5546,15,0.5952
0.783,THRUST_SEARCH,OPEN_LOOP,0.0124,0.01236,0.01739,0.01739,0.0,0.0359,0.5957,0.5957,0.5957,,0.67,,False,0.0,0.0,0.0,0.0,0.0,-90.2728,-91.7418,0.005,True,False,Mode(963497464),0.5656,15,0.5952
0.794,THRUST_SEARCH,OPEN_LOOP,0.0131,0.01311,0.01699,0.01699,0.0,0.03741,0.5959,0.5959,0.5959,,0.67,,False,0.0,0.0,0.0,0.0,0.0,-90.2728,-91.9916,0.0067,True,False,Mode(963497464),0.5763,15,0.5952
0.805,THRUST_SEARCH,OPEN_LOOP,0.0138,0.01385,0.0173,0.0173,0.0,0.03875,0.5961,0.5961,0.5961,,0.67,,False,0.0,0.0,0.0,0.0,0.0,-90.2728,-92.3919,0.003,True,False,Mode(963497464),0.5872,15,0.5952
0.816,THRUST_SEARCH,OPEN_LOOP,0.0146,0.01462,0.01831,0.01831,0.0,0.04019,0.5963,0.5963,0.5963,,0.67,,False,0.0,0.0,0.0,0.0,0.0,-90.2728,-92.5616,0.005,True,True,Mode(963497464),0.5982,15,0.5952
0.827,THRUST_SEARCH,OPEN_LOOP,0.0154,0.01544,0.01945,0.01945,0.0,0.04176,0.5965,0.5965,0.5965,,0.67,,False,0.0,0.0,0.0,0.0,0.0,-90.2728,-92.6536,0.007,True,False,Mode(963497464),0.6092,16,0.5963
0.838,THRUST_SEARCH,OPEN_LOOP,0.0163,0.01631,0.02039,0.02039,0.0,0.04336,0.5968,0.5968,0.5968,,0.67,,False,0.0,0.0,0.0,0.0,0.0,-90.2728,-92.7816,0.001,True,False,Mode(963497464),0.6207,16,0.5963
0.849,THRUST_SEARCH,OPEN_LOOP,0.0172,0.01718,0.0214,0.0214,0.0,0.04502,0.597,0.597,0.597,,0.67,,False,0.0,0.0,0.0,0.0,0.0,-90.2728,-92.9036,0.002,True,False,Mode(963497464),0.6316,16,0.5963
0.86,THRUST_SEARCH,OPEN_LOOP,0.018,0.01804,0.02181,0.02181,0.0,0.0465,0.5972,0.5972,0.5972,,0.67,,False,0.0,0.0,0.0,0.0,0.0,-90.2728,-93.0889,0.007,True,False,Mode(963497464),0.6426,16,0.5963
0.872,THRUST_SEARCH,OPEN_LOOP,0.0189,0.01889,0.02219,0.02219,0.0,0.04781,0.5974,0.5974,0.5974,,0.67,,False,0.0,0.0,0.0,0.0,0.0,-90.2728,-93.4523,0.001,True,True,Mode(963497464),0.6541,16,0.5963
0.883,THRUST_SEARCH,OPEN_LOOP,0.0196,0.01964,0.0221,0.0221,0.0,0.04878,0.5977,0.5977,0.5977,,0.67,,False,0.0,0.0,0.0,0.0,0.0,-90.2728,-93.5469,0.003,True,False,Mode(963497464),0.6651,17,0.5974
0.894,THRUST_SEARCH,OPEN_LOOP,0.0205,0.02046,0.02337,0.02337,0.0,0.04993,0.5979,0.5979,0.5979,,0.67,,False,0.0,0.0,0.0,0.0,0.0,-90.2728,-93.6978,0.008,True,False,Mode(963497464),0.676,17,0.5974
0.905,THRUST_SEARCH,OPEN_LOOP,0.0214,0.02138,0.02526,0.02526,0.0,0.05146,0.5981,0.5981,0.5981,,0.67,,False,0.0,0.0,0.0,0.0,0.0,-90.2728,-93.8115,0.001,True,False,Mode(963497464),0.687,17,0.5974
0.916,THRUST_SEARCH,OPEN_LOOP,0.0223,0.02227,0.02573,0.02573,0.0,0.05283,0.5983,0.5983,0.5983,,0.67,,False,0.0,0.0,0.0,0.0,0.0,-90.2728,-93.726,0.003,True,False,Mode(963497464),0.698,17,0.5974
0.926,THRUST_SEARCH,OPEN_LOOP,0.0232,0.02319,0.02673,0.02673,0.0,0.05423,0.5985,0.5985,0.5985,,0.67,,False,0.0,0.0,0.0,0.0,0.0,-90.2728,-93.6531,0.008,True,True,Mode(963497464),0.7089,17,0.5974
0.938,THRUST_SEARCH,OPEN_LOOP,0.0243,0.02432,0.02975,0.02975,0.0,0.05637,0.5988,0.5988,0.5988,,0.67,,False,0.0,0.0,0.0,0.0,0.0,-90.2728,-93.7714,0.001,True,False,Mode(963497464),0.7203,18,0.5985
0.949,THRUST_SEARCH,OPEN_LOOP,0.0253,0.02534,0.02954,0.02954,0.0,0.05804,0.599,0.599,0.599,,0.67,,False,0.0,0.0,0.0,0.0,0.0,-90.2728,-93.9638,0.003,True,False,Mode(963497464),0.7313,18,0.5985
0.96,THRUST_SEARCH,OPEN_LOOP,0.0262,0.02624,0.02895,0.02895,0.0,0.05911,0.5992,0.5992,0.5992,,0.67,,False,0.0,0.0,0.0,0.0,0.0,-90.2728,-94.1287,0.008,True,False,Mode(963497464),0.7423,18,0.5985
0.971,THRUST_SEARCH,OPEN_LOOP,0.0269,0.02694,0.02753,0.02753,0.0,0.05935,0.5994,0.5994,0.5994,,0.67,,False,0.0,0.0,0.0,0.0,0.0,-90.2728,-94.4404,0.001,True,False,Mode(963497464),0.7532,18,0.5985
0.982,THRUST_SEARCH,OPEN_LOOP,0.0276,0.02765,0.02819,0.02819,0.0,0.05956,0.5996,0.5996,0.5996,,0.67,,False,0.0,0.0,0.0,0.0,0.0,-90.2728,-94.5789,0.003,True,True,Mode(963497464),0.7642,18,0.5985
0.993,THRUST_SEARCH,OPEN_LOOP,0.0284,0.02836,0.02901,0.02901,0.0,0.05982,0.5999,0.5999,0.5999,,0.67,,False,0.0,0.0,0.0,0.0,0.0,-90.2728,-94.6791,0.005,True,False,Mode(963497464),0.7752,19,0.5996
1.004,THRUST_SEARCH,OPEN_LOOP,0.0291,0.02906,0.02948,0.02948,0.0,0.05998,0.6001,0.6001,0.6001,,0.67,,False,0.0,0.0,0.0,0.0,0.0,-90.2728,-94.6733,0.001,True,False,Mode(963497464),0.7861,19,0.5996
1.015,THRUST_SEARCH,OPEN_LOOP,0.0299,0.02989,0.03177,0.03177,0.0,0.06072,0.6003,0.6003,0.6003,,0.67,,False,0.0,0.0,0.0,0.0,0.0,-90.2728,-94.6949,0.003,True,False,Mode(963497464),0.7971,19,0.5996
1.025,THRUST_SEARCH,OPEN_LOOP,0.0307,0.0307,0.03251,0.03251,0.0,0.06143,0.6005,0.6005,0.6005,,0.67,,False,0.0,0.0,0.0,0.0,0.0,-90.2728,-94.6706,0.0045,True,False,Mode(963497464),0.8076,19,0.5996
1.036,THRUST_SEARCH,OPEN_LOOP,0.0314,0.03142,0.03187,0.03187,0.0,0.06161,0.6007,0.6007,0.6007,,0.67,,False,0.0,0.0,0.0,0.0,0.0,-90.2728,-94.6289,0.001,True,True,Mode(963497464),0.8186,19,0.5996
1.047,THRUST_SEARCH,OPEN_LOOP,0.0318,0.03182,0.02889,0.03182,0.0,0.06046,0.6009,0.6009,0.6009,,0.67,,False,0.0,0.0,0.0,0.0,0.0,-90.2728,-94.652,0.003,True,False,Mode(963497464),0.8295,20,0.6007
1.058,THRUST_SEARCH,OPEN_LOOP,0.032,0.032,0.02697,0.032,0.0,0.05848,0.6012,0.6012,0.6012,,0.67,,False,0.0,0.0,0.0,0.0,0.0,-90.2728,-94.6741,0.005,True,False,Mode(963497464),0.8405,20,0.6007
1.07,THRUST_SEARCH,OPEN_LOOP,0.032,0.03204,0.02532,0.03204,0.0,0.05582,0.6014,0.6014,0.6014,,0.67,,False,0.0,0.0,0.0,0.0,0.0,-90.2728,-94.6093,0.0073,True,False,Mode(963497464),0.8521,20,0.6007
1.081,THRUST_SEARCH,OPEN_LOOP,0.0323,0.03226,0.02818,0.03226,0.0,0.05421,0.6016,0.6016,0.6016,,0.67,,False,0.0,0.0,0.0,0.0,0.0,-90.2728,-94.1494,0.001,True,False,Mode(963497464),0.8631,20,0.6007
1.091,THRUST_SEARCH,OPEN_LOOP,0.0325,0.03249,0.02889,0.03249,0.0,0.05279,0.6018,0.6018,0.6018,,0.67,,False,0.0,0.0,0.0,0.0,0.0,-90.2728,-93.7233,0.0045,True,True,Mode(963497464),0.8735,20,0.6007
1.102,THRUST_SEARCH,OPEN_LOOP,0.033,0.03305,0.03297,0.03305,0.0,0.05276,0.602,0.602,0.602,,0.67,,False,0.0,0.0,0.0,0.0,0.0,-90.2728,-93.1247,0.0068,True,False,Mode(963497464),0.8844,21,0.6018
1.113,THRUST_SEARCH,OPEN_LOOP,0.0338,0.03377,0.03524,0.03524,0.0,0.05334,0.6023,0.6023,0.6023,,0.67,,False,0.0,0.0,0.0,0.0,0.0,-90.2728,-92.5004,0.009,True,False,Mode(963497464),0.8953,21,0.6018
1.124,THRUST_SEARCH,OPEN_LOOP,0.0344,0.0344,0.03492,0.03492,0.0,0.05354,0.6025,0.6025,0.6025,,0.67,,False,0.0,0.0,0.0,0.0,0.0,-90.2728,-91.4312,0.005,True,False,Mode(963497464),0.9063,21,0.6018
1.135,THRUST_SEARCH,OPEN_LOOP,0.0351,0.03508,0.03601,0.03601,0.0,0.05391,0.6027,0.6027,0.6027,,0.67,,False,0.0,0.0,0.0,0.0,0.0,-90.2728,-91.0265,0.007,True,False,Mode(963497464),0.9173,21,0.6018
1.147,THRUST_SEARCH,OPEN_LOOP,0.0361,0.0361,0.04063,0.04063,0.0,0.05569,0.6029,0.6029,0.6029,,0.67,,False,0.0,0.0,0.0,0.0,0.0,-90.2728,-90.5198,0.009,True,True,Mode(963497464),0.9282,21,0.6018
1.156,THRUST_SEARCH,OPEN_LOOP,0.0376,0.03761,0.04738,0.04738,0.0,0.05952,0.6031,0.6031,0.6031,,0.67,,False,0.0,0.0,0.0,0.0,0.0,-90.2728,-89.6073,0.004,True,False,Mode(963497464),0.9387,22,0.6029
1.167,THRUST_SEARCH,OPEN_LOOP,0.0394,0.03938,0.05116,0.05116,0.0,0.06413,0.6033,0.6033,0.6033,,0.67,,False,0.0,0.0,0.0,0.0,0.0,-90.2728,-89.2177,0.006,True,False,Mode(963497464),0.9497,22,0.6029
1.178,THRUST_SEARCH,OPEN_LOOP,0.0414,0.04138,0.05514,0.05514,0.0,0.06953,0.6036,0.6036,0.6036,,0.67,,False,0.0,0.0,0.0,0.0,0.0,-90.2728,-88.8553,0.008,True,False,Mode(963497464),0.9606,22,0.6029
1.189,THRUST_SEARCH,OPEN_LOOP,0.0442,0.04423,0.06635,0.06635,0.0,0.0782,0.6038,0.6038,0.6038,,0.67,,False,0.0,0.0,0.0,0.0,0.0,-90.2728,-87.3171,0.0039,True,False,Mode(963497464),0.9716,22,0.6029
1.2,THRUST_SEARCH,OPEN_LOOP,0.0473,0.04729,0.07048,0.07048,0.0,0.08729,0.604,0.604,0.604,,0.67,,False,0.0,0.0,0.0,0.0,0.0,-90.2728,-85.868,0.0061,True,True,Mode(963497464),0.9827,22,0.6029
1.211,THRUST_SEARCH,OPEN_LOOP,0.0505,0.05049,0.07474,0.07474,0.0,0.09677,0.6042,0.6042,0.6042,,0.67,,False,0.0,0.0,0.0,0.0,0.0,-90.2728,-84.1968,0.0075,True,False,Mode(963497464),0.993,23,0.604
1.222,THRUST_SEARCH,OPEN_LOOP,0.0539,0.05385,0.07819,0.07819,0.0,0.10628,0.6044,0.6044,0.6044,,0.67,,False,0.0,0.0,0.0,0.0,0.0,-90.2728,-80.9887,0.001,True,False,Mode(963497464),0.0,23,0.604
1.233,THRUST_SEARCH,OPEN_LOOP,0.0576,0.05759,0.08474,0.08474,0.0,0.11691,0.6047,0.6047,0.6047,,0.67,,False,0.0,0.0,0.0,0.0,0.0,-90.2728,-79.6888,0.003,True,False,Mode(963497464),0.011,23,0.604
1.243,THRUST_SEARCH,OPEN_LOOP,0.0613,0.06131,0.08785,0.08785,0.0,0.12725,0.6049,0.6049,0.6049,,0.67,,False,0.0,0.0,0.0,0.0,0.0,-90.2728,-78.6673,0.0075,True,False,Mode(963497464),0.0215,23,0.604
1.254,THRUST_SEARCH,OPEN_LOOP,0.0652,0.06522,0.09189,0.09189,0.0,0.13766,0.6051,0.6051,0.6051,,0.67,,False,0.0,0.0,0.0,0.0,0.0,-90.2728,-77.0649,0.001,True,True,Mode(963497464),0.0324,23,0.604
1.265,THRUST_SEARCH,OPEN_LOOP,0.0687,0.0687,0.08962,0.08962,0.0,0.14583,0.6053,0.6053,0.6053,,0.67,,False,0.0,0.0,0.0,0.0,0.0,-90.2728,-76.5202,0.003,True,False,Mode(963497464),0.0434,24,0.6051
1.276,THRUST_SEARCH,OPEN_LOOP,0.0722,0.07215,0.09172,0.09172,0.0,0.15347,0.6055,0.6055,0.6055,,0.67,,False,0.0,0.0,0.0,0.0,0.0,-90.2728,-76.2135,0.005,True,False,Mode(963497464),0.0544,24,0.6051
1.287,THRUST_SEARCH,OPEN_LOOP,0.0752,0.07521,0.09013,0.09013,0.0,0.1593,0.6057,0.6057,0.6057,,0.67,,False,0.0,0.0,0.0,0.0,0.0,-90.2728,-76.4019,0.0002,True,False,Mode(963497464),0.0651,24,0.6051
1.297,THRUST_SEARCH,OPEN_LOOP,0.078,0.07798,0.0892,0.0892,0.0,0.16367,0.6059,0.6059,0.6059,,0.67,,False,0.0,0.0,0.0,0.0,0.0,-90.2728,-76.7768,0.001,True,False,Mode(963497464),0.0759,24,0.6051
1.308,THRUST_SEARCH,OPEN_LOOP,0.0805,0.08051,0.0892,0.0892,0.0,0.16705,0.6062,0.6062,0.6062,,0.67,,False,0.0,0.0,0.0,0.0,0.0,-90.2728,-76.7768,0.0115,True,True,Mode(963497464),0.0863,24,0.6051
1.319,THRUST_SEARCH,OPEN_LOOP,0.0819,0.08187,0.07687,0.08187,0.0,0.1651,0.6064,0.6064,0.6064,,0.67,,False,0.0,0.0,0.0,0.0,0.0,-90.2728,-78.7815,0.006,True,False,Mode(963497464),0.0973,25,0.6062
1.33,THRUST_SEARCH,OPEN_LOOP,0.0817,0.08173,0.06106,0.08173,0.0,0.15706,0.6066,0.6066,0.6066,,0.67,,False,0.0,0.0,0.0,0.0,0.0,-90.2728,-82.6767,0.0009,True,False,Mode(963497464),0.1082,25,0.6062
1.341,THRUST_SEARCH,OPEN_LOOP,0.0808,0.0808,0.05261,0.0808,0.0,0.14608,0.6068,0.6068,0.6068,,0.67,,False,0.0,0.0,0.0,0.0,0.0,-90.2728,-85.2183,0.003,True,False,Mode(963497464),0.1192,25,0.6062
1.351,THRUST_SEARCH,OPEN_LOOP,0.0798,0.0798,0.0528,0.0798,0.0,0.1356,0.607,0.607,0.607,,0.67,,False,0.0,0.0,0.0,0.0,0.0,-90.2728,-87.9111,0.0075,True,False,Mode(963497464),0.1296,25,0.6062
1.362,THRUST_SEARCH,OPEN_LOOP,0.0791,0.07912,0.05611,0.07912,0.0,0.12665,0.6072,0.6072,0.6072,,0.67,,False,0.0,0.0,0.0,0.0,0.0,-90.2728,-92.9068,0.001,True,True,Mode(963497464),0.1406,25,0.6062
1.374,THRUST_SEARCH,OPEN_LOOP,0.0787,0.07867,0.05845,0.07867,0.0,0.11875,0.6075,0.6075,0.6075,,0.67,,False,0.0,0.0,0.0,0.0,0.0,-90.2728,-94.851,0.004,True,False,Mode(963497464),0.1521,26,0.6072
1.385,THRUST_SEARCH,OPEN_LOOP,0.0784,0.07835,0.06128,0.07835,0.0,0.11207,0.6077,0.6077,0.6077,,0.67,,False,0.0,0.0,0.0,0.0,0.0,-90.2728,-96.0533,0.006,True,False,Mode(963497464),0.1631,26,0.6072
1.395,THRUST_SEARCH,OPEN_LOOP,0.0787,0.07869,0.0698,0.07869,0.0,0.10861,0.6079,0.6079,0.6079,,0.67,,False,0.0,0.0,0.0,0.0,0.0,-90.2728,-95.9939,0.0015,True,False,Mode(963497464),0.1735,26,0.6072
1.406,THRUST_SEARCH,OPEN_LOOP,0.0795,0.07947,0.07505,0.07947,0.0,0.10688,0.6081,0.6081,0.6081,,0.67,,False,0.0,0.0,0.0,0.0,0.0,-90.2728,-94.8938,0.004,True,False,Mode(963497464),0.1845,26,0.6072
1.417,THRUST_SEARCH,OPEN_LOOP,0.0805,0.08054,0.08007,0.08054,0.0,0.1067,0.6083,0.6083,0.6083,,0.67,,False,0.0,0.0,0.0,0.0,0.0,-90.2728,-93.6121,0.006,True,True,Mode(963497464),0.195,26,0.6072
1.428,THRUST_SEARCH,OPEN_LOOP,0.0821,0.08207,0.08585,0.08585,0.0,0.10817,0.6086,0.6086,0.6086,,0.67,,False,0.0,0.0,0.0,0.0,0.0,-90.2728,-92.5111,0.008,True,False,Mode(963497464),0.206,27,0.6083
1.439,THRUST_SEARCH,OPEN_LOOP,0.0843,0.08432,0.09559,0.09559,0.0,0.11256,0.6088,0.6088,0.6088,,0.67,,False,0.0,0.0,0.0,0.0,0.0,-90.2728,-91.3932,0.0011,True,False,Mode(963497464),0.217,27,0.6083
1.449,THRUST_SEARCH,OPEN_LOOP,0.0866,0.08663,0.09865,0.09865,0.0,0.11723,0.609,0.609,0.609,,0.67,,False,0.0,0.0,0.0,0.0,0.0,-90.2728,-91.3723,0.002,True,False,Mode(963497464),0.2275,27,0.6083
1.46,THRUST_SEARCH,OPEN_LOOP,0.0891,0.08914,0.10208,0.10208,0.0,0.12227,0.6092,0.6092,0.6092,,0.67,,False,0.0,0.0,0.0,0.0,0.0,-90.2728,-91.4746,0.007,True,False,Mode(963497464),0.2385,27,0.6083
1.472,THRUST_SEARCH,OPEN_LOOP,0.0916,0.09163,0.10396,0.10396,0.0,0.12707,0.6094,0.6094,0.6094,,0.67,,False,0.0,0.0,0.0,0.0,0.0,-90.2728,-91.6041,0.009,True,True,Mode(963497464),0.2494,27,0.6083
1.482,THRUST_SEARCH,OPEN_LOOP,0.0943,0.09427,0.10745,0.10745,0.0,0.13221,0.6096,0.6096,0.6096,,0.67,,False,0.0,0.0,0.0,0.0,0.0,-90.2728,-91.813,0.004,True,False,Mode(963497464),0.2604,28,0.6094
1.493,THRUST_SEARCH,OPEN_LOOP,0.0967,0.09668,0.10645,0.10645,0.0,0.13603,0.6099,0.6099,0.6099,,0.67,,False,0.0,0.0,0.0,0.0,0.0,-90.2728,-91.8807,0.0069,True,False,Mode(963497464),0.2717,28,0.6094
1.504,THRUST_SEARCH,OPEN_LOOP,0.0989,0.09889,0.10652,0.10652,0.0,0.13901,0.6101,0.6101,0.6101,,0.67,,False,0.0,0.0,0.0,0.0,0.0,-90.2728,-91.9448,0.009,True,False,Mode(963497464),0.2826,28,0.6094
1.515,THRUST_SEARCH,OPEN_LOOP,0.1006,0.10056,0.10272,0.10272,0.0,0.13985,0.6103,0.6103,0.6103,,0.67,,False,0.0,0.0,0.0,0.0,0.0,-90.2728,-92.3161,0.0045,True,False,Mode(963497464),0.2931,28,0.6094
1.526,THRUST_SEARCH,OPEN_LOOP,0.1021,0.10209,0.10143,0.10209,0.0,0.1396,0.6105,0.6105,0.6105,,0.67,,False,0.0,0.0,0.0,0.0,0.0,-90.2728,-92.7456,0.0074,True,True,Mode(963497464),0.3045,28,0.6094
1.537,THRUST_SEARCH,OPEN_LOOP,0.1029,0.10288,0.09508,0.10288,0.0,0.13654,0.6107,0.6107,0.6107,,0.67,,False,0.0,0.0,0.0,0.0,0.0,-90.2728,-93.6995,0.001,True,False,Mode(963497464),0.3155,29,0.6105
1.548,ASCENT,OPEN_LOOP,0.1033,0.1033,0.09189,0.1033,0.0,0.13207,0.611,0.611,0.611,0.611,0.67,,False,0.0,0.0,0.0,0.0,0.0,-90.2728,-94.0654,0.003,True,False,Mode(963497464),0.3265,29,0.6105
1.559,ASCENT,CLOSED_LOOP_ASCENT,0.1044,0.10338,0.08895,0.10338,0.1,0.12641,0.67,0.67,,0.611,0.67,0.6658,True,-0.0554,0.1012,0.0,0.261,6.203,-90.2728,-94.3471,0.005,True,False,Mode(963497464),0.3374,29,0.6105
1.57,ASCENT,CLOSED_LOOP_ASCENT,0.1055,0.10298,0.08378,0.10298,0.1,0.11885,0.67,0.67,,0.611,0.67,0.6693,True,-0.0098,0.103,0.0,0.1795,6.1358,-90.2728,-94.6292,0.001,True,False,Mode(963497464),0.3487,29,0.6105
1.581,ASCENT,CLOSED_LOOP_ASCENT,0.1066,0.1024,0.08257,0.1024,0.1,0.11105,0.6701,0.671,,0.611,0.67,0.671,False,0.0137,0.1051,0.0,0.1266,6.0587,-90.2728,-94.726,0.003,True,True,Mode(963497464),0.3597,29,0.6105
1.592,ASCENT,CLOSED_LOOP_ASCENT,0.1077,0.10159,0.08021,0.10159,0.1,0.10264,0.6705,0.673,,0.611,0.67,0.673,False,0.0396,0.1074,0.0,0.0768,5.9724,-90.2728,-94.8784,0.005,True,False,Mode(963497464),0.3706,30,0.6701
1.603,ASCENT,CLOSED_LOOP_ASCENT,0.1088,0.10057,0.07805,0.10057,0.1,0.09379,0.671,0.675,,0.611,0.67,0.675,False,0.0667,0.1099,0.0,-0.0453,5.8834,-90.2728,-95.9277,0.001,True,False,Mode(963497464),0.3816,30,0.6701
1.614,ASCENT,CLOSED_LOOP_ASCENT,0.1099,0.0994,0.07624,0.0994,0.1,0.08468,0.6717,0.677,,0.611,0.67,0.677,False,0.0938,0.1126,0.0,-0.1325,5.7861,-90.2728,-96.7794,0.003,True,False,Mode(963497464),0.3925,30,0.6701
1.625,ASCENT,CLOSED_LOOP_ASCENT,0.111,0.09819,0.07569,0.09819,0.1,0.07583,0.6726,0.6789,,0.611,0.67,0.6789,False,0.1188,0.1154,0.0,-0.2382,5.6809,-90.2728,-97.964,0.005,True,False,Mode(963497464),0.4035,30,0.6701
1.636,ASCENT,CLOSED_LOOP_ASCENT,0.1121,0.09676,0.07296,0.09676,0.1,0.06647,0.6736,0.6811,,0.611,0.67,0.6811,False,0.1481,0.1184,0.0,-0.3616,5.5668,-90.2728,-99.5039,0.007,True,True,Mode(963497464),0.4145,30,0.6701
1.647,ASCENT,CLOSED_LOOP_ASCENT,0.1132,0.09497,0.06845,0.09497,0.1,0.05603,0.6748,0.6837,,0.611,0.67,0.6837,False,0.1829,0.1219,0.0,-0.6836,5.4293,-90.2728,-103.4397,0.003,True,False,Mode(963497464),0.4255,31,0.6736
1.658,ASCENT,CLOSED_LOOP_ASCENT,0.1143,0.09287,0.06432,0.09287,0.1,0.04479,0.6762,0.6864,,0.611,0.67,0.6864,False,0.2192,0.1257,0.0,-0.8224,5.2975,-90.2728,-105.6791,0.005,True,False,Mode(963497464),0.4365,31,0.6736
1.669,ASCENT,CLOSED_LOOP_ASCENT,0.1154,0.09067,0.06234,0.09067,0.1,0.03364,0.6778,0.6889,,0.611,0.67,0.6889,False,0.2525,0.1297,0.0,-0.9445,5.1607,-90.2728,-107.9168,0.007,True,False,Mode(963497464),0.4474,31,0.6736
1.68,ASCENT,CLOSED_LOOP_ASCENT,0.1165,0.08778,0.05348,0.08778,0.1,0.02014,0.6796,0.6926,,0.611,0.67,0.6926,False,0.3015,0.1345,0.0,-1.1824,4.9901,-90.2728,-111.8096,0.003,True,False,Mode(963497464),0.4584,31,0.6736
1.693,ASCENT,CLOSED_LOOP_ASCENT,0.1177,0.08474,0.05047,0.08474,0.1,0.00655,0.6816,0.6955,,0.611,0.67,0.6955,False,0.3394,0.1395,0.0,-1.1819,4.8622,-90.2728,-113.1654,0.006,True,True,Mode(963497464),0.4704,31,0.6736
1.703,ASCENT,CLOSED_LOOP_ASCENT,0.1188,0.08205,0.05325,0.08205,0.1,-0.00487,0.6836,0.6979,,0.611,0.67,0.6979,False,0.3714,0.1441,0.0,-1.1322,4.7422,-90.2728,-114.0389,0.008,True,False,Mode(963497464),0.4813,32,0.6816
1.714,ASCENT,CLOSED_LOOP_ASCENT,0.1199,0.07991,0.05827,0.07991,0.1,-0.01348,0.6855,0.6991,,0.611,0.67,0.6991,False,0.3883,0.148,0.0,-1.0393,4.6265,-90.2728,-114.5411,0.0014,True,False,Mode(963497464),0.4927,32,0.6816
1.726,ASCENT,CLOSED_LOOP_ASCENT,0.121,0.07815,0.06129,0.07815,0.1,-0.02018,0.6873,0.7004,,0.611,0.67,0.7004,False,0.4053,0.1515,0.0,-0.887,4.5234,-90.2728,-114.3287,0.006,True,False,Mode(963497464),0.5037,32,0.6816
1.736,ASCENT,CLOSED_LOOP_ASCENT,0.1221,0.07652,0.06172,0.07652,0.1,-0.02604,0.689,0.7018,,0.611,0.67,0.7018,False,0.4235,0.1547,0.0,-0.7235,4.4185,-90.2728,-113.9426,0.0075,True,False,Mode(963497464),0.5142,32,0.6816
1.746,ASCENT,CLOSED_LOOP_ASCENT,0.1231,0.07496,0.06149,0.07496,0.1,-0.03135,0.6906,0.703,,0.611,0.67,0.703,False,0.4399,0.1578,0.0,-0.5238,4.3159,-90.2728,-113.1712,0.0007,True,True,Mode(963497464),0.5249,32,0.6816
1.757,ASCENT,CLOSED_LOOP_ASCENT,0.1242,0.07321,0.05845,0.07321,0.1,-0.03717,0.6923,0.7046,,0.611,0.67,0.7046,False,0.4618,0.1612,0.0,-0.3583,4.2067,-90.2728,-112.7849,0.003,True,False,Mode(963497464),0.5358,33,0.6906
1.768,ASCENT,CLOSED_LOOP_ASCENT,0.1253,0.07138,0.05649,0.07138,0.1,-0.04304,0.694,0.7062,,0.611,0.67,0.7062,False,0.4828,0.1647,0.0,-0.19,4.0947,-90.2728,-112.3371,0.008,True,False,Mode(963497464),0.5468,33,0.6906
1.779,ASCENT,CLOSED_LOOP_ASCENT,0.1264,0.06921,0.05136,0.06921,0.1,-0.05008,0.6957,0.7083,,0.611,0.67,0.7083,False,0.5112,0.1687,0.0,0.0269,3.979,-90.2728,-111.236,0.001,True,False,Mode(963497464),0.5578,33,0.6906
1.791,ASCENT,CLOSED_LOOP_ASCENT,0.1276,0.06702,0.0501,0.06702,0.1,-0.05678,0.6975,0.71,,0.611,0.67,0.71,False,0.5328,0.1727,0.0,0.2065,3.8572,-90.2728,-110.6016,0.004,True,False,Mode(963497464),0.5693,33,0.6906
1.802,ASCENT,CLOSED_LOOP_ASCENT,0.1287,0.06501,0.05085,0.06501,0.1,-0.06241,0.6992,0.7113,,0.611,0.67,0.7113,False,0.5501,0.1765,0.0,0.3805,3.7339,-90.2728,-109.9698,0.007,True,True,Mode(963497464),0.5807,33,0.6906
1.813,ASCENT,CLOSED_LOOP_ASCENT,0.1298,0.0628,0.04694,0.0628,0.1,-0.0687,0.7009,0.7132,,0.611,0.67,0.7132,False,0.5762,0.1804,0.0,0.6139,3.5995,-90.2728,-108.4724,0.003,True,False,Mode(963497464),0.5917,34,0.6992
1.824,ASCENT,CLOSED_LOOP_ASCENT,0.1309,0.06063,0.04583,0.06063,0.1,-0.07458,0.7026,0.7147,,0.611,0.67,0.7147,False,0.5964,0.1844,0.0,0.7973,3.469,-90.2728,-107.6448,0.005,True,False,Mode(963497464),0.6027,34,0.6992
1.835,ASCENT,CLOSED_LOOP_ASCENT,0.132,0.05831,0.04236,0.05831,0.1,-0.08088,0.7042,0.7166,,0.611,0.67,0.7166,False,0.6216,0.1884,0.0,0.9712,3.3367,-90.2728,-106.8178,0.0067,True,False,Mode(963497464),0.6134,34,0.6992
1.847,ASCENT,CLOSED_LOOP_ASCENT,0.1331,0.05577,0.03846,0.05577,0.1,-0.08773,0.706,0.7186,,0.611,0.67,0.7186,False,0.6478,0.1928,0.0,1.1675,3.2003,-90.2728,-105.6272,0.0,True,False,Mode(963497464),0.6244,34,0.6992
1.856,ASCENT,CLOSED_LOOP_ASCENT,0.1341,0.05313,0.03508,0.05313,0.1,-0.09484,0.7077,0.7207,,0.611,0.67,0.7207,False,0.6755,0.1972,0.0,1.3077,3.0804,-90.2728,-105.2379,0.0045,True,True,Mode(963497464),0.6348,34,0.6992
1.867,ASCENT,CLOSED_LOOP_ASCENT,0.1352,0.05048,0.03333,0.05048,0.1,-0.10158,0.7094,0.7224,,0.611,0.67,0.7224,False,0.6983,0.2017,0.0,1.4214,2.9761,-90.2728,-105.2466,0.0068,True,False,Mode(963497464),0.6457,35,0.7077
1.878,ASCENT,CLOSED_LOOP_ASCENT,0.1363,0.04775,0.03077,0.04775,0.1,-0.10826,0.7112,0.7242,,0.611,0.67,0.7242,False,0.7228,0.2063,0.0,1.5159,2.8833,-90.2728,-105.508,0.009,True,False,Mode(963497464),0.6566,35,0.7077
1.889,ASCENT,CLOSED_LOOP_ASCENT,0.1374,0.04474,0.02553,0.04474,0.1,-0.11581,0.7131,0.7265,,0.611,0.67,0.7265,False,0.7536,0.2112,0.0,1.5857,2.8188,-90.2728,-106.3946,0.001,True,False,Mode(963497464),0.6676,35,0.7077
1.9,ASCENT,CLOSED_LOOP_ASCENT,0.1385,0.04156,0.02199,0.04156,0.1,-0.12354,0.715,0.7286,,0.611,0.67,0.7286,False,0.7819,0.2164,0.0,1.6752,2.746,-90.2728,-106.781,0.0064,True,False,Mode(963497464),0.6789,35,0.7077
1.911,ASCENT,CLOSED_LOOP_ASCENT,0.1396,0.03837,0.01917,0.03837,0.1,-0.13111,0.7169,0.7308,,0.611,0.67,0.7308,False,0.8106,0.2215,0.0,1.7688,2.6742,-90.2728,-106.9754,0.008,True,True,Mode(963497464),0.6899,35,0.7077
1.923,ASCENT,CLOSED_LOOP_ASCENT,0.1408,0.03477,0.01249,0.03477,0.1,-0.13992,0.7189,0.7335,,0.611,0.67,0.7335,False,0.8462,0.2272,0.0,1.8677,2.6093,-90.2728,-107.1586,0.004,True,False,Mode(963497464),0.7012,36,0.7169
1.934,ASCENT,CLOSED_LOOP_ASCENT,0.1419,0.03108,0.0094,0.03108,0.1,-0.14853,0.7211,0.7358,,0.611,0.67,0.7358,False,0.877,0.233,0.0,1.968,2.5432,-90.2728,-107.1743,0.007,True,False,Mode(963497464),0.7127,36,0.7169
1.946,ASCENT,CLOSED_LOOP_ASCENT,0.1431,0.02693,0.00155,0.02693,0.1,-0.15864,0.7233,0.7389,,0.611,0.67,0.7389,False,0.9186,0.2394,0.0,2.0651,2.4892,-90.2728,-107.3843,0.001,True,False,Mode(963497464),0.7241,36,0.7169
1.957,ASCENT,CLOSED_LOOP_ASCENT,0.1442,0.02268,-0.00251,0.02268,0.1,-0.1687,0.7256,0.7416,,0.611,0.67,0.7416,False,0.9552,0.2458,0.0,2.1499,2.4421,-90.2728,-107.7053,0.004,True,False,Mode(963497464),0.7356,36,0.7169
1.969,ASCENT,CLOSED_LOOP_ASCENT,0.1453,0.01846,-0.00612,0.01846,0.1,-0.17852,0.7279,0.7444,,0.611,0.67,0.7444,False,0.9919,0.2522,0.0,2.2321,2.3991,-90.2728,-107.9965,0.006,True,True,Mode(963497464),0.7466,36,0.7169
1.979,ASCENT,CLOSED_LOOP_ASCENT,0.1464,0.01423,-0.00935,0.01423,0.1,-0.18791,0.7302,0.7469,,0.611,0.67,0.7469,False,1.0255,0.2586,0.0,2.2902,2.371,-90.2728,-108.4198,0.001,True,False,Mode(963497464),0.7576,37,0.7279
1.991,ASCENT,CLOSED_LOOP_ASCENT,0.1476,0.01019,-0.00935,0.01019,0.1,-0.19573,0.7325,0.7487,,0.611,0.67,0.7487,False,1.05,0.2648,0.0,2.305,2.3733,-90.2728,-109.4397,0.004,True,False,Mode(963497464),0.7691,37,0.7279
2.002,ASCENT,CLOSED_LOOP_ASCENT,0.1487,0.00639,-0.00967,0.00639,0.1,-0.20217,0.7347,0.75,,0.611,0.67,0.7505,False,1.0729,0.2708,0.0,2.3358,2.3482,-90.2728,-109.6775,0.007,True,False,Mode(963497464),0.7805,37,0.7279
2.014,ASCENT,CLOSED_LOOP_ASCENT,0.1499,0.00276,-0.01069,0.00276,0.1,-0.20758,0.7366,0.75,,0.611,0.67,0.7521,False,1.0941,0.2765,0.0,2.3258,2.351,-90.2728,-110.4964,0.001,True,False,Mode(963497464),0.792,37,0.7279
2.025,ASCENT,CLOSED_LOOP_ASCENT,0.151,-0.00042,-0.00971,-0.00042,0.1,-0.2113,0.7382,0.75,,0.611,0.67,0.7532,False,1.1087,0.2816,0.0,2.2729,2.3782,-90.2728,-111.9384,0.003,True,True,Mode(963497464),0.803,37,0.7279
2.035,ASCENT,CLOSED_LOOP_ASCENT,0.152,-0.0033,-0.01024,-0.0033,0.1,-0.21407,0.7396,0.75,,0.611,0.67,0.7542,False,1.1224,0.2864,0.0,2.2544,2.3655,-90.2728,-112.3648,0.0075,True,False,Mode(963497464),0.8135,38,0.7382
2.046,ASCENT,CLOSED_LOOP_ASCENT,0.1531,-0.00654,-0.01481,-0.00654,0.1,-0.21738,0.7409,0.75,,0.611,0.67,0.7557,False,1.1423,0.2916,0.0,2.2877,2.2922,-90.2728,-111.1972,0.0014,True,False,Mode(963497464),0.8249,38,0.7382
2.057,ASCENT,CLOSED_LOOP_ASCENT,0.1542,-0.00959,-0.01645,-0.00959,0.1,-0.22012,0.742,0.75,,0.611,0.67,0.7568,False,1.1579,0.2966,0.0,2.2875,2.245,-90.2728,-110.6795,0.003,True,False,Mode(963497464),0.8358,38,0.7382
2.068,ASCENT,CLOSED_LOOP_ASCENT,0.1553,-0.01242,-0.01672,-0.01242,0.1,-0.22184,0.743,0.75,,0.611,0.67,0.7576,False,1.1685,0.3013,0.0,2.2647,2.2137,-90.2728,-110.5476,0.008,True,False,Mode(963497464),0.8468,38,0.7382
2.08,ASCENT,CLOSED_LOOP_ASCENT,0.1564,-0.01488,-0.01521,-0.01488,0.1,-0.22197,0.7438,0.75,,0.611,0.67,0.7579,False,1.1726,0.3056,0.0,2.2413,2.177,-90.2728,-110.2554,0.001,True,True,Mode(963497464),0.8578,38,0.7382
2.09,ASCENT,CLOSED_LOOP_ASCENT,0.1575,-0.01717,-0.01561,-0.01561,0.1,-0.22135,0.7446,0.75,,0.611,0.67,0.7583,False,1.1776,0.3096,0.0,2.2135,2.1357,-90.2728,-109.9146,0.002,True,False,Mode(963497464),0.8687,39,0.7438
2.102,ASCENT,CLOSED_LOOP_ASCENT,0.1587,-0.01928,-0.01544,-0.01544,0.1,-0.21982,0.7452,0.75,,0.611,0.67,0.7585,False,1.1796,0.3135,0.0,2.1765,2.1006,-90.2728,-109.7217,0.0071,True,False,Mode(963497464),0.88,39,0.7438
2.113,ASCENT,CLOSED_LOOP_ASCENT,0.1597,-0.02114,-0.01538,-0.01538,0.1,-0.21752,0.7458,0.75,,0.611,0.67,0.7585,False,1.1795,0.3171,0.0,2.1304,2.0684,-90.2728,-109.6466,0.009,True,False,Mode(963497464),0.8909,39,0.7438
2.123,ASCENT,CLOSED_LOOP_ASCENT,0.1608,-0.02287,-0.01601,-0.01601,0.1,-0.21479,0.7463,0.75,,0.611,0.67,0.7583,False,1.1771,0.32,0.0,2.0836,2.0333,-90.2728,-109.4806,0.004,True,False,Mode(963497464),0.9019,39,0.7438
2.135,ASCENT,CLOSED_LOOP_ASCENT,0.162,-0.0246,-0.01627,-0.01627,0.1,-0.21146,0.7468,0.75,,0.611,0.67,0.7571,False,1.1608,0.32,0.0,2.0302,2.0007,-90.2728,-109.3948,0.0073,True,True,Mode(963497464),0.9137,39,0.7438
2.146,ASCENT,CLOSED_LOOP_ASCENT,0.1631,-0.02599,-0.01601,-0.01601,0.1,-0.20747,0.7472,0.75,,0.611,0.67,0.7562,False,1.1497,0.32,0.0,1.9718,1.9704,-90.2728,-109.3733,0.0012,True,False,Mode(963497464),0.9249,40,0.7468
2.158,ASCENT,CLOSED_LOOP_ASCENT,0.1643,-0.02729,-0.01621,-0.01621,0.1,-0.20302,0.7475,0.75,,0.611,0.67,0.7554,False,1.139,0.32,0.0,1.9133,1.9377,-90.2728,-109.2825,0.004,True,False,Mode(963497464),0.0,40,0.7468
2.169,ASCENT,CLOSED_LOOP_ASCENT,0.1654,-0.02833,-0.01604,-0.01604,0.1,-0.1981,0.7478,0.75,,0.611,0.67,0.7545,False,1.1264,0.32,0.0,1.8513,1.9076,-90.2728,-109.2565,0.006,True,False,Mode(963497464),0.011,40,0.7468
2.18,ASCENT,CLOSED_LOOP_ASCENT,0.1665,-0.02924,-0.01619,-0.01619,0.1,-0.19288,0.7481,0.75,,0.611,0.67,0.7536,False,1.1141,0.32,0.0,1.7894,1.8766,-90.2728,-109.1833,0.001,True,False,Mode(963497464),0.0219,40,0.7468
2.191,ASCENT,CLOSED_LOOP_ASCENT,0.1676,-0.03002,-0.01603,-0.01603,0.1,-0.18729,0.7483,0.75,,0.611,0.67,0.7526,False,1.1008,0.32,0.0,1.7259,1.8477,-90.2728,-109.1495,0.0035,True,True,Mode(963497464),0.033,40,0.7468
2.202,ASCENT,CLOSED_LOOP_ASCENT,0.1687,-0.03067,-0.01609,-0.01609,0.1,-0.18147,0.7485,0.75,,0.611,0.67,0.7515,False,1.0873,0.32,0.0,1.6615,1.8194,-90.2728,-109.1257,0.006,True,False,Mode(963497464),0.0439,41,0.7483
2.213,ASCENT,CLOSED_LOOP_ASCENT,0.1698,-0.0312,-0.016,-0.016,0.1,-0.17541,0.7487,0.75,,0.611,0.67,0.7505,False,1.0733,0.32,0.0,1.5987,1.7908,-90.2728,-109.0689,0.001,True,False,Mode(963497464),0.0549,41,0.7483
2.224,ASCENT,CLOSED_LOOP_ASCENT,0.1709,-0.03163,-0.01617,-0.01617,0.1,-0.16925,0.7488,0.7495,,0.611,0.67,0.7495,False,1.0595,0.32,0.0,1.5338,1.7645,-90.2728,-109.069,0.003,True,False,Mode(963497464),0.0659,41,0.7483
2.235,ASCENT,CLOSED_LOOP_ASCENT,0.172,-0.03197,-0.01618,-0.01618,0.1,-0.16297,0.7487,0.7484,,0.611,0.67,0.7484,False,1.0453,0.32,0.0,1.4693,1.7386,-90.2728,-109.0636,0.005,True,False,Mode(963497464),0.0769,41,0.7483
2.246,ASCENT,CLOSED_LOOP_ASCENT,0.1731,-0.03223,-0.01623,-0.01623,0.1,-0.15661,0.7486,0.7473,,0.611,0.67,0.7473,False,1.0312,0.32,0.0,1.4055,1.7135,-90.2728,-109.0638,0.001,True,True,Mode(963497464),0.0878,41,0.7483
2.257,ASCENT,CLOSED_LOOP_ASCENT,0.1742,-0.03239,-0.01617,-0.01617,0.1,-0.15017,0.7483,0.7463,,0.611,0.67,0.7463,False,1.0168,0.32,0.0,1.3418,1.6895,-90.2728,-109.084,0.003,True,False,Mode(963497464),0.0988,42,0.7486
2.268,ASCENT,CLOSED_LOOP_ASCENT,0.1753,-0.03247,-0.01609,-0.01609,0.1,-0.14367,0.7479,0.7452,,0.611,0.67,0.7452,False,1.0023,0.32,0.0,1.2795,1.6665,-90.2728,-109.1014,0.005,True,False,Mode(963497464),0.1098,42,0.7486
2.279,ASCENT,CLOSED_LOOP_ASCENT,0.1764,-0.03248,-0.01603,-0.01603,0.1,-0.13715,0.7475,0.7441,,0.611,0.67,0.7441,False,0.988,0.32,0.0,1.2186,1.644,-90.2728,-109.1032,0.001,True,False,Mode(963497464),0.1208,42,0.7486
2.29,ASCENT,CLOSED_LOOP_ASCENT,0.1775,-0.03241,-0.01601,-0.01601,0.1,-0.13065,0.7469,0.743,,0.611,0.67,0.743,False,0.9736,0.32,0.0,1.1587,1.6226,-90.2728,-109.1178,0.003,True,False,Mode(963497464),0.1318,42,0.7486
2.301,ASCENT,CLOSED_LOOP_ASCENT,0.1786,-0.03231,-0.01627,-0.01627,0.1,-0.12429,0.7463,0.742,,0.611,0.67,0.742,False,0.9601,0.32,0.0,1.1011,1.6011,-90.2728,-109.1024,0.002,True,True,Mode(963497464),0.1427,42,0.7486
2.311,ASCENT,CLOSED_LOOP_ASCENT,0.1796,-0.03212,-0.01618,-0.01618,0.1,-0.11799,0.7457,0.7409,,0.611,0.67,0.7409,False,0.9459,0.32,0.0,1.0442,1.5814,-90.2728,-109.126,0.001,True,False,Mode(963497464),0.1534,43,0.7463
2.322,ASCENT,CLOSED_LOOP_ASCENT,0.1807,-0.0319,-0.0161,-0.0161,0.1,-0.11175,0.745,0.74,,0.611,0.67,0.74,False,0.9328,0.32,0.0,0.9891,1.5621,-90.2728,-109.1265,0.003,True,False,Mode(963497464),0.1644,43,0.7463
2.333,ASCENT,CLOSED_LOOP_ASCENT,0.1818,-0.03164,-0.01605,-0.01605,0.1,-0.10559,0.7443,0.739,,0.611,0.67,0.739,False,0.9195,0.32,0.0,0.9367,1.5436,-90.2728,-109.1079,0.004,True,False,Mode(963497464),0.1754,43,0.7463
2.344,ASCENT,CLOSED_LOOP_ASCENT,0.1829,-0.03135,-0.0161,-0.0161,0.1,-0.09957,0.7435,0.738,,0.611,0.67,0.738,False,0.9066,0.32,0.0,0.885,1.5261,-90.2728,-109.1219,0.009,True,False,Mode(963497464),0.1864,43,0.7463
2.355,ASCENT,CLOSED_LOOP_ASCENT,0.184,-0.03101,-0.01602,-0.01602,0.1,-0.09366,0.7427,0.737,,0.611,0.67,0.737,False,0.8939,0.32,0.0,0.8363,1.5089,-90.2728,-109.0933,0.001,True,True,Mode(963497464),0.1974,43,0.7463
2.366,ASCENT,CLOSED_LOOP_ASCENT,0.1851,-0.03065,-0.01615,-0.01615,0.1,-0.08794,0.7419,0.7361,,0.611,0.67,0.7361,False,0.8818,0.32,0.0,0.7887,1.493,-90.2728,-109.0911,0.003,True,False,Mode(963497464),0.2083,44,0.7427
2.377,ASCENT,CLOSED_LOOP_ASCENT,0.1862,-0.03027,-0.01609,-0.01609,0.1,-0.08234,0.7411,0.7352,,0.611,0.67,0.7352,False,0.8699,0.32,0.0,0.7426,1.478,-90.2728,-109.093,0.008,True,False,Mode(963497464),0.2193,44,0.7427
2.388,ASCENT,CLOSED_LOOP_ASCENT,0.1873,-0.02987,-0.01614,-0.01614,0.1,-0.07692,0.7403,0.7344,,0.611,0.67,0.7344,False,0.8586,0.32,0.0,0.698,1.4637,-90.2728,-109.1115,0.0015,True,False,Mode(963497464),0.2304,44,0.7427
2.399,ASCENT,CLOSED_LOOP_ASCENT,0.1884,-0.02944,-0.0161,-0.0161,0.1,-0.07165,0.7395,0.7335,,0.611,0.67,0.7335,False,0.8472,0.32,0.0,0.6562,1.4501,-90.2728,-109.0997,0.003,True,False,Mode(963497464),0.2413,44,0.7427
2.411,ASCENT,CLOSED_LOOP_ASCENT,0.1895,-0.029,-0.01608,-0.01608,0.1,-0.06655,0.7387,0.7327,,0.611,0.67,0.7327,False,0.8365,0.32,0.0,0.616,1.4374,-90.2728,-109.1006,0.005,True,True,Mode(963497464),0.2523,44,0.7427
2.421,ASCENT,CLOSED_LOOP_ASCENT,0.1906,-0.02853,-0.01605,-0.01605,0.1,-0.06164,0.7379,0.7319,,0.611,0.67,0.7319,False,0.8259,0.32,0.0,0.5773,1.4258,-90.2728,-109.1215,0.001,True,False,Mode(963497464),0.2631,45,0.7387
2.432,ASCENT,CLOSED_LOOP_ASCENT,0.1917,-0.02807,-0.01611,-0.01611,0.1,-0.05693,0.7371,0.7312,,0.611,0.67,0.7312,False,0.8164,0.32,0.0,0.5407,1.4145,-90.2728,-109.1277,0.003,True,False,Mode(963497464),0.2741,45,0.7387
2.443,ASCENT,CLOSED_LOOP_ASCENT,0.1928,-0.0276,-0.01619,-0.01619,0.1,-0.05243,0.7363,0.7305,,0.611,0.67,0.7305,False,0.8071,0.32,0.0,0.5068,1.4036,-90.2728,-109.0959,0.005,True,False,Mode(963497464),0.285,45,0.7387
2.454,ASCENT,CLOSED_LOOP_ASCENT,0.1939,-0.02713,-0.01614,-0.01614,0.1,-0.04811,0.7355,0.7298,,0.611,0.67,0.7298,False,0.7979,0.32,0.0,0.474,1.3939,-90.2728,-109.101,0.001,True,False,Mode(963497464),0.2959,45,0.7387
2.466,ASCENT,CLOSED_LOOP_ASCENT,0.195,-0.02666,-0.01615,-0.01615,0.1,-0.04397,0.7348,0.7292,,0.611,0.67,0.7292,False,0.7894,0.32,0.0,0.4428,1.3848,-90.2728,-109.1075,0.003,True,True,Mode(963497464),0.3069,45,0.7387
2.475,ASCENT,CLOSED_LOOP_ASCENT,0.196,-0.02616,-0.01603,-0.01603,0.1,-0.04,0.734,0.7285,,0.611,0.67,0.7285,False,0.7806,0.32,0.0,0.4132,1.3765,-90.2728,-109.1252,0.0045,True,False,Mode(963497464),0.3173,46,0.7348
2.486,ASCENT,CLOSED_LOOP_ASCENT,0.1971,-0.0257,-0.01616,-0.01616,0.1,-0.03626,0.7333,0.728,,0.611,0.67,0.728,False,0.7736,0.32,0.0,0.386,1.3686,-90.2728,-109.1174,0.007,True,False,Mode(963497464),0.3283,46,0.7348
2.497,ASCENT,CLOSED_LOOP_ASCENT,0.1982,-0.02523,-0.01606,-0.01606,0.1,-0.03267,0.7326,0.7275,,0.611,0.67,0.7275,False,0.766,0.32,0.0,0.359,1.3619,-90.2728,-109.1752,0.003,True,False,Mode(963497464),0.3393,46,0.7348
2.508,ASCENT,CLOSED_LOOP_ASCENT,0.1993,-0.02477,-0.01616,-0.01616,0.1,-0.02929,0.7319,0.7269,,0.611,0.67,0.7269,False,0.7592,0.32,0.0,0.335,1.3551,-90.2728,-109.1675,0.005,True,False,Mode(963497464),0.3503,46,0.7348
2.52,ASCENT,CLOSED_LOOP_ASCENT,0.2005,-0.02432,-0.01611,-0.01611,0.1,-0.02606,0.7312,0.7265,,0.611,0.67,0.7265,False,0.7528,0.32,0.0,0.3127,1.349,-90.2728,-109.1532,0.007,True,True,Mode(963497464),0.3617,46,0.7348
2.531,ASCENT,CLOSED_LOOP_ASCENT,0.2016,-0.02388,-0.01616,-0.01616,0.1,-0.023,0.7306,0.726,,0.611,0.67,0.726,False,0.7466,0.32,0.0,0.292,1.3432,-90.2728,-109.1308,0.001,True,False,Mode(963497464),0.3731,47,0.7312
2.542,ASCENT,CLOSED_LOOP_ASCENT,0.2027,-0.02343,-0.0161,-0.0161,0.1,-0.02011,0.73,0.7255,,0.611,0.67,0.7255,False,0.7403,0.32,0.0,0.2728,1.338,-90.2728,-109.1123,0.006,True,False,Mode(963497464),0.3841,47,0.7312
2.553,ASCENT,CLOSED_LOOP_ASCENT,0.2038,-0.023,-0.01612,-0.01612,0.1,-0.01739,0.7294,0.7251,,0.611,0.67,0.7251,False,0.7348,0.32,0.0,0.2543,1.3334,-90.2728,-109.1248,0.008,True,False,Mode(963497464),0.3951,47,0.7312
2.564,ASCENT,CLOSED_LOOP_ASCENT,0.2049,-0.02257,-0.01604,-0.01604,0.1,-0.01481,0.7288,0.7247,,0.611,0.67,0.7247,False,0.7295,0.32,0.0,0.2375,1.3291,-90.2728,-109.1189,0.001,True,False,Mode(963497464),0.4061,47,0.7312
2.575,ASCENT,CLOSED_LOOP_ASCENT,0.206,-0.02215,-0.01613,-0.01613,0.1,-0.01243,0.7283,0.7244,,0.611,0.67,0.7244,False,0.7248,0.32,0.0,0.222,1.3253,-90.2728,-109.1169,0.006,True,True,Mode(963497464),0.417,47,0.7312
2.586,ASCENT,CLOSED_LOOP_ASCENT,0.2071,-0.02175,-0.01612,-0.01612,0.1,-0.0102,0.7278,0.724,,0.611,0.67,0.724,False,0.7204,0.32,0.0,0.208,1.322,-90.2728,-109.1077,0.008,True,False,Mode(963497464),0.428,48,0.7283
2.597,ASCENT,CLOSED_LOOP_ASCENT,0.2082,-0.02137,-0.01615,-0.01615,0.1,-0.00815,0.7273,0.7237,,0.611,0.67,0.7237,False,0.7163,0.32,0.0,0.195,1.3191,-90.2728,-109.1049,0.001,True,False,Mode(963497464),0.439,48,0.7283
2.608,ASCENT,CLOSED_LOOP_ASCENT,0.2093,-0.02099,-0.01614,-0.01614,0.1,-0.00623,0.7268,0.7234,,0.611,0.67,0.7234,False,0.7125,0.32,0.0,0.1832,1.3166,-90.2728,-109.0995,0.003,True,False,Mode(963497464),0.45,48,0.7283
2.619,ASCENT,CLOSED_LOOP_ASCENT,0.2104,-0.02063,-0.01609,-0.01609,0.1,-0.00444,0.7264,0.7232,,0.611,0.67,0.7232,False,0.7089,0.32,0.0,0.1725,1.3145,-90.2728,-109.1036,0.008,True,False,Mode(963497464),0.461,48,0.7283
2.63,ASCENT,CLOSED_LOOP_ASCENT,0.2115,-0.02028,-0.01613,-0.01613,0.1,-0.0028,0.726,0.7229,,0.611,0.67,0.7229,False,0.7058,0.32,0.0,0.1629,1.3126,-90.2728,-109.1034,0.0012,True,True,Mode(963497464),0.4722,48,0.7283
2.641,ASCENT,CLOSED_LOOP_ASCENT,0.2126,-0.01995,-0.0161,-0.0161,0.1,-0.00128,0.7256,0.7227,,0.611,0.67,0.7227,False,0.7027,0.32,0.0,0.1544,1.3111,-90.2728,-109.0998,0.003,True,False,Mode(963497464),0.4831,49,0.726
2.652,ASCENT,CLOSED_LOOP_ASCENT,0.2137,-0.01962,-0.01608,-0.01608,0.1,0.00012,0.7252,0.7225,,0.611,0.67,0.7225,False,0.6999,0.32,0.0,0.1464,1.3096,-90.2728,-109.1036,0.008,True,False,Mode(963497464),0.4941,49,0.726
2.663,ASCENT,CLOSED_LOOP_ASCENT,0.2148,-0.01931,-0.01609,-0.01609,0.1,0.0014,0.7248,0.7223,,0.611,0.67,0.7223,False,0.6976,0.32,0.0,0.14,1.3085,-90.2728,-109.1011,0.0014,True,False,Mode(963497464),0.5055,49,0.726
2.674,ASCENT,CLOSED_LOOP_ASCENT,0.2159,-0.01902,-0.01613,-0.01613,0.1,0.00255,0.7245,0.7221,,0.611,0.67,0.7221,False,0.6953,0.32,0.0,0.1341,1.3077,-90.2728,-109.0962,0.003,True,False,Mode(963497464),0.5165,49,0.726
2.685,ASCENT,CLOSED_LOOP_ASCENT,0.217,-0.01874,-0.01608,-0.01608,0.1,0.0036,0.7242,0.722,,0.611,0.67,0.722,False,0.6932,0.32,0.0,0.1292,1.3072,-90.2728,-109.0899,0.008,True,True,Mode(963497464),0.5274,49,0.726
2.696,ASCENT,CLOSED_LOOP_ASCENT,0.2181,-0.01848,-0.01614,-0.01614,0.1,0.00452,0.7239,0.7219,,0.611,0.67,0.7219,False,0.6915,0.32,0.0,0.1251,1.3069,-90.2728,-109.077,0.001,True,False,Mode(963497464),0.5384,50,0.7242
2.707,ASCENT,CLOSED_LOOP_ASCENT,0.2192,-0.01822,-0.01608,-0.01608,0.1,0.00537,0.7237,0.7217,,0.611,0.67,0.7217,False,0.6899,0.32,0.0,0.1216,1.3068,-90.2728,-109.0676,0.003,True,False,Mode(963497464),0.5494,50,0.7242
2.719,ASCENT,CLOSED_LOOP_ASCENT,0.2203,-0.01799,-0.01616,-0.01616,0.1,0.00609,0.7234,0.7216,,0.611,0.67,0.7216,False,0.6886,0.32,0.0,0.1185,1.3068,-90.2728,-109.0694,0.004,True,False,Mode(963497464),0.5604,50,0.7242
2.729,ASCENT,CLOSED_LOOP_ASCENT,0.2214,-0.01777,-0.01617,-0.01617,0.1,0.00672,0.7232,0.7216,,0.611,0.67,0.7216,False,0.6875,0.32,0.0,0.1158,1.307,-90.2728,-109.0816,0.009,True,False,Mode(963497464),0.5714,50,0.7242
2.74,ASCENT,CLOSED_LOOP_ASCENT,0.2225,-0.01756,-0.01613,-0.01613,0.1,0.00729,0.723,0.7215,,0.611,0.67,0.7215,False,0.6864,0.32,0.0,0.1134,1.3072,-90.2728,-109.0955,0.004,True,True,Mode(963497464),0.5823,50,0.7242
2.752,ASCENT,CLOSED_LOOP_ASCENT,0.2237,-0.01735,-0.01607,-0.01607,0.1,0.00779,0.7228,0.7214,,0.611,0.67,0.7214,False,0.6855,0.32,0.0,0.1117,1.3077,-90.2728,-109.1069,0.007,True,False,Mode(963497464),0.5937,51,0.723
2.763,ASCENT,CLOSED_LOOP_ASCENT,0.2248,-0.01717,-0.01617,-0.01617,0.1,0.00819,0.7226,0.7214,,0.611,0.67,0.7214,False,0.6849,0.32,0.0,0.111,1.3083,-90.2728,-109.1007,0.001,True,False,Mode(963497464),0.6052,51,0.723
2.774,ASCENT,CLOSED_LOOP_ASCENT,0.2259,-0.01699,-0.01611,-0.01611,0.1,0.00854,0.7225,0.7213,,0.611,0.67,0.7213,False,0.6842,0.32,0.0,0.1103,1.3091,-90.2728,-109.1126,0.003,True,False,Mode(963497464),0.6161,51,0.723
2.785,ASCENT,CLOSED_LOOP_ASCENT,0.227,-0.01683,-0.01615,-0.01615,0.1,0.00882,0.7223,0.7213,,0.611,0.67,0.7213,False,0.6839,0.32,0.0,0.1106,1.3099,-90.2728,-109.1041,0.008,True,False,Mode(963497464),0.6271,51,0.723
2.796,ASCENT,CLOSED_LOOP_ASCENT,0.2281,-0.01668,-0.01609,-0.01609,0.1,0.00905,0.7222,0.7213,,0.611,0.67,0.7213,False,0.6834,0.32,0.0,0.1109,1.3108,-90.2728,-109.1037,0.001,True,True,Mode(963497464),0.6381,51,0.723
2.807,ASCENT,CLOSED_LOOP_ASCENT,0.2292,-0.01654,-0.01615,-0.01615,0.1,0.00921,0.7221,0.7212,,0.611,0.67,0.7212,False,0.6833,0.32,0.0,0.1121,1.3117,-90.2728,-109.0901,0.003,True,False,Mode(963497464),0.6491,52,0.7222
2.818,ASCENT,CLOSED_LOOP_ASCENT,0.2303,-0.01642,-0.01614,-0.01614,0.1,0.00932,0.722,0.7212,,0.611,0.67,0.7212,False,0.6832,0.32,0.0,0.1129,1.3128,-90.2728,-109.0984,0.005,True,False,Mode(963497464),0.66,52,0.7222
2.829,ASCENT,CLOSED_LOOP_ASCENT,0.2314,-0.0163,-0.01613,-0.01613,0.1,0.00938,0.7219,0.7212,,0.611,0.67,0.7212,False,0.6832,0.32,0.0,0.1144,1.3139,-90.2728,-109.0861,0.001,True,False,Mode(963497464),0.671,52,0.7222
2.84,ASCENT,CLOSED_LOOP_ASCENT,0.2325,-0.01619,-0.01616,-0.01616,0.1,0.00939,0.7218,0.7212,,0.611,0.67,0.7212,False,0.6833,0.32,0.0,0.1162,1.315,-90.2728,-109.0797,0.003,True,False,Mode(963497464),0.682,52,0.7222
2.851,ASCENT,CLOSED_LOOP_ASCENT,0.2336,-0.01609,-0.0161,-0.01609,0.1,0.00939,0.7217,0.7213,,0.611,0.67,0.7213,False,0.6834,0.32,0.0,0.1176,1.316,-90.2728,-109.089,0.005,True,True,Mode(963497464),0.6929,52,0.7222
2.862,ASCENT,CLOSED_LOOP_ASCENT,0.2347,-0.01599,-0.01603,-0.01599,0.1,0.00937,0.7217,0.7213,,0.611,0.67,0.7213,False,0.6834,0.32,0.0,0.1194,1.3172,-90.2728,-109.1024,0.001,True,False,Mode(963497464),0.7042,53,0.7217
2.874,ASCENT,CLOSED_LOOP_ASCENT,0.2359,-0.0159,-0.01613,-0.0159,0.1,0.00928,0.7216,0.7213,,0.611,0.67,0.7213,False,0.6838,0.32,0.0,0.1217,1.3185,-90.2728,-109.091,0.004,True,False,Mode(963497464),0.7157,53,0.7217
2.885,ASCENT,CLOSED_LOOP_ASCENT,0.237,-0.01583,-0.01614,-0.01583,0.1,0.00916,0.7216,0.7213,,0.611,0.67,0.7213,False,0.6842,0.32,0.0,0.124,1.3197,-90.2728,-109.0879,0.0068,True,False,Mode(963497464),0.727,53,0.7217
2.897,ASCENT,CLOSED_LOOP_ASCENT,0.2381,-0.01576,-0.01609,-0.01576,0.1,0.00903,0.7216,0.7213,,0.611,0.67,0.7213,False,0.6845,0.32,0.0,0.1266,1.321,-90.2728,-109.0782,0.0088,True,False,Mode(963497464),0.7378,53,0.7217
2.906,ASCENT,CLOSED_LOOP_ASCENT,0.2391,-0.01571,-0.01615,-0.01571,0.1,0.00885,0.7215,0.7214,,0.611,0.67,0.7214,False,0.685,0.32,0.0,0.129,1.3223,-90.2728,-109.0822,0.0015,True,True,Mode(963497464),0.7483,53,0.7217
2.917,ASCENT,CLOSED_LOOP_ASCENT,0.2402,-0.01565,-0.0161,-0.01565,0.1,0.00868,0.7215,0.7214,,0.611,0.67,0.7214,False,0.6854,0.32,0.0,0.1316,1.3236,-90.2728,-109.0843,0.006,True,False,Mode(963497464),0.7592,54,0.7215
2.928,ASCENT,CLOSED_LOOP_ASCENT,0.2413,-0.01561,-0.01614,-0.01561,0.1,0.00846,0.7215,0.7214,,0.611,0.67,0.7214,False,0.686,0.32,0.0,0.1346,1.3247,-90.2728,-109.0665,0.001,True,False,Mode(963497464),0.7702,54,0.7215
2.939,ASCENT,CLOSED_LOOP_ASCENT,0.2424,-0.01558,-0.01625,-0.01558,0.1,0.0082,0.7215,0.7215,,0.611,0.67,0.7215,False,0.6867,0.32,0.0,0.1359,1.3262,-90.2728,-109.1372,0.003,True,False,Mode(963497464),0.7812,54,0.7215
2.95,ASCENT,CLOSED_LOOP_ASCENT,0.2435,-0.01555,-0.01613,-0.01555,0.1,0.00797,0.7215,0.7215,,0.611,0.67,0.7215,False,0.6871,0.32,0.0,0.1388,1.3273,-90.2728,-109.1245,0.005,True,False,Mode(963497464),0.7921,54,0.7215
2.961,ASCENT,CLOSED_LOOP_ASCENT,0.2446,-0.01552,-0.01615,-0.01552,0.1,0.00772,0.7215,0.7216,,0.611,0.67,0.7216,False,0.6877,0.32,0.0,0.1415,1.3284,-90.2728,-109.1212,0.007,True,True,Mode(963497464),0.8031,54,0.7215
2.971,ASCENT,CLOSED_LOOP_ASCENT,0.2456,-0.0155,-0.01613,-0.0155,0.1,0.00747,0.7215,0.7216,,0.611,0.67,0.7216,False,0.6883,0.32,0.0,0.1443,1.3295,-90.2728,-109.119,0.0015,True,False,Mode(963497464),0.8136,55,0.7215
2.982,ASCENT,CLOSED_LOOP_ASCENT,0.2467,-0.01548,-0.01614,-0.01548,0.1,0.00721,0.7215,0.7217,,0.611,0.67,0.7217,False,0.6888,0.32,0.0,0.1472,1.3306,-90.2728,-109.109,0.003,True,False,Mode(963497464),0.8246,55,0.7215
2.993,ASCENT,CLOSED_LOOP_ASCENT,0.2478,-0.01546,-0.01609,-0.01546,0.1,0.00697,0.7216,0.7217,,0.611,0.67,0.7217,False,0.6894,0.32,0.0,0.1496,1.3318,-90.2728,-109.1195,0.007,True,False,Mode(963497464),0.8355,55,0.7215
3.004,ASCENT,CLOSED_LOOP_ASCENT,0.2489,-0.01545,-0.01613,-0.01545,0.1,0.0067,0.7216,0.7217,,0.611,0.67,0.7217,False,0.69,0.32,0.0,0.1519,1.3327,-90.2728,-109.1321,0.009,True,False,Mode(963497464),0.8465,55,0.7215
3.016,ASCENT,CLOSED_LOOP_ASCENT,0.25,-0.01544,-0.01614,-0.01544,0.1,0.00642,0.7216,0.7218,,0.611,0.67,0.7218,False,0.6906,0.32,0.0,0.1553,1.3336,-90.2728,-109.0992,0.004,True,True,Mode(963497464),0.8575,55,0.7215
3.026,ASCENT,CLOSED_LOOP_ASCENT,0.2511,-0.01544,-0.01613,-0.01544,0.1,0.00615,0.7216,0.7218,,0.611,0.67,0.7218,False,0.6912,0.32,0.0,0.1581,1.3345,-90.2728,-109.0878,0.006,True,False,Mode(963497464),0.868,56,0.7216
3.037,ASCENT,CLOSED_LOOP_ASCENT,0.2522,-0.01543,-0.01604,-0.01543,0.1,0.00591,0.7217,0.7219,,0.611,0.67,0.7219,False,0.6917,0.32,0.0,0.1607,1.3353,-90.2728,-109.0891,0.008,True,False,Mode(963497464),0.8789,56,0.7216
3.048,ASCENT,CLOSED_LOOP_ASCENT,0.2533,-0.01543,-0.01616,-0.01543,0.1,0.00563,0.7217,0.7219,,0.611,0.67,0.7219,False,0.6924,0.32,0.0,0.1632,1.3362,-90.2728,-109.0899,0.004,True,False,Mode(963497464),0.8899,56,0.7216
3.06,ASCENT,CLOSED_LOOP_ASCENT,0.2545,-0.01543,-0.01615,-0.01543,0.1,0.00534,0.7217,0.722,,0.611,0.67,0.722,False,0.693,0.32,0.0,0.1655,1.3372,-90.2728,-109.1005,0.0074,True,False,Mode(963497464),0.9018,56,0.7216
3.071,ASCENT,CLOSED_LOOP_ASCENT,0.2556,-0.01544,-0.01609,-0.01544,0.1,0.00508,0.7218,0.722,,0.611,0.67,0.722,False,0.6935,0.32,0.0,0.1684,1.3381,-90.2728,-109.0776,0.001,True,True,Mode(963497464),0.9128,56,0.7216
3.082,ASCENT,CLOSED_LOOP_ASCENT,0.2567,-0.01545,-0.01612,-0.01545,0.1,0.00482,0.7218,0.7221,,0.611,0.67,0.7221,False,0.6941,0.32,0.0,0.1709,1.3388,-90.2728,-109.076,0.003,True,False,Mode(963497464),0.9237,57,0.7218
3.093,ASCENT,CLOSED_LOOP_ASCENT,0.2578,-0.01546,-0.01615,-0.01546,0.1,0.00455,0.7218,0.7221,,0.611,0.67,0.7221,False,0.6947,0.32,0.0,0.173,1.3396,-90.2728,-109.0828,0.005,True,False,Mode(963497464),0.9347,57,0.7218
3.104,ASCENT,CLOSED_LOOP_ASCENT,0.2589,-0.01547,-0.01612,-0.01547,0.1,0.00429,0.7219,0.7221,,0.611,0.67,0.7221,False,0.6952,0.32,0.0,0.1749,1.3405,-90.2728,-109.0931,0.001,True,False,Mode(963497464),0.9461,57,0.7218
3.115,ASCENT,CLOSED_LOOP_ASCENT,0.26,-0.01548,-0.01611,-0.01548,0.1,0.00404,0.7219,0.7222,,0.611,0.67,0.7222,False,0.6958,0.32,0.0,0.1773,1.3412,-90.2728,-109.0815,0.003,True,False,Mode(963497464),0.957,57,0.7218
3.126,ASCENT,CLOSED_LOOP_ASCENT,0.2611,-0.01551,-0.01627,-0.01551,0.1,0.00374,0.722,0.7222,,0.611,0.67,0.7222,False,0.6966,0.32,0.0,0.1778,1.3422,-90.2728,-109.1543,0.005,True,True,Mode(963497464),0.968,57,0.7218
3.137,ASCENT,CLOSED_LOOP_ASCENT,0.2622,-0.01553,-0.01611,-0.01553,0.1,0.00351,0.722,0.7223,,0.611,0.67,0.7223,False,0.6969,0.32,0.0,0.1802,1.3429,-90.2728,-109.1344,0.001,True,False,Mode(963497464),0.979,58,0.722
3.148,ASCENT,CLOSED_LOOP_ASCENT,0.2633,-0.01554,-0.01612,-0.01554,0.1,0.00328,0.722,0.7223,,0.611,0.67,0.7223,False,0.6974,0.32,0.0,0.1823,1.3436,-90.2728,-109.1228,0.003,True,False,Mode(963497464),0.99,58,0.722
3.159,ASCENT,CLOSED_LOOP_ASCENT,0.2644,-0.01556,-0.01609,-0.01556,0.1,0.00307,0.7221,0.7223,,0.611,0.67,0.7223,False,0.6978,0.32,0.0,0.1845,1.3442,-90.2728,-109.1062,0.005,True,False,Mode(963497464),1.0009,58,0.722
3.17,ASCENT,CLOSED_LOOP_ASCENT,0.2655,-0.01558,-0.01613,-0.01558,0.1,0.00285,0.7221,0.7224,,0.611,0.67,0.7224,False,0.6983,0.32,0.0,0.1866,1.3447,-90.2728,-109.0903,0.007,True,False,Mode(963497464),0.0,58,0.722
