time,state,controller_mode,target_z,curr_z,raw_z,height_for_safety,target_vz,curr_vz,thrust,raw_thrust,search_thrust,liftoff_thrust,hover_thrust_est,thrust_no_floor,floor_applied,a_cmd_z,v_cmd_z,z_integral,roll_cmd_deg,pitch_cmd_deg,yaw_cmd_deg,yaw_mocap_deg,mocap_age,kf_used_measurement,mavlink_sent,mav_mode,mav_heartbeat_age,mav_send_count,mav_last_thrust
0.002,THRUST_SEARCH,OPEN_LOOP,-0.0002,-0.00015,-0.0002,-0.00015,0.0,-2e-05,0.58,0.58,0.58,,0.67,,False,0.0,0.0,0.0,0.0,0.0,21.8308,21.7973,0.0062,True,True,Mode(963497464),0.0,0,
0.011,THRUST_SEARCH,OPEN_LOOP,-0.0002,-0.00016,-0.00018,-0.00016,0.0,-5e-05,0.5802,0.5802,0.5802,,0.67,,False,0.0,0.0,0.0,0.0,0.0,21.8308,21.8144,0.001,True,False,Mode(963497464),0.0107,1,0.58
0.021,THRUST_SEARCH,OPEN_LOOP,-0.0002,-0.00017,-0.00017,-0.00017,0.0,-8e-05,0.5804,0.5804,0.5804,,0.67,,False,0.0,0.0,0.0,0.0,0.0,21.8308,21.8211,0.003,True,False,Mode(963497464),0.0212,1,0.58
0.032,THRUST_SEARCH,OPEN_LOOP,-0.0002,-0.00018,-0.00021,-0.00018,0.0,-0.00022,0.5806,0.5806,0.5806,,0.67,,False,0.0,0.0,0.0,0.0,0.0,21.8308,21.7988,0.005,True,False,Mode(963497464),0.0322,1,0.58
0.043,THRUST_SEARCH,OPEN_LOOP,-0.0002,-0.00024,-0.00039,-0.00024,0.0,-0.00109,0.5809,0.5809,0.5809,,0.67,,False,0.0,0.0,0.0,0.0,0.0,21.8308,21.7824,0.007,True,False,Mode(963497464),0.0434,1,0.58
0.055,THRUST_SEARCH,OPEN_LOOP,-0.0002,-0.00023,-0.00018,-0.00018,0.0,-0.00076,0.5811,0.5811,0.5811,,0.67,,False,0.0,0.0,0.0,0.0,0.0,21.8308,21.8073,0.003,True,True,Mode(963497464),0.0543,1,0.58
0.065,THRUST_SEARCH,OPEN_LOOP,-0.0002,-0.00023,-0.00019,-0.00019,0.0,-0.00053,0.5813,0.5813,0.5813,,0.67,,False,0.0,0.0,0.0,0.0,0.0,21.8308,21.8126,0.005,True,False,Mode(963497464),0.0653,2,0.5811
0.076,THRUST_SEARCH,OPEN_LOOP,-0.0002,-0.00016,2e-05,2e-05,0.0,0.00052,0.5815,0.5815,0.5815,,0.67,,False,0.0,0.0,0.0,0.0,0.0,21.8308,21.8231,0.006,True,False,Mode(963497464),0.0756,2,0.5811
0.087,THRUST_SEARCH,OPEN_LOOP,-0.0002,-0.00017,-0.00021,-0.00017,0.0,0.00032,0.5817,0.5817,0.5817,,0.67,,False,0.0,0.0,0.0,0.0,0.0,21.8308,21.7983,0.002,True,False,Mode(963497464),0.0866,2,0.5811
0.098,THRUST_SEARCH,OPEN_LOOP,-0.0001,-0.00012,1e-05,1e-05,0.0,0.00092,0.582,0.582,0.582,,0.67,,False,0.0,0.0,0.0,0.0,0.0,21.8308,21.807,0.004,True,False,Mode(963497464),0.0976,2,0.5811
0.109,THRUST_SEARCH,OPEN_LOOP,-0.0001,-0.0001,-9e-05,-9e-05,0.0,0.00098,0.5822,0.5822,0.5822,,0.67,,False,0.0,0.0,0.0,0.0,0.0,21.8308,21.8176,0.006,True,True,Mode(963497464),0.1086,2,0.5811
0.12,THRUST_SEARCH,OPEN_LOOP,-0.0001,-0.00012,-0.00022,-0.00012,0.0,0.00061,0.5824,0.5824,0.5824,,0.67,,False,0.0,0.0,0.0,0.0,0.0,21.8308,21.8333,0.002,True,False,Mode(963497464),0.1195,3,0.5822
0.13,THRUST_SEARCH,OPEN_LOOP,-0.0001,-9e-05,-1e-05,-1e-05,0.0,0.00087,0.5826,0.5826,0.5826,,0.67,,False,0.0,0.0,0.0,0.0,0.0,21.8308,21.8372,0.004,True,False,Mode(963497464),0.1305,3,0.5822
0.141,THRUST_SEARCH,OPEN_LOOP,-0.0001,-0.00014,-0.00032,-0.00014,0.0,0.00034,0.5828,0.5828,0.5828,,0.67,,False,0.0,0.0,0.0,0.0,0.0,21.8308,21.8073,0.006,True,False,Mode(963497464),0.1409,3,0.5822
0.151,THRUST_SEARCH,OPEN_LOOP,-0.0002,-0.00018,-0.00035,-0.00018,0.0,-0.0001,0.583,0.583,0.583,,0.67,,False,0.0,0.0,0.0,0.0,0.0,21.8308,21.7732,0.0075,True,False,Mode(963497464),0.1514,3,0.5822
0.162,THRUST_SEARCH,OPEN_LOOP,-0.0001,-0.00015,-0.0,-0.0,0.0,0.00023,0.5832,0.5832,0.5832,,0.67,,False,0.0,0.0,0.0,0.0,0.0,21.8308,21.8009,0.001,True,True,Mode(963497464),0.1624,3,0.5822
0.173,THRUST_SEARCH,OPEN_LOOP,-0.0002,-0.0002,-0.00041,-0.0002,0.0,-0.00021,0.5835,0.5835,0.5835,,0.67,,False,0.0,0.0,0.0,0.0,0.0,21.8308,21.7788,0.003,True,False,Mode(963497464),0.1734,4,0.5832
0.184,THRUST_SEARCH,OPEN_LOOP,-0.0002,-0.0002,-0.00019,-0.00019,0.0,-0.00021,0.5837,0.5837,0.5837,,0.67,,False,0.0,0.0,0.0,0.0,0.0,21.8308,21.7911,0.0075,True,False,Mode(963497464),0.1839,4,0.5832
0.195,THRUST_SEARCH,OPEN_LOOP,-0.0002,-0.00016,2e-05,2e-05,0.0,0.0001,0.5839,0.5839,0.5839,,0.67,,False,0.0,0.0,0.0,0.0,0.0,21.8308,21.8175,0.001,True,False,Mode(963497464),0.1948,4,0.5832
0.206,THRUST_SEARCH,OPEN_LOOP,-0.0001,-0.00013,2e-05,2e-05,0.0,0.00032,0.5841,0.5841,0.5841,,0.67,,False,0.0,0.0,0.0,0.0,0.0,21.8308,21.8313,0.003,True,False,Mode(963497464),0.2058,4,0.5832
0.217,THRUST_SEARCH,OPEN_LOOP,-0.0001,-0.00013,-0.00019,-0.00013,0.0,0.00025,0.5843,0.5843,0.5843,,0.67,,False,0.0,0.0,0.0,0.0,0.0,21.8308,21.8385,0.005,True,True,Mode(963497464),0.2168,4,0.5832
0.227,THRUST_SEARCH,OPEN_LOOP,-0.0001,-0.00011,2e-05,2e-05,0.0,0.00042,0.5845,0.5845,0.5845,,0.67,,False,0.0,0.0,0.0,0.0,0.0,21.8308,21.8373,0.007,True,False,Mode(963497464),0.2273,5,0.5843
0.238,THRUST_SEARCH,OPEN_LOOP,-0.0001,-8e-05,3e-05,3e-05,0.0,0.00054,0.5848,0.5848,0.5848,,0.67,,False,0.0,0.0,0.0,0.0,0.0,21.8308,21.8703,0.0012,True,False,Mode(963497464),0.2384,5,0.5843
0.249,THRUST_SEARCH,OPEN_LOOP,-0.0001,-9e-05,-0.00015,-9e-05,0.0,0.00047,0.585,0.585,0.585,,0.67,,False,0.0,0.0,0.0,0.0,0.0,21.8308,21.8706,0.006,True,False,Mode(963497464),0.2494,5,0.5843
0.26,THRUST_SEARCH,OPEN_LOOP,-0.0001,-6e-05,4e-05,4e-05,0.0,0.00058,0.5852,0.5852,0.5852,,0.67,,False,0.0,0.0,0.0,0.0,0.0,21.8308,21.8653,0.008,True,False,Mode(963497464),0.2604,5,0.5843
0.271,THRUST_SEARCH,OPEN_LOOP,-0.0001,-0.00011,-0.00042,-0.00011,0.0,0.00029,0.5854,0.5854,0.5854,,0.67,,False,0.0,0.0,0.0,0.0,0.0,21.8308,21.8485,0.001,True,True,Mode(963497464),0.2713,5,0.5843
0.283,THRUST_SEARCH,OPEN_LOOP,-0.0001,-0.00012,-0.00021,-0.00012,0.0,0.00021,0.5857,0.5857,0.5857,,0.67,,False,0.0,0.0,0.0,0.0,0.0,21.8308,21.8464,0.006,True,False,Mode(963497464),0.2823,6,0.5854
0.293,THRUST_SEARCH,OPEN_LOOP,-0.0001,-0.00012,-0.00017,-0.00012,0.0,0.00018,0.5859,0.5859,0.5859,,0.67,,False,0.0,0.0,0.0,0.0,0.0,21.8308,21.8543,0.0075,True,False,Mode(963497464),0.2928,6,0.5854
0.304,THRUST_SEARCH,OPEN_LOOP,-0.0001,-0.00011,-6e-05,-6e-05,0.0,0.00022,0.5861,0.5861,0.5861,,0.67,,False,0.0,0.0,0.0,0.0,0.0,21.8308,21.8548,0.001,True,False,Mode(963497464),0.3038,6,0.5854
0.315,THRUST_SEARCH,OPEN_LOOP,-0.0001,-9e-05,5e-05,5e-05,0.0,0.00032,0.5863,0.5863,0.5863,,0.67,,False,0.0,0.0,0.0,0.0,0.0,21.8308,21.8555,0.003,True,False,Mode(963497464),0.3147,6,0.5854
0.326,THRUST_SEARCH,OPEN_LOOP,-0.0001,-0.0001,-0.00017,-0.0001,0.0,0.00027,0.5865,0.5865,0.5865,,0.67,,False,0.0,0.0,0.0,0.0,0.0,21.8308,21.8277,0.008,True,True,Mode(963497464),0.3257,6,0.5854
0.337,THRUST_SEARCH,OPEN_LOOP,-0.0001,-0.0001,-9e-05,-9e-05,0.0,0.00027,0.5867,0.5867,0.5867,,0.67,,False,0.0,0.0,0.0,0.0,0.0,21.8308,21.8146,0.001,True,False,Mode(963497464),0.3367,7,0.5865
0.348,THRUST_SEARCH,OPEN_LOOP,-0.0001,-0.0001,-0.00018,-0.0001,0.0,0.00022,0.587,0.587,0.587,,0.67,,False,0.0,0.0,0.0,0.0,0.0,21.8308,21.8178,0.003,True,False,Mode(963497464),0.3477,7,0.5865
0.358,THRUST_SEARCH,OPEN_LOOP,-0.0001,-0.00011,-0.00019,-0.00011,0.0,0.00017,0.5872,0.5872,0.5872,,0.67,,False,0.0,0.0,0.0,0.0,0.0,21.8308,21.7972,0.0045,True,False,Mode(963497464),0.3582,7,0.5865
0.369,THRUST_SEARCH,OPEN_LOOP,-0.0001,-9e-05,2e-05,2e-05,0.0,0.00024,0.5874,0.5874,0.5874,,0.67,,False,0.0,0.0,0.0,0.0,0.0,21.8308,21.8188,0.001,True,False,Mode(963497464),0.3691,7,0.5865
0.381,THRUST_SEARCH,OPEN_LOOP,-0.0001,-0.00013,-0.00042,-0.00013,0.0,7e-05,0.5876,0.5876,0.5876,,0.67,,False,0.0,0.0,0.0,0.0,0.0,21.8308,21.7864,0.003,True,True,Mode(963497464),0.3801,7,0.5865
0.391,THRUST_SEARCH,OPEN_LOOP,-0.0002,-0.00016,-0.00043,-0.00016,0.0,-7e-05,0.5878,0.5878,0.5878,,0.67,,False,0.0,0.0,0.0,0.0,0.0,21.8308,21.76,0.0045,True,False,Mode(963497464),0.3906,8,0.5876
0.401,THRUST_SEARCH,OPEN_LOOP,-0.0002,-0.00019,-0.00044,-0.00019,0.0,-0.0002,0.588,0.588,0.588,,0.67,,False,0.0,0.0,0.0,0.0,0.0,21.8308,21.7507,0.0069,True,False,Mode(963497464),0.4014,8,0.5876
0.412,THRUST_SEARCH,OPEN_LOOP,-0.0002,-0.00017,4e-05,4e-05,0.0,-0.0001,0.5882,0.5882,0.5882,,0.67,,False,0.0,0.0,0.0,0.0,0.0,21.8308,21.7282,0.003,True,False,Mode(963497464),0.4124,8,0.5876
0.423,THRUST_SEARCH,OPEN_LOOP,-0.0001,-0.00015,4e-05,4e-05,0.0,-0.0,0.5885,0.5885,0.5885,,0.67,,False,0.0,0.0,0.0,0.0,0.0,21.8308,21.7941,0.005,True,False,Mode(963497464),0.4234,8,0.5876
0.434,THRUST_SEARCH,OPEN_LOOP,-0.0,-2e-05,0.00108,0.00108,0.0,0.00053,0.5887,0.5887,0.5887,,0.67,,False,0.0,0.0,0.0,0.0,0.0,21.8308,21.8374,0.007,True,True,Mode(963497464),0.0,8,0.5876
0.446,THRUST_SEARCH,OPEN_LOOP,0.0002,0.00022,0.0023,0.0023,0.0,0.00151,0.5889,0.5889,0.5889,,0.67,,False,0.0,0.0,0.0,0.0,0.0,21.8308,21.6556,0.001,True,False,Mode(963497464),0.0115,9,0.5887
0.457,THRUST_SEARCH,OPEN_LOOP,0.0006,0.0006,0.00395,0.00395,0.0,0.00305,0.5891,0.5891,0.5891,,0.67,,False,0.0,0.0,0.0,0.0,0.0,21.8308,21.5882,0.003,True,False,Mode(963497464),0.0225,9,0.5887
0.468,THRUST_SEARCH,OPEN_LOOP,0.0011,0.00108,0.00516,0.00516,0.0,0.0049,0.5894,0.5894,0.5894,,0.67,,False,0.0,0.0,0.0,0.0,0.0,21.8308,21.5325,0.008,True,False,Mode(963497464),0.0334,9,0.5887
0.478,THRUST_SEARCH,OPEN_LOOP,0.0019,0.00191,0.00907,0.00907,0.0,0.00808,0.5896,0.5896,0.5896,,0.67,,False,0.0,0.0,0.0,0.0,0.0,21.8308,21.3071,0.0008,True,False,Mode(963497464),0.0439,9,0.5887
0.489,THRUST_SEARCH,OPEN_LOOP,0.0028,0.00281,0.01046,0.01046,0.0,0.01142,0.5898,0.5898,0.5898,,0.67,,False,0.0,0.0,0.0,0.0,0.0,21.8308,20.9797,0.003,True,True,Mode(963497464),0.0549,9,0.5887
0.5,THRUST_SEARCH,OPEN_LOOP,0.0037,0.00375,0.0115,0.0115,0.0,0.01476,0.59,0.59,0.59,,0.67,,False,0.0,0.0,0.0,0.0,0.0,21.8308,20.5639,0.005,True,False,Mode(963497464),0.0659,10,0.5898
0.512,THRUST_SEARCH,OPEN_LOOP,0.0049,0.00487,0.01404,0.01404,0.0,0.01866,0.5902,0.5902,0.5902,,0.67,,False,0.0,0.0,0.0,0.0,0.0,21.8308,19.7569,0.001,True,False,Mode(963497464),0.0769,10,0.5898
0.522,THRUST_SEARCH,OPEN_LOOP,0.006,0.00596,0.01458,0.01458,0.0,0.02228,0.5904,0.5904,0.5904,,0.67,,False,0.0,0.0,0.0,0.0,0.0,21.8308,19.27,0.003,True,False,Mode(963497464),0.0877,10,0.5898
0.533,THRUST_SEARCH,OPEN_LOOP,0.0071,0.00715,0.01643,0.01643,0.0,0.02614,0.5907,0.5907,0.5907,,0.67,,False,0.0,0.0,0.0,0.0,0.0,21.8308,18.7668,0.005,True,False,Mode(963497464),0.0986,10,0.5898
0.544,THRUST_SEARCH,OPEN_LOOP,0.0085,0.00853,0.01931,0.01931,0.0,0.03059,0.5909,0.5909,0.5909,,0.67,,False,0.0,0.0,0.0,0.0,0.0,21.8308,17.857,0.001,True,True,Mode(963497464),0.1096,10,0.5898
0.555,THRUST_SEARCH,OPEN_LOOP,0.01,0.00997,0.02103,0.02103,0.0,0.03511,0.5911,0.5911,0.5911,,0.67,,False,0.0,0.0,0.0,0.0,0.0,21.8308,17.5601,0.003,True,False,Mode(963497464),0.1206,11,0.5909
0.566,THRUST_SEARCH,OPEN_LOOP,0.0114,0.01136,0.02141,0.02141,0.0,0.03919,0.5913,0.5913,0.5913,,0.67,,False,0.0,0.0,0.0,0.0,0.0,21.8308,17.271,0.005,True,False,Mode(963497464),0.1315,11,0.5909
0.577,THRUST_SEARCH,OPEN_LOOP,0.0128,0.01276,0.02255,0.02255,0.0,0.04315,0.5915,0.5915,0.5915,,0.67,,False,0.0,0.0,0.0,0.0,0.0,21.8308,17.0937,0.007,True,False,Mode(963497464),0.1424,11,0.5909
0.588,THRUST_SEARCH,OPEN_LOOP,0.0141,0.01415,0.02342,0.02342,0.0,0.04687,0.5918,0.5918,0.5918,,0.67,,False,0.0,0.0,0.0,0.0,0.0,21.8308,16.6296,0.003,True,False,Mode(963497464),0.1534,11,0.5909
0.599,THRUST_SEARCH,OPEN_LOOP,0.0155,0.0155,0.02408,0.02408,0.0,0.0503,0.592,0.592,0.592,,0.67,,False,0.0,0.0,0.0,0.0,0.0,21.8308,16.3421,0.005,True,True,Mode(963497464),0.1643,11,0.5909
0.61,THRUST_SEARCH,OPEN_LOOP,0.0169,0.01691,0.02539,0.02539,0.0,0.0537,0.5922,0.5922,0.5922,,0.67,,False,0.0,0.0,0.0,0.0,0.0,21.8308,16.0885,0.007,True,False,Mode(963497464),0.1757,12,0.592
0.621,THRUST_SEARCH,OPEN_LOOP,0.0184,0.01841,0.02768,0.02768,0.0,0.05739,0.5924,0.5924,0.5924,,0.67,,False,0.0,0.0,0.0,0.0,0.0,21.8308,15.613,0.003,True,False,Mode(963497464),0.1867,12,0.592
0.632,THRUST_SEARCH,OPEN_LOOP,0.0199,0.01991,0.02888,0.02888,0.0,0.06096,0.5926,0.5926,0.5926,,0.67,,False,0.0,0.0,0.0,0.0,0.0,21.8308,15.5387,0.005,True,False,Mode(963497464),0.1977,12,0.592
0.642,THRUST_SEARCH,OPEN_LOOP,0.0213,0.0213,0.02903,0.02903,0.0,0.06402,0.5928,0.5928,0.5928,,0.67,,False,0.0,0.0,0.0,0.0,0.0,21.8308,15.5664,0.0045,True,False,Mode(963497464),0.2082,12,0.592
0.653,THRUST_SEARCH,OPEN_LOOP,0.0227,0.02274,0.03041,0.03041,0.0,0.06704,0.5931,0.5931,0.5931,,0.67,,False,0.0,0.0,0.0,0.0,0.0,21.8308,15.7166,0.001,True,True,Mode(963497464),0.2191,12,0.592
0.664,THRUST_SEARCH,OPEN_LOOP,0.024,0.02402,0.02969,0.02969,0.0,0.06927,0.5933,0.5933,0.5933,,0.67,,False,0.0,0.0,0.0,0.0,0.0,21.8308,15.6911,0.003,True,False,Mode(963497464),0.2301,13,0.5931
0.675,THRUST_SEARCH,OPEN_LOOP,0.0252,0.02523,0.03033,0.03033,0.0,0.07127,0.5935,0.5935,0.5935,,0.67,,False,0.0,0.0,0.0,0.0,0.0,21.8308,15.5903,0.0045,True,False,Mode(963497464),0.2406,13,0.5931
0.686,THRUST_SEARCH,OPEN_LOOP,0.0266,0.02658,0.03253,0.03253,0.0,0.0736,0.5937,0.5937,0.5937,,0.67,,False,0.0,0.0,0.0,0.0,0.0,21.8308,15.2093,0.001,True,False,Mode(963497464),0.2516,13,0.5931
0.697,THRUST_SEARCH,OPEN_LOOP,0.0279,0.02788,0.03303,0.03303,0.0,0.07562,0.5939,0.5939,0.5939,,0.67,,False,0.0,0.0,0.0,0.0,0.0,21.8308,15.0872,0.003,True,False,Mode(963497464),0.2625,13,0.5931
0.707,THRUST_SEARCH,OPEN_LOOP,0.029,0.02902,0.03269,0.03269,0.0,0.07705,0.5941,0.5941,0.5941,,0.67,,False,0.0,0.0,0.0,0.0,0.0,21.8308,15.0829,0.0045,True,True,Mode(963497464),0.273,13,0.5931
0.718,THRUST_SEARCH,OPEN_LOOP,0.0301,0.03008,0.03238,0.03238,0.0,0.07795,0.5944,0.5944,0.5944,,0.67,,False,0.0,0.0,0.0,0.0,0.0,21.8308,15.093,0.007,True,False,Mode(963497464),0.284,14,0.5941
0.729,THRUST_SEARCH,OPEN_LOOP,0.0311,0.03106,0.03233,0.03233,0.0,0.07844,0.5946,0.5946,0.5946,,0.67,,False,0.0,0.0,0.0,0.0,0.0,21.8308,15.0535,0.003,True,False,Mode(963497464),0.2949,14,0.5941
0.74,THRUST_SEARCH,OPEN_LOOP,0.0319,0.03186,0.03159,0.03186,0.0,0.07834,0.5948,0.5948,0.5948,,0.67,,False,0.0,0.0,0.0,0.0,0.0,21.8308,14.9444,0.0045,True,False,Mode(963497464),0.3054,14,0.5941
0.751,THRUST_SEARCH,OPEN_LOOP,0.0325,0.03255,0.03089,0.03255,0.0,0.07769,0.595,0.595,0.595,,0.67,,False,0.0,0.0,0.0,0.0,0.0,21.8308,14.7603,0.0068,True,False,Mode(963497464),0.3162,14,0.5941
0.763,THRUST_SEARCH,OPEN_LOOP,0.0333,0.03329,0.0321,0.03329,0.0,0.07723,0.5952,0.5952,0.5952,,0.67,,False,0.0,0.0,0.0,0.0,0.0,21.8308,14.5388,0.009,True,True,Mode(963497464),0.3272,14,0.5941
0.772,THRUST_SEARCH,OPEN_LOOP,0.0339,0.03391,0.03192,0.03391,0.0,0.07646,0.5954,0.5954,0.5954,,0.67,,False,0.0,0.0,0.0,0.0,0.0,21.8308,14.1909,0.0015,True,False,Mode(963497464),0.3377,15,0.5952
0.783,THRUST_SEARCH,OPEN_LOOP,0.0344,0.03443,0.03108,0.03443,0.0,0.07516,0.5957,0.5957,0.5957,,0.67,,False,0.0,0.0,0.0,0.0,0.0,21.8308,14.1178,0.006,True,False,Mode(963497464),0.3487,15,0.5952
0.793,THRUST_SEARCH,OPEN_LOOP,0.0348,0.03477,0.03001,0.03477,0.0,0.07331,0.5959,0.5959,0.5959,,0.67,,False,0.0,0.0,0.0,0.0,0.0,21.8308,14.0761,0.0075,True,False,Mode(963497464),0.3592,15,0.5952
0.805,THRUST_SEARCH,OPEN_LOOP,0.035,0.03498,0.02848,0.03498,0.0,0.07078,0.5961,0.5961,0.5961,,0.67,,False,0.0,0.0,0.0,0.0,0.0,21.8308,13.9702,0.0011,True,False,Mode(963497464),0.3702,15,0.5952
0.816,THRUST_SEARCH,OPEN_LOOP,0.035,0.035,0.02701,0.035,0.0,0.06767,0.5963,0.5963,0.5963,,0.67,,False,0.0,0.0,0.0,0.0,0.0,21.8308,13.8618,0.006,True,True,Mode(963497464),0.3812,15,0.5952
0.827,THRUST_SEARCH,OPEN_LOOP,0.0349,0.03491,0.02602,0.03491,0.0,0.06421,0.5965,0.5965,0.5965,,0.67,,False,0.0,0.0,0.0,0.0,0.0,21.8308,13.7639,0.008,True,False,Mode(963497464),0.3922,16,0.5963
0.837,THRUST_SEARCH,OPEN_LOOP,0.0347,0.03473,0.02538,0.03473,0.0,0.06056,0.5967,0.5967,0.5967,,0.67,,False,0.0,0.0,0.0,0.0,0.0,21.8308,13.7459,0.001,True,False,Mode(963497464),0.4032,16,0.5963
0.848,THRUST_SEARCH,OPEN_LOOP,0.0345,0.0345,0.02502,0.0345,0.0,0.05686,0.597,0.597,0.597,,0.67,,False,0.0,0.0,0.0,0.0,0.0,21.8308,13.8741,0.003,True,False,Mode(963497464),0.4141,16,0.5963
0.859,THRUST_SEARCH,OPEN_LOOP,0.0341,0.03414,0.02377,0.03414,0.0,0.0528,0.5972,0.5972,0.5972,,0.67,,False,0.0,0.0,0.0,0.0,0.0,21.8308,14.0933,0.008,True,False,Mode(963497464),0.4251,16,0.5963
0.87,THRUST_SEARCH,OPEN_LOOP,0.0335,0.03353,0.02097,0.03353,0.0,0.0479,0.5974,0.5974,0.5974,,0.67,,False,0.0,0.0,0.0,0.0,0.0,21.8308,14.3233,0.001,True,True,Mode(963497464),0.436,16,0.5963
0.881,THRUST_SEARCH,OPEN_LOOP,0.0328,0.03282,0.01975,0.03282,0.0,0.04278,0.5976,0.5976,0.5976,,0.67,,False,0.0,0.0,0.0,0.0,0.0,21.8308,14.2958,0.003,True,False,Mode(963497464),0.4469,17,0.5974
0.892,THRUST_SEARCH,OPEN_LOOP,0.032,0.03195,0.0178,0.03195,0.0,0.03724,0.5978,0.5978,0.5978,,0.67,,False,0.0,0.0,0.0,0.0,0.0,21.8308,14.2139,0.008,True,False,Mode(963497464),0.4579,17,0.5974
0.903,THRUST_SEARCH,OPEN_LOOP,0.031,0.03096,0.01608,0.03096,0.0,0.0314,0.5981,0.5981,0.5981,,0.67,,False,0.0,0.0,0.0,0.0,0.0,21.8308,14.07,0.0009,True,False,Mode(963497464),0.4691,17,0.5974
0.914,THRUST_SEARCH,OPEN_LOOP,0.0299,0.02989,0.01499,0.02989,0.0,0.02555,0.5983,0.5983,0.5983,,0.67,,False,0.0,0.0,0.0,0.0,0.0,21.8308,14.0853,0.003,True,False,Mode(963497464),0.48,17,0.5974
0.925,THRUST_SEARCH,OPEN_LOOP,0.0288,0.02881,0.01452,0.02881,0.0,0.01996,0.5985,0.5985,0.5985,,0.67,,False,0.0,0.0,0.0,0.0,0.0,21.8308,14.1297,0.0045,True,True,Mode(963497464),0.4905,17,0.5974
0.936,THRUST_SEARCH,OPEN_LOOP,0.0274,0.02739,0.00997,0.02739,0.0,0.01315,0.5987,0.5987,0.5987,,0.67,,False,0.0,0.0,0.0,0.0,0.0,21.8308,14.5085,0.001,True,False,Mode(963497464),0.5015,18,0.5985
0.947,THRUST_SEARCH,OPEN_LOOP,0.0259,0.02591,0.00872,0.02591,0.0,0.00642,0.5989,0.5989,0.5989,,0.67,,False,0.0,0.0,0.0,0.0,0.0,21.8308,14.6234,0.003,True,False,Mode(963497464),0.5125,18,0.5985
0.958,THRUST_SEARCH,OPEN_LOOP,0.0243,0.02432,0.00682,0.02432,0.0,-0.00044,0.5992,0.5992,0.5992,,0.67,,False,0.0,0.0,0.0,0.0,0.0,21.8308,14.6416,0.005,True,False,Mode(963497464),0.5234,18,0.5985
0.969,THRUST_SEARCH,OPEN_LOOP,0.0226,0.02256,0.00396,0.02256,0.0,-0.00772,0.5994,0.5994,0.5994,,0.67,,False,0.0,0.0,0.0,0.0,0.0,21.8308,14.4769,0.001,True,False,Mode(963497464),0.5342,18,0.5985
0.979,THRUST_SEARCH,OPEN_LOOP,0.0208,0.02076,0.00253,0.02076,0.0,-0.01483,0.5996,0.5996,0.5996,,0.67,,False,0.0,0.0,0.0,0.0,0.0,21.8308,14.4375,0.0026,True,True,Mode(963497464),0.5448,18,0.5985
0.99,THRUST_SEARCH,OPEN_LOOP,0.019,0.01902,0.00227,0.01902,0.0,-0.02138,0.5998,0.5998,0.5998,,0.67,,False,0.0,0.0,0.0,0.0,0.0,21.8308,14.538,0.003,True,False,Mode(963497464),0.5558,19,0.5996
1.001,THRUST_SEARCH,OPEN_LOOP,0.0173,0.01733,0.00172,0.01733,0.0,-0.02745,0.6,0.6,0.6,,0.67,,False,0.0,0.0,0.0,0.0,0.0,21.8308,14.7102,0.0075,True,False,Mode(963497464),0.5662,19,0.5996
1.012,THRUST_SEARCH,OPEN_LOOP,0.0157,0.0157,0.00162,0.0157,0.0,-0.03294,0.6002,0.6002,0.6002,,0.67,,False,0.0,0.0,0.0,0.0,0.0,21.8308,14.7294,0.001,True,False,Mode(963497464),0.5772,19,0.5996
1.022,THRUST_SEARCH,OPEN_LOOP,0.0142,0.01417,0.00149,0.01417,0.0,-0.03787,0.6004,0.6004,0.6004,,0.67,,False,0.0,0.0,0.0,0.0,0.0,21.8308,14.7059,0.003,True,False,Mode(963497464),0.5877,19,0.5996
1.033,THRUST_SEARCH,OPEN_LOOP,0.0128,0.01283,0.00306,0.01283,0.0,-0.04167,0.6007,0.6007,0.6007,,0.67,,False,0.0,0.0,0.0,0.0,0.0,21.8308,14.7082,0.005,True,True,Mode(963497464),0.5987,19,0.5996
1.044,THRUST_SEARCH,OPEN_LOOP,0.0117,0.01168,0.00426,0.01168,0.0,-0.04456,0.6009,0.6009,0.6009,,0.67,,False,0.0,0.0,0.0,0.0,0.0,21.8308,14.702,0.001,True,False,Mode(963497464),0.6096,20,0.6007
1.055,THRUST_SEARCH,OPEN_LOOP,0.0107,0.01069,0.0054,0.01069,0.0,-0.04662,0.6011,0.6011,0.6011,,0.67,,False,0.0,0.0,0.0,0.0,0.0,21.8308,14.8938,0.003,True,False,Mode(963497464),0.6206,20,0.6007
1.066,THRUST_SEARCH,OPEN_LOOP,0.0099,0.00987,0.00655,0.00987,0.0,-0.04792,0.6013,0.6013,0.6013,,0.67,,False,0.0,0.0,0.0,0.0,0.0,21.8308,15.0826,0.005,True,False,Mode(963497464),0.6316,20,0.6007
1.077,THRUST_SEARCH,OPEN_LOOP,0.0092,0.00916,0.00732,0.00916,0.0,-0.04864,0.6015,0.6015,0.6015,,0.67,,False,0.0,0.0,0.0,0.0,0.0,21.8308,15.1317,0.001,True,False,Mode(963497464),0.6428,20,0.6007
1.088,THRUST_SEARCH,OPEN_LOOP,0.0086,0.00862,0.00855,0.00862,0.0,-0.04866,0.6018,0.6018,0.6018,,0.67,,False,0.0,0.0,0.0,0.0,0.0,21.8308,15.0147,0.003,True,True,Mode(963497464),0.6537,20,0.6007
1.099,THRUST_SEARCH,OPEN_LOOP,0.0081,0.00808,0.00803,0.00808,0.0,-0.04868,0.602,0.602,0.602,,0.67,,False,0.0,0.0,0.0,0.0,0.0,21.8308,14.7771,0.005,True,False,Mode(963497464),0.6647,21,0.6018
1.11,THRUST_SEARCH,OPEN_LOOP,0.0077,0.00771,0.00947,0.00947,0.0,-0.04799,0.6022,0.6022,0.6022,,0.67,,False,0.0,0.0,0.0,0.0,0.0,21.8308,14.4989,0.007,True,False,Mode(963497464),0.6757,21,0.6018
1.121,THRUST_SEARCH,OPEN_LOOP,0.0075,0.00752,0.01088,0.01088,0.0,-0.04668,0.6024,0.6024,0.6024,,0.67,,False,0.0,0.0,0.0,0.0,0.0,21.8308,14.2198,0.0,True,False,Mode(963497464),0.6862,21,0.6018
1.131,THRUST_SEARCH,OPEN_LOOP,0.0075,0.0075,0.01248,0.01248,0.0,-0.04474,0.6026,0.6026,0.6026,,0.67,,False,0.0,0.0,0.0,0.0,0.0,21.8308,14.3331,0.0045,True,False,Mode(963497464),0.6966,21,0.6018
1.142,THRUST_SEARCH,OPEN_LOOP,0.0075,0.0075,0.01261,0.01261,0.0,-0.04275,0.6028,0.6028,0.6028,,0.67,,False,0.0,0.0,0.0,0.0,0.0,21.8308,14.4998,0.0069,True,True,Mode(963497464),0.7075,21,0.6018
1.153,THRUST_SEARCH,OPEN_LOOP,0.0075,0.00752,0.01277,0.01277,0.0,-0.04071,0.6031,0.6031,0.6031,,0.67,,False,0.0,0.0,0.0,0.0,0.0,21.8308,14.7684,0.009,True,False,Mode(963497464),0.7185,22,0.6028
1.163,THRUST_SEARCH,OPEN_LOOP,0.0076,0.00756,0.01254,0.01254,0.0,-0.03877,0.6033,0.6033,0.6033,,0.67,,False,0.0,0.0,0.0,0.0,0.0,21.8308,15.0052,0.0015,True,False,Mode(963497464),0.729,22,0.6028
1.174,THRUST_SEARCH,OPEN_LOOP,0.0076,0.00764,0.01297,0.01297,0.0,-0.0367,0.6035,0.6035,0.6035,,0.67,,False,0.0,0.0,0.0,0.0,0.0,21.8308,14.9832,0.006,True,False,Mode(963497464),0.7399,22,0.6028
1.185,THRUST_SEARCH,OPEN_LOOP,0.0078,0.00776,0.0133,0.0133,0.0,-0.03454,0.6037,0.6037,0.6037,,0.67,,False,0.0,0.0,0.0,0.0,0.0,21.8308,14.8199,0.008,True,False,Mode(963497464),0.7509,22,0.6028
1.196,THRUST_SEARCH,OPEN_LOOP,0.0079,0.00788,0.01311,0.01311,0.0,-0.03251,0.6039,0.6039,0.6039,,0.67,,False,0.0,0.0,0.0,0.0,0.0,21.8308,14.6728,0.001,True,True,Mode(963497464),0.7614,22,0.6028
1.207,THRUST_SEARCH,OPEN_LOOP,0.008,0.00797,0.01272,0.01272,0.0,-0.03067,0.6041,0.6041,0.6041,,0.67,,False,0.0,0.0,0.0,0.0,0.0,21.8308,14.8448,0.003,True,False,Mode(963497464),0.7724,23,0.6039
1.218,THRUST_SEARCH,OPEN_LOOP,0.0081,0.00813,0.01335,0.01335,0.0,-0.02863,0.6044,0.6044,0.6044,,0.67,,False,0.0,0.0,0.0,0.0,0.0,21.8308,14.9487,0.008,True,False,Mode(963497464),0.7834,23,0.6039
1.229,THRUST_SEARCH,OPEN_LOOP,0.0082,0.00818,0.01207,0.01207,0.0,-0.02712,0.6046,0.6046,0.6046,,0.67,,False,0.0,0.0,0.0,0.0,0.0,21.8308,15.23,0.001,True,False,Mode(963497464),0.7944,23,0.6039
1.24,THRUST_SEARCH,OPEN_LOOP,0.0082,0.00818,0.01139,0.01139,0.0,-0.02587,0.6048,0.6048,0.6048,,0.67,,False,0.0,0.0,0.0,0.0,0.0,21.8308,15.2442,0.003,True,False,Mode(963497464),0.8053,23,0.6039
1.251,THRUST_SEARCH,OPEN_LOOP,0.0082,0.00818,0.01115,0.01115,0.0,-0.02471,0.605,0.605,0.605,,0.67,,False,0.0,0.0,0.0,0.0,0.0,21.8308,15.1874,0.007,True,True,Mode(963497464),0.8163,23,0.6039
1.262,THRUST_SEARCH,OPEN_LOOP,0.0082,0.00817,0.01113,0.01113,0.0,-0.02355,0.6052,0.6052,0.6052,,0.67,,False,0.0,0.0,0.0,0.0,0.0,21.8308,14.9516,0.001,True,False,Mode(963497464),0.8278,24,0.605
1.273,THRUST_SEARCH,OPEN_LOOP,0.0082,0.00822,0.01146,0.01146,0.0,-0.02228,0.6055,0.6055,0.6055,,0.67,,False,0.0,0.0,0.0,0.0,0.0,21.8308,14.9544,0.003,True,False,Mode(963497464),0.8388,24,0.605
1.284,THRUST_SEARCH,OPEN_LOOP,0.0082,0.0082,0.0105,0.0105,0.0,-0.02138,0.6057,0.6057,0.6057,,0.67,,False,0.0,0.0,0.0,0.0,0.0,21.8308,15.1067,0.008,True,False,Mode(963497464),0.8497,24,0.605
1.295,THRUST_SEARCH,OPEN_LOOP,0.0082,0.00816,0.01027,0.01027,0.0,-0.02055,0.6059,0.6059,0.6059,,0.67,,False,0.0,0.0,0.0,0.0,0.0,21.8308,15.4975,0.001,True,False,Mode(963497464),0.8607,24,0.605
1.306,THRUST_SEARCH,OPEN_LOOP,0.0081,0.00806,0.00932,0.00932,0.0,-0.02006,0.6061,0.6061,0.6061,,0.67,,False,0.0,0.0,0.0,0.0,0.0,21.8308,15.626,0.003,True,True,Mode(963497464),0.8712,24,0.605
1.317,THRUST_SEARCH,OPEN_LOOP,0.008,0.00798,0.00947,0.00947,0.0,-0.01948,0.6063,0.6063,0.6063,,0.67,,False,0.0,0.0,0.0,0.0,0.0,21.8308,15.5954,0.005,True,False,Mode(963497464),0.8822,25,0.6061
1.327,THRUST_SEARCH,OPEN_LOOP,0.0079,0.00793,0.00961,0.00961,0.0,-0.01882,0.6065,0.6065,0.6065,,0.67,,False,0.0,0.0,0.0,0.0,0.0,21.8308,15.0272,0.001,True,False,Mode(963497464),0.8931,25,0.6061
1.338,THRUST_SEARCH,OPEN_LOOP,0.0078,0.0078,0.00856,0.00856,0.0,-0.01853,0.6068,0.6068,0.6068,,0.67,,False,0.0,0.0,0.0,0.0,0.0,21.8308,14.5597,0.003,True,False,Mode(963497464),0.9041,25,0.6061
1.349,THRUST_SEARCH,OPEN_LOOP,0.0077,0.00768,0.00852,0.00852,0.0,-0.0182,0.607,0.607,0.607,,0.67,,False,0.0,0.0,0.0,0.0,0.0,21.8308,14.2842,0.0045,True,False,Mode(963497464),0.9146,25,0.6061
1.36,THRUST_SEARCH,OPEN_LOOP,0.0076,0.0076,0.0088,0.0088,0.0,-0.01773,0.6072,0.6072,0.6072,,0.67,,False,0.0,0.0,0.0,0.0,0.0,21.8308,14.1613,0.0069,True,True,Mode(963497464),0.9255,25,0.6061
1.371,THRUST_SEARCH,OPEN_LOOP,0.0074,0.00742,0.00755,0.00755,0.0,-0.01767,0.6074,0.6074,0.6074,,0.67,,False,0.0,0.0,0.0,0.0,0.0,21.8308,14.3072,0.003,True,False,Mode(963497464),0.9364,26,0.6072
1.381,THRUST_SEARCH,OPEN_LOOP,0.0072,0.00723,0.00729,0.00729,0.0,-0.01765,0.6076,0.6076,0.6076,,0.67,,False,0.0,0.0,0.0,0.0,0.0,21.8308,14.3728,0.0045,True,False,Mode(963497464),0.9469,26,0.6072
1.392,THRUST_SEARCH,OPEN_LOOP,0.007,0.00698,0.00637,0.00698,0.0,-0.01789,0.6078,0.6078,0.6078,,0.67,,False,0.0,0.0,0.0,0.0,0.0,21.8308,14.5209,0.007,True,False,Mode(963497464),0.9579,26,0.6072
1.403,THRUST_SEARCH,OPEN_LOOP,0.0069,0.0069,0.00806,0.00806,0.0,-0.01744,0.6081,0.6081,0.6081,,0.67,,False,0.0,0.0,0.0,0.0,0.0,21.8308,14.8017,0.009,True,False,Mode(963497464),0.9688,26,0.6072
1.414,THRUST_SEARCH,OPEN_LOOP,0.0069,0.00691,0.00901,0.00901,0.0,-0.01662,0.6083,0.6083,0.6083,,0.67,,False,0.0,0.0,0.0,0.0,0.0,21.8308,15.4027,0.0015,True,True,Mode(963497464),0.9793,26,0.6072
1.425,THRUST_SEARCH,OPEN_LOOP,0.007,0.00703,0.01025,0.01025,0.0,-0.01537,0.6085,0.6085,0.6085,,0.67,,False,0.0,0.0,0.0,0.0,0.0,21.8308,15.6752,0.006,True,False,Mode(963497464),0.9903,27,0.6083
1.436,THRUST_SEARCH,OPEN_LOOP,0.0071,0.00711,0.0098,0.0098,0.0,-0.01433,0.6087,0.6087,0.6087,,0.67,,False,0.0,0.0,0.0,0.0,0.0,21.8308,15.8576,0.008,True,False,Mode(963497464),1.0013,27,0.6083
1.447,THRUST_SEARCH,OPEN_LOOP,0.0073,0.00732,0.01118,0.01118,0.0,-0.01282,0.6089,0.6089,0.6089,,0.67,,False,0.0,0.0,0.0,0.0,0.0,21.8308,15.7942,0.004,True,False,Mode(963497464),1.0122,27,0.6083
1.458,THRUST_SEARCH,OPEN_LOOP,0.0075,0.00751,0.01102,0.01102,0.0,-0.01145,0.6092,0.6092,0.6092,,0.67,,False,0.0,0.0,0.0,0.0,0.0,21.8308,15.6796,0.004,True,False,Mode(963497464),0.0,27,0.6083
1.469,THRUST_SEARCH,OPEN_LOOP,0.0077,0.00775,0.01165,0.01165,0.0,-0.00991,0.6094,0.6094,0.6094,,0.67,,False,0.0,0.0,0.0,0.0,0.0,21.8308,15.3972,0.001,True,True,Mode(963497464),0.0114,27,0.6083
1.48,THRUST_SEARCH,OPEN_LOOP,0.008,0.00805,0.01235,0.01235,0.0,-0.00822,0.6096,0.6096,0.6096,,0.67,,False,0.0,0.0,0.0,0.0,0.0,21.8308,15.4757,0.003,True,False,Mode(963497464),0.0224,28,0.6094
1.491,THRUST_SEARCH,OPEN_LOOP,0.0083,0.00826,0.01146,0.01146,0.0,-0.00696,0.6098,0.6098,0.6098,,0.67,,False,0.0,0.0,0.0,0.0,0.0,21.8308,15.6932,0.004,True,False,Mode(963497464),0.0333,28,0.6094
1.503,THRUST_SEARCH,OPEN_LOOP,0.0085,0.00846,0.01138,0.01138,0.0,-0.0058,0.6101,0.6101,0.6101,,0.67,,False,0.0,0.0,0.0,0.0,0.0,21.8308,16.3768,0.001,True,False,Mode(963497464),0.0448,28,0.6094
1.514,THRUST_SEARCH,OPEN_LOOP,0.0086,0.0086,0.01071,0.01071,0.0,-0.00497,0.6103,0.6103,0.6103,,0.67,,False,0.0,0.0,0.0,0.0,0.0,21.8308,16.5333,0.003,True,False,Mode(963497464),0.0558,28,0.6094
1.526,THRUST_SEARCH,OPEN_LOOP,0.0087,0.00874,0.01085,0.01085,0.0,-0.00414,0.6105,0.6105,0.6105,,0.67,,False,0.0,0.0,0.0,0.0,0.0,21.8308,16.4586,0.005,True,True,Mode(963497464),0.0668,28,0.6094
1.536,THRUST_SEARCH,OPEN_LOOP,0.0089,0.00887,0.01069,0.01069,0.0,-0.00342,0.6107,0.6107,0.6107,,0.67,,False,0.0,0.0,0.0,0.0,0.0,21.8308,15.9786,0.001,True,False,Mode(963497464),0.0777,29,0.6105
1.547,THRUST_SEARCH,OPEN_LOOP,0.0089,0.00894,0.01006,0.01006,0.0,-0.00298,0.6109,0.6109,0.6109,,0.67,,False,0.0,0.0,0.0,0.0,0.0,21.8308,15.8422,0.003,True,False,Mode(963497464),0.0887,29,0.6105
1.558,THRUST_SEARCH,OPEN_LOOP,0.009,0.00901,0.01006,0.01006,0.0,-0.00256,0.6112,0.6112,0.6112,,0.67,,False,0.0,0.0,0.0,0.0,0.0,21.8308,15.8317,0.005,True,False,Mode(963497464),0.0997,29,0.6105
1.569,THRUST_SEARCH,OPEN_LOOP,0.0091,0.00905,0.0098,0.0098,0.0,-0.00227,0.6114,0.6114,0.6114,,0.67,,False,0.0,0.0,0.0,0.0,0.0,21.8308,16.0364,0.008,True,False,Mode(963497464),0.1112,29,0.6105
1.58,THRUST_SEARCH,OPEN_LOOP,0.009,0.00899,0.00867,0.00899,0.0,-0.0024,0.6116,0.6116,0.6116,,0.67,,False,0.0,0.0,0.0,0.0,0.0,21.8308,16.7403,0.004,True,True,Mode(963497464),0.1222,29,0.6105
1.591,THRUST_SEARCH,OPEN_LOOP,0.0089,0.00886,0.00779,0.00886,0.0,-0.00283,0.6118,0.6118,0.6118,,0.67,,False,0.0,0.0,0.0,0.0,0.0,21.8308,17.0475,0.006,True,False,Mode(963497464),0.1331,30,0.6116
1.602,THRUST_SEARCH,OPEN_LOOP,0.0088,0.00881,0.00851,0.00881,0.0,-0.00294,0.612,0.612,0.612,,0.67,,False,0.0,0.0,0.0,0.0,0.0,21.8308,17.2441,0.008,True,False,Mode(963497464),0.1441,30,0.6116
1.613,THRUST_SEARCH,OPEN_LOOP,0.0088,0.0088,0.00914,0.00914,0.0,-0.00281,0.6123,0.6123,0.6123,,0.67,,False,0.0,0.0,0.0,0.0,0.0,21.8308,17.3277,0.001,True,False,Mode(963497464),0.1554,30,0.6116
1.624,THRUST_SEARCH,OPEN_LOOP,0.0088,0.0088,0.00903,0.00903,0.0,-0.00272,0.6125,0.6125,0.6125,,0.67,,False,0.0,0.0,0.0,0.0,0.0,21.8308,17.2233,0.006,True,False,Mode(963497464),0.1658,30,0.6116
1.635,THRUST_SEARCH,OPEN_LOOP,0.0089,0.00893,0.0106,0.0106,0.0,-0.00206,0.6127,0.6127,0.6127,,0.67,,False,0.0,0.0,0.0,0.0,0.0,21.8308,17.1572,0.008,True,True,Mode(963497464),0.1768,30,0.6116
1.646,THRUST_SEARCH,OPEN_LOOP,0.009,0.00901,0.01018,0.01018,0.0,-0.0016,0.6129,0.6129,0.6129,,0.67,,False,0.0,0.0,0.0,0.0,0.0,21.8308,17.6288,0.001,True,False,Mode(963497464),0.1878,31,0.6127
1.657,THRUST_SEARCH,OPEN_LOOP,0.0092,0.00917,0.01101,0.01101,0.0,-0.00087,0.6131,0.6131,0.6131,,0.67,,False,0.0,0.0,0.0,0.0,0.0,21.8308,18.0455,0.003,True,False,Mode(963497464),0.1988,31,0.6127
1.668,THRUST_SEARCH,OPEN_LOOP,0.0093,0.00931,0.0108,0.0108,0.0,-0.00028,0.6134,0.6134,0.6134,,0.67,,False,0.0,0.0,0.0,0.0,0.0,21.8308,18.3552,0.005,True,False,Mode(963497464),0.2097,31,0.6127
1.678,THRUST_SEARCH,OPEN_LOOP,0.0096,0.00956,0.01223,0.01223,0.0,0.00077,0.6136,0.6136,0.6136,,0.67,,False,0.0,0.0,0.0,0.0,0.0,21.8308,18.441,0.0005,True,False,Mode(963497464),0.2203,31,0.6127
1.689,THRUST_SEARCH,OPEN_LOOP,0.0099,0.0099,0.01342,0.01342,0.0,0.00215,0.6138,0.6138,0.6138,,0.67,,False,0.0,0.0,0.0,0.0,0.0,21.8308,18.4894,0.003,True,True,Mode(963497464),0.2312,31,0.6127
1.701,THRUST_SEARCH,OPEN_LOOP,0.0102,0.01024,0.01355,0.01355,0.0,0.00346,0.614,0.614,0.614,,0.67,,False,0.0,0.0,0.0,0.0,0.0,21.8308,18.4612,0.006,True,False,Mode(963497464),0.2432,32,0.6138
1.712,THRUST_SEARCH,OPEN_LOOP,0.0106,0.01055,0.01341,0.01341,0.0,0.00459,0.6142,0.6142,0.6142,,0.67,,False,0.0,0.0,0.0,0.0,0.0,21.8308,18.589,0.002,True,False,Mode(963497464),0.2542,32,0.6138
1.723,THRUST_SEARCH,OPEN_LOOP,0.0109,0.01089,0.01396,0.01396,0.0,0.00581,0.6145,0.6145,0.6145,,0.67,,False,0.0,0.0,0.0,0.0,0.0,21.8308,18.6545,0.0042,True,False,Mode(963497464),0.2649,32,0.6138
1.733,THRUST_SEARCH,OPEN_LOOP,0.0113,0.01127,0.01455,0.01455,0.0,0.0071,0.6147,0.6147,0.6147,,0.67,,False,0.0,0.0,0.0,0.0,0.0,21.8308,18.5875,0.0065,True,False,Mode(963497464),0.2754,32,0.6138
1.744,THRUST_SEARCH,OPEN_LOOP,0.0116,0.01163,0.0146,0.0146,0.0,0.00827,0.6149,0.6149,0.6149,,0.67,,False,0.0,0.0,0.0,0.0,0.0,21.8308,18.4069,0.009,True,True,Mode(963497464),0.2863,32,0.6138
1.755,THRUST_SEARCH,OPEN_LOOP,0.0121,0.01206,0.0157,0.0157,0.0,0.00969,0.6151,0.6151,0.6151,,0.67,,False,0.0,0.0,0.0,0.0,0.0,21.8308,17.8297,0.0015,True,False,Mode(963497464),0.2968,33,0.6149
1.766,THRUST_SEARCH,OPEN_LOOP,0.0125,0.01248,0.01583,0.01583,0.0,0.01101,0.6153,0.6153,0.6153,,0.67,,False,0.0,0.0,0.0,0.0,0.0,21.8308,17.4894,0.006,True,False,Mode(963497464),0.3078,33,0.6149
1.777,THRUST_SEARCH,OPEN_LOOP,0.0129,0.0129,0.01601,0.01601,0.0,0.01223,0.6155,0.6155,0.6155,,0.67,,False,0.0,0.0,0.0,0.0,0.0,21.8308,17.2199,0.008,True,False,Mode(963497464),0.3188,33,0.6149
1.788,THRUST_SEARCH,OPEN_LOOP,0.0132,0.01317,0.01458,0.01458,0.0,0.01278,0.6158,0.6158,0.6158,,0.67,,False,0.0,0.0,0.0,0.0,0.0,21.8308,16.8234,0.001,True,False,Mode(963497464),0.3297,33,0.6149
1.799,THRUST_SEARCH,OPEN_LOOP,0.0134,0.01341,0.01447,0.01447,0.0,0.0132,0.616,0.616,0.616,,0.67,,False,0.0,0.0,0.0,0.0,0.0,21.8308,16.6336,0.006,True,True,Mode(963497464),0.3407,33,0.6149
1.81,THRUST_SEARCH,OPEN_LOOP,0.0136,0.01358,0.01386,0.01386,0.0,0.01331,0.6162,0.6162,0.6162,,0.67,,False,0.0,0.0,0.0,0.0,0.0,21.8308,16.3703,0.008,True,False,Mode(963497464),0.3517,34,0.616
1.821,THRUST_SEARCH,OPEN_LOOP,0.0138,0.01378,0.01437,0.01437,0.0,0.01354,0.6164,0.6164,0.6164,,0.67,,False,0.0,0.0,0.0,0.0,0.0,21.8308,15.7623,0.001,True,False,Mode(963497464),0.3627,34,0.616
1.832,THRUST_SEARCH,OPEN_LOOP,0.014,0.01399,0.01467,0.01467,0.0,0.01381,0.6166,0.6166,0.6166,,0.67,,False,0.0,0.0,0.0,0.0,0.0,21.8308,15.5689,0.003,True,False,Mode(963497464),0.3736,34,0.616
1.843,THRUST_SEARCH,OPEN_LOOP,0.0142,0.0142,0.01479,0.01479,0.0,0.01404,0.6169,0.6169,0.6169,,0.67,,False,0.0,0.0,0.0,0.0,0.0,21.8308,15.3332,0.008,True,False,Mode(963497464),0.3846,34,0.616
1.853,THRUST_SEARCH,OPEN_LOOP,0.0143,0.01429,0.01362,0.01429,0.0,0.01378,0.6171,0.6171,0.6171,,0.67,,False,0.0,0.0,0.0,0.0,0.0,21.8308,14.7557,0.0008,True,True,Mode(963497464),0.3954,34,0.616
1.864,THRUST_SEARCH,OPEN_LOOP,0.0142,0.01417,0.01134,0.01417,0.0,0.01267,0.6173,0.6173,0.6173,,0.67,,False,0.0,0.0,0.0,0.0,0.0,21.8308,14.4051,0.003,True,False,Mode(963497464),0.4063,35,0.6171
1.875,THRUST_SEARCH,OPEN_LOOP,0.0141,0.01409,0.01171,0.01409,0.0,0.01173,0.6175,0.6175,0.6175,,0.67,,False,0.0,0.0,0.0,0.0,0.0,21.8308,14.0589,0.005,True,False,Mode(963497464),0.4173,35,0.6171
1.886,THRUST_SEARCH,OPEN_LOOP,0.014,0.01404,0.01227,0.01404,0.0,0.01104,0.6177,0.6177,0.6177,,0.67,,False,0.0,0.0,0.0,0.0,0.0,21.8308,13.5924,0.0008,True,False,Mode(963497464),0.4281,35,0.6171
1.897,THRUST_SEARCH,OPEN_LOOP,0.014,0.01399,0.01213,0.01399,0.0,0.01031,0.6179,0.6179,0.6179,,0.67,,False,0.0,0.0,0.0,0.0,0.0,21.8308,13.4616,0.003,True,False,Mode(963497464),0.4391,35,0.6171
1.908,THRUST_SEARCH,OPEN_LOOP,0.0139,0.01386,0.01128,0.01386,0.0,0.00931,0.6182,0.6182,0.6182,,0.67,,False,0.0,0.0,0.0,0.0,0.0,21.8308,13.3643,0.0045,True,True,Mode(963497464),0.4496,35,0.6171
1.919,THRUST_SEARCH,OPEN_LOOP,0.0138,0.01379,0.01196,0.01379,0.0,0.00859,0.6184,0.6184,0.6184,,0.67,,False,0.0,0.0,0.0,0.0,0.0,21.8308,13.1521,0.007,True,False,Mode(963497464),0.4605,36,0.6182
1.929,THRUST_SEARCH,OPEN_LOOP,0.0137,0.0137,0.01178,0.0137,0.0,0.00785,0.6186,0.6186,0.6186,,0.67,,False,0.0,0.0,0.0,0.0,0.0,21.8308,12.5483,0.0015,True,False,Mode(963497464),0.471,36,0.6182
1.94,THRUST_SEARCH,OPEN_LOOP,0.0135,0.01355,0.01108,0.01355,0.0,0.00688,0.6188,0.6188,0.6188,,0.67,,False,0.0,0.0,0.0,0.0,0.0,21.8308,12.3544,0.003,True,False,Mode(963497464),0.482,36,0.6182
1.951,THRUST_SEARCH,OPEN_LOOP,0.0134,0.01344,0.01149,0.01344,0.0,0.00612,0.619,0.619,0.619,,0.67,,False,0.0,0.0,0.0,0.0,0.0,21.8308,12.1426,0.0075,True,False,Mode(963497464),0.4925,36,0.6182
1.961,THRUST_SEARCH,OPEN_LOOP,0.0134,0.01336,0.01181,0.01336,0.0,0.00552,0.6192,0.6192,0.6192,,0.67,,False,0.0,0.0,0.0,0.0,0.0,21.8308,11.8543,0.001,True,True,Mode(963497464),0.5035,36,0.6182
1.972,THRUST_SEARCH,OPEN_LOOP,0.0134,0.01338,0.01291,0.01338,0.0,0.00534,0.6194,0.6194,0.6194,,0.67,,False,0.0,0.0,0.0,0.0,0.0,21.8308,11.7642,0.003,True,False,Mode(963497464),0.5144,37,0.6192
1.983,THRUST_SEARCH,OPEN_LOOP,0.0135,0.01347,0.01387,0.01387,0.0,0.00549,0.6197,0.6197,0.6197,,0.67,,False,0.0,0.0,0.0,0.0,0.0,21.8308,11.6068,0.005,True,False,Mode(963497464),0.5249,37,0.6192
1.994,THRUST_SEARCH,OPEN_LOOP,0.0135,0.01353,0.01361,0.01361,0.0,0.00552,0.6199,0.6199,0.6199,,0.67,,False,0.0,0.0,0.0,0.0,0.0,21.8308,11.3696,0.0071,True,False,Mode(963497464),0.5357,37,0.6192
2.005,THRUST_SEARCH,OPEN_LOOP,0.0136,0.0136,0.01367,0.01367,0.0,0.00555,0.6201,0.6201,0.6201,,0.67,,False,0.0,0.0,0.0,0.0,0.0,21.8308,10.888,0.0031,True,False,Mode(963497464),0.5468,37,0.6192
2.015,THRUST_SEARCH,OPEN_LOOP,0.0137,0.01375,0.01468,0.01468,0.0,0.00591,0.6203,0.6203,0.6203,,0.67,,False,0.0,0.0,0.0,0.0,0.0,21.8308,10.5879,0.0045,True,True,Mode(963497464),0.5571,37,0.6192
2.026,THRUST_SEARCH,OPEN_LOOP,0.0139,0.01391,0.015,0.015,0.0,0.00633,0.6205,0.6205,0.6205,,0.67,,False,0.0,0.0,0.0,0.0,0.0,21.8308,10.2876,0.007,True,False,Mode(963497464),0.5681,38,0.6203
2.037,THRUST_SEARCH,OPEN_LOOP,0.0142,0.01418,0.01623,0.01623,0.0,0.00713,0.6207,0.6207,0.6207,,0.67,,False,0.0,0.0,0.0,0.0,0.0,21.8308,9.5905,0.0006,True,False,Mode(963497464),0.5791,38,0.6203
2.048,THRUST_SEARCH,OPEN_LOOP,0.0144,0.01438,0.01569,0.01569,0.0,0.00764,0.621,0.621,0.621,,0.67,,False,0.0,0.0,0.0,0.0,0.0,21.8308,9.2616,0.003,True,False,Mode(963497464),0.5901,38,0.6203
2.059,THRUST_SEARCH,OPEN_LOOP,0.0146,0.01463,0.01642,0.01642,0.0,0.00834,0.6212,0.6212,0.6212,,0.67,,False,0.0,0.0,0.0,0.0,0.0,21.8308,8.9054,0.0075,True,False,Mode(963497464),0.6006,38,0.6203
2.07,THRUST_SEARCH,OPEN_LOOP,0.0148,0.01476,0.01521,0.01521,0.0,0.00851,0.6214,0.6214,0.6214,,0.67,,False,0.0,0.0,0.0,0.0,0.0,21.8308,8.2318,0.001,True,True,Mode(963497464),0.6115,38,0.6203
2.081,THRUST_SEARCH,OPEN_LOOP,0.0148,0.01481,0.01434,0.01481,0.0,0.00833,0.6216,0.6216,0.6216,,0.67,,False,0.0,0.0,0.0,0.0,0.0,21.8308,8.0573,0.003,True,False,Mode(963497464),0.6225,39,0.6214
2.092,THRUST_SEARCH,OPEN_LOOP,0.0148,0.01484,0.01424,0.01484,0.0,0.00809,0.6218,0.6218,0.6218,,0.67,,False,0.0,0.0,0.0,0.0,0.0,21.8308,7.9191,0.004,True,False,Mode(963497464),0.6335,39,0.6214
2.103,THRUST_SEARCH,OPEN_LOOP,0.0149,0.01493,0.01486,0.01493,0.0,0.00806,0.6221,0.6221,0.6221,,0.67,,False,0.0,0.0,0.0,0.0,0.0,21.8308,7.5413,0.0014,True,False,Mode(963497464),0.6454,39,0.6214
2.114,THRUST_SEARCH,OPEN_LOOP,0.015,0.015,0.01479,0.015,0.0,0.00798,0.6223,0.6223,0.6223,,0.67,,False,0.0,0.0,0.0,0.0,0.0,21.8308,7.3932,0.003,True,False,Mode(963497464),0.6564,39,0.6214
2.126,THRUST_SEARCH,OPEN_LOOP,0.0151,0.01506,0.01478,0.01506,0.0,0.00787,0.6225,0.6225,0.6225,,0.67,,False,0.0,0.0,0.0,0.0,0.0,21.8308,7.3398,0.004,True,True,Mode(963497464),0.6673,39,0.6214
2.136,THRUST_SEARCH,OPEN_LOOP,0.0151,0.01506,0.01408,0.01506,0.0,0.00749,0.6227,0.6227,0.6227,,0.67,,False,0.0,0.0,0.0,0.0,0.0,21.8308,7.3085,0.006,True,False,Mode(963497464),0.6783,40,0.6225
2.147,THRUST_SEARCH,OPEN_LOOP,0.0149,0.01495,0.01293,0.01495,0.0,0.00669,0.6229,0.6229,0.6229,,0.67,,False,0.0,0.0,0.0,0.0,0.0,21.8308,7.0541,0.004,True,False,Mode(963497464),0.6893,40,0.6225
2.158,THRUST_SEARCH,OPEN_LOOP,0.0148,0.01477,0.01215,0.01477,0.0,0.00567,0.6232,0.6232,0.6232,,0.67,,False,0.0,0.0,0.0,0.0,0.0,21.8308,6.9161,0.006,True,False,Mode(963497464),0.6997,40,0.6225
2.168,THRUST_SEARCH,OPEN_LOOP,0.0147,0.01466,0.0129,0.01466,0.0,0.00498,0.6234,0.6234,0.6234,,0.67,,False,0.0,0.0,0.0,0.0,0.0,21.8308,6.6857,0.0075,True,False,Mode(963497464),0.7102,40,0.6225
2.179,THRUST_SEARCH,OPEN_LOOP,0.0146,0.01462,0.01359,0.01462,0.0,0.00458,0.6236,0.6236,0.6236,,0.67,,False,0.0,0.0,0.0,0.0,0.0,21.8308,6.0135,0.001,True,True,Mode(963497464),0.7212,40,0.6225
2.19,THRUST_SEARCH,OPEN_LOOP,0.0145,0.0145,0.01275,0.0145,0.0,0.00389,0.6238,0.6238,0.6238,,0.67,,False,0.0,0.0,0.0,0.0,0.0,21.8308,5.7266,0.003,True,False,Mode(963497464),0.7322,41,0.6236
2.201,THRUST_SEARCH,OPEN_LOOP,0.0144,0.01439,0.01274,0.01439,0.0,0.00325,0.624,0.624,0.624,,0.67,,False,0.0,0.0,0.0,0.0,0.0,21.8308,5.51,0.008,True,False,Mode(963497464),0.7431,41,0.6236
2.212,THRUST_SEARCH,OPEN_LOOP,0.0143,0.01427,0.01263,0.01427,0.0,0.00261,0.6242,0.6242,0.6242,,0.67,,False,0.0,0.0,0.0,0.0,0.0,21.8308,5.2568,0.001,True,False,Mode(963497464),0.7541,41,0.6236
2.223,THRUST_SEARCH,OPEN_LOOP,0.0142,0.01418,0.01285,0.01418,0.0,0.00209,0.6245,0.6245,0.6245,,0.67,,False,0.0,0.0,0.0,0.0,0.0,21.8308,4.8269,0.003,True,False,Mode(963497464),0.7651,41,0.6236
2.234,THRUST_SEARCH,OPEN_LOOP,0.0141,0.01408,0.01281,0.01408,0.0,0.0016,0.6247,0.6247,0.6247,,0.67,,False,0.0,0.0,0.0,0.0,0.0,21.8308,4.4518,0.0045,True,True,Mode(963497464),0.7756,41,0.6236
2.245,THRUST_SEARCH,OPEN_LOOP,0.0142,0.01416,0.01486,0.01486,0.0,0.00187,0.6249,0.6249,0.6249,,0.67,,False,0.0,0.0,0.0,0.0,0.0,21.8308,3.3012,0.001,True,False,Mode(963497464),0.7865,42,0.6247
2.256,THRUST_SEARCH,OPEN_LOOP,0.0143,0.01432,0.01576,0.01576,0.0,0.00243,0.6251,0.6251,0.6251,,0.67,,False,0.0,0.0,0.0,0.0,0.0,21.8308,2.6704,0.004,True,False,Mode(963497464),0.7977,42,0.6247
2.267,THRUST_SEARCH,OPEN_LOOP,0.0144,0.01444,0.01546,0.01546,0.0,0.00283,0.6253,0.6253,0.6253,,0.67,,False,0.0,0.0,0.0,0.0,0.0,21.8308,2.1973,0.0067,True,False,Mode(963497464),0.809,42,0.6247
2.278,THRUST_SEARCH,OPEN_LOOP,0.0146,0.01458,0.01568,0.01568,0.0,0.00326,0.6256,0.6256,0.6256,,0.67,,False,0.0,0.0,0.0,0.0,0.0,21.8308,1.7284,0.0,True,False,Mode(963497464),0.8199,42,0.6247
2.288,THRUST_SEARCH,OPEN_LOOP,0.0148,0.01476,0.01631,0.01631,0.0,0.00387,0.6258,0.6258,0.6258,,0.67,,False,0.0,0.0,0.0,0.0,0.0,21.8308,1.3787,0.0015,True,True,Mode(963497464),0.8304,42,0.6247
2.299,THRUST_SEARCH,OPEN_LOOP,0.0149,0.01486,0.01553,0.01553,0.0,0.00413,0.626,0.626,0.626,,0.67,,False,0.0,0.0,0.0,0.0,0.0,21.8308,0.773,0.006,True,False,Mode(963497464),0.8414,43,0.6258
2.31,THRUST_SEARCH,OPEN_LOOP,0.0149,0.01495,0.01535,0.01535,0.0,0.00429,0.6262,0.6262,0.6262,,0.67,,False,0.0,0.0,0.0,0.0,0.0,21.8308,0.2871,0.008,True,False,Mode(963497464),0.8524,43,0.6258
2.321,THRUST_SEARCH,OPEN_LOOP,0.0151,0.01507,0.01586,0.01586,0.0,0.0046,0.6264,0.6264,0.6264,,0.67,,False,0.0,0.0,0.0,0.0,0.0,21.8308,-1.2412,0.001,True,False,Mode(963497464),0.8633,43,0.6258
2.332,THRUST_SEARCH,OPEN_LOOP,0.0152,0.01524,0.01653,0.01653,0.0,0.0051,0.6266,0.6266,0.6266,,0.67,,False,0.0,0.0,0.0,0.0,0.0,21.8308,-1.8217,0.003,True,False,Mode(963497464),0.8743,43,0.6258
2.344,THRUST_SEARCH,OPEN_LOOP,0.0154,0.01536,0.01606,0.01606,0.0,0.00538,0.6269,0.6269,0.6269,,0.67,,False,0.0,0.0,0.0,0.0,0.0,21.8308,-2.2385,0.0075,True,True,Mode(963497464),0.8848,43,0.6258
2.354,THRUST_SEARCH,OPEN_LOOP,0.0155,0.01554,0.01679,0.01679,0.0,0.00587,0.6271,0.6271,0.6271,,0.67,,False,0.0,0.0,0.0,0.0,0.0,21.8308,-3.1034,0.0009,True,False,Mode(963497464),0.8956,44,0.6269
2.365,THRUST_SEARCH,OPEN_LOOP,0.0156,0.01562,0.01582,0.01582,0.0,0.00594,0.6273,0.6273,0.6273,,0.67,,False,0.0,0.0,0.0,0.0,0.0,21.8308,-3.4341,0.003,True,False,Mode(963497464),0.9066,44,0.6269
2.376,THRUST_SEARCH,OPEN_LOOP,0.0156,0.01561,0.01477,0.01561,0.0,0.00562,0.6275,0.6275,0.6275,,0.67,,False,0.0,0.0,0.0,0.0,0.0,21.8308,-3.6791,0.005,True,False,Mode(963497464),0.9176,44,0.6269
2.387,THRUST_SEARCH,OPEN_LOOP,0.0157,0.01571,0.01613,0.01613,0.0,0.00578,0.6277,0.6277,0.6277,,0.67,,False,0.0,0.0,0.0,0.0,0.0,21.8308,-4.2622,0.0013,True,False,Mode(963497464),0.0,44,0.6269
2.398,THRUST_SEARCH,OPEN_LOOP,0.0159,0.01587,0.01694,0.01694,0.0,0.0062,0.628,0.628,0.628,,0.67,,False,0.0,0.0,0.0,0.0,0.0,21.8308,-4.5334,0.003,True,True,Mode(963497464),0.011,44,0.6269
2.408,THRUST_SEARCH,OPEN_LOOP,0.0159,0.01592,0.01566,0.01592,0.0,0.0061,0.6282,0.6282,0.6282,,0.67,,False,0.0,0.0,0.0,0.0,0.0,21.8308,-4.6721,0.0045,True,False,Mode(963497464),0.0215,45,0.628
2.419,THRUST_SEARCH,OPEN_LOOP,0.0159,0.01594,0.01554,0.01594,0.0,0.00594,0.6284,0.6284,0.6284,,0.67,,False,0.0,0.0,0.0,0.0,0.0,21.8308,-4.8101,0.001,True,False,Mode(963497464),0.0324,45,0.628
2.43,THRUST_SEARCH,OPEN_LOOP,0.0159,0.01593,0.01506,0.01593,0.0,0.00561,0.6286,0.6286,0.6286,,0.67,,False,0.0,0.0,0.0,0.0,0.0,21.8308,-4.8782,0.003,True,False,Mode(963497464),0.0429,45,0.628
2.441,THRUST_SEARCH,OPEN_LOOP,0.0158,0.01577,0.0135,0.01577,0.0,0.00472,0.6288,0.6288,0.6288,,0.67,,False,0.0,0.0,0.0,0.0,0.0,21.8308,-4.8986,0.005,True,False,Mode(963497464),0.0539,45,0.628
2.452,THRUST_SEARCH,OPEN_LOOP,0.0156,0.01559,0.01313,0.01559,0.0,0.00376,0.629,0.629,0.629,,0.67,,False,0.0,0.0,0.0,0.0,0.0,21.8308,-4.9622,0.007,True,True,Mode(963497464),0.0652,45,0.628
2.463,THRUST_SEARCH,OPEN_LOOP,0.0155,0.0155,0.01406,0.0155,0.0,0.00319,0.6293,0.6293,0.6293,,0.67,,False,0.0,0.0,0.0,0.0,0.0,21.8308,-5.3195,0.0006,True,False,Mode(963497464),0.0763,46,0.629
2.474,THRUST_SEARCH,OPEN_LOOP,0.0154,0.01541,0.01413,0.01541,0.0,0.00269,0.6295,0.6295,0.6295,,0.67,,False,0.0,0.0,0.0,0.0,0.0,21.8308,-5.5607,0.006,True,False,Mode(963497464),0.0872,46,0.629
2.485,THRUST_SEARCH,OPEN_LOOP,0.0153,0.01525,0.01327,0.01525,0.0,0.00191,0.6297,0.6297,0.6297,,0.67,,False,0.0,0.0,0.0,0.0,0.0,21.8308,-5.7095,0.0075,True,False,Mode(963497464),0.0977,46,0.629
2.495,THRUST_SEARCH,OPEN_LOOP,0.0151,0.0151,0.01321,0.0151,0.0,0.00118,0.6299,0.6299,0.6299,,0.67,,False,0.0,0.0,0.0,0.0,0.0,21.8308,-5.9458,0.002,True,False,Mode(963497464),0.1087,46,0.629
2.507,THRUST_SEARCH,OPEN_LOOP,0.0148,0.01484,0.01201,0.01484,0.0,7e-05,0.6301,0.6301,0.6301,,0.67,,False,0.0,0.0,0.0,0.0,0.0,21.8308,-6.1373,0.004,True,True,Mode(963497464),0.12,46,0.629
2.518,THRUST_SEARCH,OPEN_LOOP,0.0145,0.01451,0.01104,0.01451,0.0,-0.0013,0.6304,0.6304,0.6304,,0.67,,False,0.0,0.0,0.0,0.0,0.0,21.8308,-6.4247,0.006,True,False,Mode(963497464),0.1309,47,0.6301
2.529,THRUST_SEARCH,OPEN_LOOP,0.0143,0.01429,0.01215,0.01429,0.0,-0.00214,0.6306,0.6306,0.6306,,0.67,,False,0.0,0.0,0.0,0.0,0.0,21.8308,-7.0701,0.0013,True,False,Mode(963497464),0.1422,47,0.6301
2.54,THRUST_SEARCH,OPEN_LOOP,0.0142,0.01419,0.01336,0.01419,0.0,-0.00247,0.6308,0.6308,0.6308,,0.67,,False,0.0,0.0,0.0,0.0,0.0,21.8308,-7.6098,0.003,True,False,Mode(963497464),0.1532,47,0.6301
2.55,THRUST_SEARCH,OPEN_LOOP,0.0141,0.01414,0.01391,0.01414,0.0,-0.00256,0.631,0.631,0.631,,0.67,,False,0.0,0.0,0.0,0.0,0.0,21.8308,-8.1527,0.0074,True,False,Mode(963497464),0.1636,47,0.6301
2.561,THRUST_SEARCH,OPEN_LOOP,0.0141,0.01413,0.01433,0.01433,0.0,-0.00248,0.6312,0.6312,0.6312,,0.67,,False,0.0,0.0,0.0,0.0,0.0,21.8308,-9.0305,0.001,True,True,Mode(963497464),0.1746,47,0.6301
2.573,THRUST_SEARCH,OPEN_LOOP,0.0141,0.01415,0.01457,0.01457,0.0,-0.00232,0.6315,0.6315,0.6315,,0.67,,False,0.0,0.0,0.0,0.0,0.0,21.8308,-9.4183,0.003,True,False,Mode(963497464),0.186,48,0.6312
2.583,THRUST_SEARCH,OPEN_LOOP,0.0141,0.01406,0.01336,0.01406,0.0,-0.00259,0.6317,0.6317,0.6317,,0.67,,False,0.0,0.0,0.0,0.0,0.0,21.8308,-9.8062,0.0045,True,False,Mode(963497464),0.1965,48,0.6312
2.594,THRUST_SEARCH,OPEN_LOOP,0.0141,0.01407,0.01452,0.01452,0.0,-0.00241,0.6319,0.6319,0.6319,,0.67,,False,0.0,0.0,0.0,0.0,0.0,21.8308,-10.5011,0.001,True,False,Mode(963497464),0.2075,48,0.6312
2.605,THRUST_SEARCH,OPEN_LOOP,0.0142,0.01421,0.016,0.016,0.0,-0.00171,0.6321,0.6321,0.6321,,0.67,,False,0.0,0.0,0.0,0.0,0.0,21.8308,-10.8787,0.003,True,False,Mode(963497464),0.2184,48,0.6312
2.616,THRUST_SEARCH,OPEN_LOOP,0.0144,0.01438,0.01628,0.01628,0.0,-0.00097,0.6323,0.6323,0.6323,,0.67,,False,0.0,0.0,0.0,0.0,0.0,21.8308,-11.2601,0.0045,True,True,Mode(963497464),0.2289,48,0.6312
2.627,THRUST_SEARCH,OPEN_LOOP,0.0145,0.01447,0.01562,0.01562,0.0,-0.00052,0.6325,0.6325,0.6325,,0.67,,False,0.0,0.0,0.0,0.0,0.0,21.8308,-11.6464,0.007,True,False,Mode(963497464),0.2399,49,0.6323
2.638,THRUST_SEARCH,OPEN_LOOP,0.0146,0.01461,0.01613,0.01613,0.0,8e-05,0.6328,0.6328,0.6328,,0.67,,False,0.0,0.0,0.0,0.0,0.0,21.8308,-11.9682,0.009,True,False,Mode(963497464),0.2504,49,0.6323
2.648,THRUST_SEARCH,OPEN_LOOP,0.0147,0.01474,0.01614,0.01614,0.0,0.00062,0.633,0.633,0.633,,0.67,,False,0.0,0.0,0.0,0.0,0.0,21.8308,-12.6375,0.0047,True,False,Mode(963497464),0.2611,49,0.6323
2.659,THRUST_SEARCH,OPEN_LOOP,0.0148,0.01475,0.0148,0.0148,0.0,0.00063,0.6332,0.6332,0.6332,,0.67,,False,0.0,0.0,0.0,0.0,0.0,21.8308,-12.9318,0.0073,True,False,Mode(963497464),0.2724,49,0.6323
2.67,THRUST_SEARCH,OPEN_LOOP,0.0149,0.01486,0.01587,0.01587,0.0,0.00103,0.6334,0.6334,0.6334,,0.67,,False,0.0,0.0,0.0,0.0,0.0,21.8308,-13.5773,0.001,True,True,Mode(963497464),0.2833,49,0.6323
2.681,THRUST_SEARCH,OPEN_LOOP,0.015,0.01499,0.01632,0.01632,0.0,0.00155,0.6336,0.6336,0.6336,,0.67,,False,0.0,0.0,0.0,0.0,0.0,21.8308,-13.9933,0.003,True,False,Mode(963497464),0.2943,50,0.6334
2.692,THRUST_SEARCH,OPEN_LOOP,0.0151,0.01515,0.01662,0.01662,0.0,0.00213,0.6338,0.6338,0.6338,,0.67,,False,0.0,0.0,0.0,0.0,0.0,21.8308,-14.3659,0.0045,True,False,Mode(963497464),0.3048,50,0.6334
2.703,THRUST_SEARCH,OPEN_LOOP,0.0152,0.01524,0.016,0.016,0.0,0.00242,0.6341,0.6341,0.6341,,0.67,,False,0.0,0.0,0.0,0.0,0.0,21.8308,-15.2062,0.001,True,False,Mode(963497464),0.3158,50,0.6334
2.714,THRUST_SEARCH,OPEN_LOOP,0.0153,0.01533,0.01596,0.01596,0.0,0.00267,0.6343,0.6343,0.6343,,0.67,,False,0.0,0.0,0.0,0.0,0.0,21.8308,-15.6358,0.003,True,False,Mode(963497464),0.3267,50,0.6334
2.724,THRUST_SEARCH,OPEN_LOOP,0.0153,0.0153,0.01466,0.0153,0.0,0.00242,0.6345,0.6345,0.6345,,0.67,,False,0.0,0.0,0.0,0.0,0.0,21.8308,-16.1105,0.004,True,True,Mode(963497464),0.3377,50,0.6334
2.735,THRUST_SEARCH,OPEN_LOOP,0.0153,0.01528,0.01476,0.01528,0.0,0.00221,0.6347,0.6347,0.6347,,0.67,,False,0.0,0.0,0.0,0.0,0.0,21.8308,-16.6027,0.009,True,False,Mode(963497464),0.3487,51,0.6345
2.746,THRUST_SEARCH,OPEN_LOOP,0.0153,0.01534,0.01576,0.01576,0.0,0.00238,0.6349,0.6349,0.6349,,0.67,,False,0.0,0.0,0.0,0.0,0.0,21.8308,-17.7883,0.002,True,False,Mode(963497464),0.3596,51,0.6345
2.757,THRUST_SEARCH,OPEN_LOOP,0.0154,0.01544,0.01628,0.01628,0.0,0.00271,0.6351,0.6351,0.6351,,0.67,,False,0.0,0.0,0.0,0.0,0.0,21.8308,-18.4319,0.004,True,False,Mode(963497464),0.3706,51,0.6345
2.769,THRUST_SEARCH,OPEN_LOOP,0.0155,0.01549,0.0156,0.0156,0.0,0.00275,0.6354,0.6354,0.6354,,0.67,,False,0.0,0.0,0.0,0.0,0.0,21.8308,-19.0532,0.006,True,False,Mode(963497464),0.382,51,0.6345
2.779,THRUST_SEARCH,OPEN_LOOP,0.0156,0.01556,0.01602,0.01602,0.0,0.00293,0.6356,0.6356,0.6356,,0.67,,False,0.0,0.0,0.0,0.0,0.0,21.8308,-20.194,0.0015,True,True,Mode(963497464),0.3925,51,0.6345
2.791,THRUST_SEARCH,OPEN_LOOP,0.0156,0.01562,0.01587,0.01587,0.0,0.00303,0.6358,0.6358,0.6358,,0.67,,False,0.0,0.0,0.0,0.0,0.0,21.8308,-20.7365,0.003,True,False,Mode(963497464),0.4035,52,0.6356
2.801,THRUST_SEARCH,OPEN_LOOP,0.0156,0.01556,0.01464,0.01556,0.0,0.00267,0.636,0.636,0.636,,0.67,,False,0.0,0.0,0.0,0.0,0.0,21.8308,-21.2606,0.008,True,False,Mode(963497464),0.4145,52,0.6356
2.812,THRUST_SEARCH,OPEN_LOOP,0.0156,0.0156,0.01566,0.01566,0.0,0.0027,0.6362,0.6362,0.6362,,0.67,,False,0.0,0.0,0.0,0.0,0.0,21.8308,-22.2023,0.001,True,False,Mode(963497464),0.4254,52,0.6356
2.823,THRUST_SEARCH,OPEN_LOOP,0.0157,0.01571,0.0166,0.0166,0.0,0.00304,0.6365,0.6365,0.6365,,0.67,,False,0.0,0.0,0.0,0.0,0.0,21.8308,-22.6813,0.003,True,False,Mode(963497464),0.4364,52,0.6356
2.834,THRUST_SEARCH,OPEN_LOOP,0.0158,0.01579,0.01631,0.01631,0.0,0.00325,0.6367,0.6367,0.6367,,0.67,,False,0.0,0.0,0.0,0.0,0.0,21.8308,-23.1018,0.0045,True,True,Mode(963497464),0.4469,52,0.6356
2.845,THRUST_SEARCH,OPEN_LOOP,0.0159,0.01585,0.01612,0.01612,0.0,0.00335,0.6369,0.6369,0.6369,,0.67,,False,0.0,0.0,0.0,0.0,0.0,21.8308,-23.8141,0.001,True,False,Mode(963497464),0.4579,53,0.6367
2.856,THRUST_SEARCH,OPEN_LOOP,0.0159,0.01593,0.01631,0.01631,0.0,0.0035,0.6371,0.6371,0.6371,,0.67,,False,0.0,0.0,0.0,0.0,0.0,21.8308,-24.1487,0.003,True,False,Mode(963497464),0.4688,53,0.6367
2.866,THRUST_SEARCH,OPEN_LOOP,0.0159,0.01592,0.01549,0.01592,0.0,0.00334,0.6373,0.6373,0.6373,,0.67,,False,0.0,0.0,0.0,0.0,0.0,21.8308,-24.4804,0.0045,True,False,Mode(963497464),0.4793,53,0.6367
2.877,THRUST_SEARCH,OPEN_LOOP,0.0159,0.01585,0.01474,0.01585,0.0,0.0029,0.6375,0.6375,0.6375,,0.67,,False,0.0,0.0,0.0,0.0,0.0,21.8308,-24.7667,0.007,True,False,Mode(963497464),0.4902,53,0.6367
2.889,THRUST_SEARCH,OPEN_LOOP,0.0159,0.01585,0.01551,0.01585,0.0,0.00277,0.6378,0.6378,0.6378,,0.67,,False,0.0,0.0,0.0,0.0,0.0,21.8308,-25.0544,0.009,True,True,Mode(963497464),0.5007,53,0.6367
2.898,THRUST_SEARCH,OPEN_LOOP,0.0159,0.01593,0.01651,0.01651,0.0,0.00299,0.638,0.638,0.638,,0.67,,False,0.0,0.0,0.0,0.0,0.0,21.8308,-25.7526,0.0037,True,False,Mode(963497464),0.5114,54,0.6378
2.909,THRUST_SEARCH,OPEN_LOOP,0.016,0.01602,0.01663,0.01663,0.0,0.00323,0.6382,0.6382,0.6382,,0.67,,False,0.0,0.0,0.0,0.0,0.0,21.8308,-26.0912,0.006,True,False,Mode(963497464),0.5224,54,0.6378
2.92,THRUST_SEARCH,OPEN_LOOP,0.0162,0.01624,0.01815,0.01815,0.0,0.00397,0.6384,0.6384,0.6384,,0.67,,False,0.0,0.0,0.0,0.0,0.0,21.8308,-26.7652,0.002,True,False,Mode(963497464),0.5333,54,0.6378
2.931,THRUST_SEARCH,OPEN_LOOP,0.0165,0.01648,0.01861,0.01861,0.0,0.0048,0.6386,0.6386,0.6386,,0.67,,False,0.0,0.0,0.0,0.0,0.0,21.8308,-27.0796,0.004,True,False,Mode(963497464),0.5445,54,0.6378
2.942,THRUST_SEARCH,OPEN_LOOP,0.0168,0.0168,0.01956,0.01956,0.0,0.00588,0.6388,0.6388,0.6388,,0.67,,False,0.0,0.0,0.0,0.0,0.0,21.8308,-27.3554,0.006,True,True,Mode(963497464),0.5554,54,0.6378
2.953,THRUST_SEARCH,OPEN_LOOP,0.0172,0.01717,0.02043,0.02043,0.0,0.00715,0.6391,0.6391,0.6391,,0.67,,False,0.0,0.0,0.0,0.0,0.0,21.8308,-27.6323,0.008,True,False,Mode(963497464),0.5664,55,0.6388
2.964,THRUST_SEARCH,OPEN_LOOP,0.0178,0.01775,0.0231,0.0231,0.0,0.00924,0.6393,0.6393,0.6393,,0.67,,False,0.0,0.0,0.0,0.0,0.0,21.8308,-28.0338,0.004,True,False,Mode(963497464),0.5774,55,0.6388
2.975,THRUST_SEARCH,OPEN_LOOP,0.0184,0.01835,0.02363,0.02363,0.0,0.01131,0.6395,0.6395,0.6395,,0.67,,False,0.0,0.0,0.0,0.0,0.0,21.8308,-28.2303,0.006,True,False,Mode(963497464),0.5884,55,0.6388
2.986,THRUST_SEARCH,OPEN_LOOP,0.019,0.01896,0.02417,0.02417,0.0,0.01334,0.6397,0.6397,0.6397,,0.67,,False,0.0,0.0,0.0,0.0,0.0,21.8308,-28.4767,0.0081,True,False,Mode(963497464),0.599,55,0.6388
2.997,THRUST_SEARCH,OPEN_LOOP,0.0197,0.0197,0.0259,0.0259,0.0,0.01576,0.6399,0.6399,0.6399,,0.67,,False,0.0,0.0,0.0,0.0,0.0,21.8308,-29.0656,0.001,True,True,Mode(963497464),0.61,55,0.6388
3.008,THRUST_SEARCH,OPEN_LOOP,0.0204,0.02042,0.02611,0.02611,0.0,0.018,0.6402,0.6402,0.6402,,0.67,,False,0.0,0.0,0.0,0.0,0.0,21.8308,-29.4209,0.007,True,False,Mode(963497464),0.6215,56,0.6399
3.019,THRUST_SEARCH,OPEN_LOOP,0.0212,0.02118,0.02716,0.02716,0.0,0.02034,0.6404,0.6404,0.6404,,0.67,,False,0.0,0.0,0.0,0.0,0.0,21.8308,-30.1524,0.0007,True,False,Mode(963497464),0.6323,56,0.6399
3.03,THRUST_SEARCH,OPEN_LOOP,0.022,0.02197,0.02794,0.02794,0.0,0.02269,0.6406,0.6406,0.6406,,0.67,,False,0.0,0.0,0.0,0.0,0.0,21.8308,-30.4942,0.003,True,False,Mode(963497464),0.6432,56,0.6399
3.041,THRUST_SEARCH,OPEN_LOOP,0.0227,0.02271,0.02795,0.02795,0.0,0.02474,0.6408,0.6408,0.6408,,0.67,,False,0.0,0.0,0.0,0.0,0.0,21.8308,-30.7407,0.005,True,False,Mode(963497464),0.6542,56,0.6399
3.052,THRUST_SEARCH,OPEN_LOOP,0.0235,0.02347,0.02851,0.02851,0.0,0.02672,0.641,0.641,0.641,,0.67,,False,0.0,0.0,0.0,0.0,0.0,21.8308,-30.8278,0.007,True,True,Mode(963497464),0.6653,56,0.6399
3.063,THRUST_SEARCH,OPEN_LOOP,0.0242,0.02422,0.02905,0.02905,0.0,0.02862,0.6413,0.6413,0.6413,,0.67,,False,0.0,0.0,0.0,0.0,0.0,21.8308,-31.1705,0.003,True,False,Mode(963497464),0.6763,57,0.641
3.074,THRUST_SEARCH,OPEN_LOOP,0.0249,0.02492,0.02916,0.02916,0.0,0.03028,0.6415,0.6415,0.6415,,0.67,,False,0.0,0.0,0.0,0.0,0.0,21.8308,-31.4524,0.0045,True,False,Mode(963497464),0.6868,57,0.641
3.085,THRUST_SEARCH,OPEN_LOOP,0.0255,0.02552,0.02841,0.02841,0.0,0.03141,0.6417,0.6417,0.6417,,0.67,,False,0.0,0.0,0.0,0.0,0.0,21.8308,-31.8331,0.007,True,False,Mode(963497464),0.6977,57,0.641
3.095,THRUST_SEARCH,OPEN_LOOP,0.0261,0.02609,0.02865,0.02865,0.0,0.03241,0.6419,0.6419,0.6419,,0.67,,False,0.0,0.0,0.0,0.0,0.0,21.8308,-32.2325,0.009,True,False,Mode(963497464),0.7082,57,0.641
3.106,THRUST_SEARCH,OPEN_LOOP,0.0267,0.02672,0.02961,0.02961,0.0,0.03354,0.6421,0.6421,0.6421,,0.67,,False,0.0,0.0,0.0,0.0,0.0,21.8308,-33.0088,0.002,True,True,Mode(963497464),0.7192,57,0.641
3.117,THRUST_SEARCH,OPEN_LOOP,0.0273,0.0273,0.02941,0.02941,0.0,0.03436,0.6423,0.6423,0.6423,,0.67,,False,0.0,0.0,0.0,0.0,0.0,21.8308,-33.2039,0.007,True,False,Mode(963497464),0.7305,58,0.6421
3.128,THRUST_SEARCH,OPEN_LOOP,0.0278,0.02781,0.02918,0.02918,0.0,0.0349,0.6426,0.6426,0.6426,,0.67,,False,0.0,0.0,0.0,0.0,0.0,21.8308,-33.3428,0.009,True,False,Mode(963497464),0.7415,58,0.6421
3.139,THRUST_SEARCH,OPEN_LOOP,0.0282,0.02823,0.02862,0.02862,0.0,0.03505,0.6428,0.6428,0.6428,,0.67,,False,0.0,0.0,0.0,0.0,0.0,21.8308,-33.5699,0.004,True,False,Mode(963497464),0.7525,58,0.6421
3.151,THRUST_SEARCH,OPEN_LOOP,0.0286,0.02859,0.02824,0.02859,0.0,0.03491,0.643,0.643,0.643,,0.67,,False,0.0,0.0,0.0,0.0,0.0,21.8308,-33.7022,0.007,True,False,Mode(963497464),0.7638,58,0.6421
3.163,THRUST_SEARCH,OPEN_LOOP,0.0288,0.02882,0.02731,0.02882,0.0,0.03432,0.6432,0.6432,0.6432,,0.67,,False,0.0,0.0,0.0,0.0,0.0,21.8308,-33.9301,0.009,True,True,Mode(963497464),0.7743,58,0.6421
3.172,THRUST_SEARCH,OPEN_LOOP,0.0291,0.02907,0.02774,0.02907,0.0,0.0338,0.6434,0.6434,0.6434,,0.67,,False,0.0,0.0,0.0,0.0,0.0,21.8308,-34.6802,0.004,True,False,Mode(963497464),0.7853,59,0.6432
3.183,THRUST_SEARCH,OPEN_LOOP,0.0293,0.02928,0.02756,0.02928,0.0,0.03313,0.6437,0.6437,0.6437,,0.67,,False,0.0,0.0,0.0,0.0,0.0,21.8308,-35.0606,0.006,True,False,Mode(963497464),0.7963,59,0.6432
3.194,THRUST_SEARCH,OPEN_LOOP,0.0294,0.0294,0.02704,0.0294,0.0,0.03221,0.6439,0.6439,0.6439,,0.67,,False,0.0,0.0,0.0,0.0,0.0,21.8308,-35.4064,0.0075,True,False,Mode(963497464),0.8067,59,0.6432
3.205,THRUST_SEARCH,OPEN_LOOP,0.0294,0.02942,0.02586,0.02942,0.0,0.03081,0.6441,0.6441,0.6441,,0.67,,False,0.0,0.0,0.0,0.0,0.0,21.8308,-36.2363,0.001,True,False,Mode(963497464),0.8177,59,0.6432
3.215,THRUST_SEARCH,OPEN_LOOP,0.0294,0.02936,0.02518,0.02936,0.0,0.02918,0.6443,0.6443,0.6443,,0.67,,False,0.0,0.0,0.0,0.0,0.0,21.8308,-36.6071,0.003,True,True,Mode(963497464),0.8287,59,0.6432
3.226,THRUST_SEARCH,OPEN_LOOP,0.0293,0.02926,0.02477,0.02926,0.0,0.02742,0.6445,0.6445,0.6445,,0.67,,False,0.0,0.0,0.0,0.0,0.0,21.8308,-36.9634,0.008,True,False,Mode(963497464),0.8397,60,0.6443
3.237,THRUST_SEARCH,OPEN_LOOP,0.0292,0.02918,0.02521,0.02918,0.0,0.02587,0.6447,0.6447,0.6447,,0.67,,False,0.0,0.0,0.0,0.0,0.0,21.8308,-37.6471,0.001,True,False,Mode(963497464),0.8506,60,0.6443
3.248,THRUST_SEARCH,OPEN_LOOP,0.0292,0.02917,0.02602,0.02917,0.0,0.02463,0.645,0.645,0.645,,0.67,,False,0.0,0.0,0.0,0.0,0.0,21.8308,-37.9093,0.003,True,False,Mode(963497464),0.8616,60,0.6443
3.259,THRUST_SEARCH,OPEN_LOOP,0.0293,0.02926,0.02745,0.02926,0.0,0.02393,0.6452,0.6452,0.6452,,0.67,,False,0.0,0.0,0.0,0.0,0.0,21.8308,-38.1658,0.0075,True,False,Mode(963497464),0.8721,60,0.6443
3.27,THRUST_SEARCH,OPEN_LOOP,0.0295,0.02951,0.02934,0.02951,0.0,0.02386,0.6454,0.6454,0.6454,,0.67,,False,0.0,0.0,0.0,0.0,0.0,21.8308,-39.0671,0.0013,True,True,Mode(963497464),0.8834,60,0.6443
3.281,THRUST_SEARCH,OPEN_LOOP,0.0298,0.02981,0.03017,0.03017,0.0,0.02401,0.6456,0.6456,0.6456,,0.67,,False,0.0,0.0,0.0,0.0,0.0,21.8308,-39.7146,0.003,True,False,Mode(963497464),0.8943,61,0.6454
3.292,THRUST_SEARCH,OPEN_LOOP,0.0302,0.0302,0.03171,0.03171,0.0,0.0246,0.6458,0.6458,0.6458,,0.67,,False,0.0,0.0,0.0,0.0,0.0,21.8308,-40.2023,0.0045,True,False,Mode(963497464),0.9048,61,0.6454
3.303,THRUST_SEARCH,OPEN_LOOP,0.0308,0.03084,0.03476,0.03476,0.0,0.02613,0.6461,0.6461,0.6461,,0.67,,False,0.0,0.0,0.0,0.0,0.0,21.8308,-40.5854,0.001,True,False,Mode(963497464),0.9158,61,0.6454
3.314,THRUST_SEARCH,OPEN_LOOP,0.0316,0.03161,0.03672,0.03672,0.0,0.02813,0.6463,0.6463,0.6463,,0.67,,False,0.0,0.0,0.0,0.0,0.0,21.8308,-40.5163,0.003,True,False,Mode(963497464),0.9268,61,0.6454
3.325,THRUST_SEARCH,OPEN_LOOP,0.0325,0.03245,0.03812,0.03812,0.0,0.03035,0.6465,0.6465,0.6465,,0.67,,False,0.0,0.0,0.0,0.0,0.0,21.8308,-40.4332,0.005,True,True,Mode(963497464),0.9377,61,0.6454
3.335,THRUST_SEARCH,OPEN_LOOP,0.0334,0.03344,0.04029,0.04029,0.0,0.03303,0.6467,0.6467,0.6467,,0.67,,False,0.0,0.0,0.0,0.0,0.0,21.8308,-40.4328,0.007,True,False,Mode(963497464),0.9487,62,0.6465
3.346,THRUST_SEARCH,OPEN_LOOP,0.0344,0.0344,0.04097,0.04097,0.0,0.03559,0.6469,0.6469,0.6469,,0.67,,False,0.0,0.0,0.0,0.0,0.0,21.8308,-40.6536,0.009,True,False,Mode(963497464),0.9592,62,0.6465
