time,state,controller_mode,target_z,curr_z,raw_z,height_for_safety,target_vz,curr_vz,thrust,raw_thrust,search_thrust,liftoff_thrust,hover_thrust_est,thrust_no_floor,floor_applied,a_cmd_z,v_cmd_z,z_integral,roll_cmd_deg,pitch_cmd_deg,yaw_cmd_deg,yaw_mocap_deg,mocap_age,kf_used_measurement,mavlink_sent,mav_mode,mav_heartbeat_age,mav_send_count,mav_last_thrust
0.001,THRUST_SEARCH,OPEN_LOOP,0.0001,7e-05,3e-05,7e-05,0.0,-2e-05,0.58,0.58,0.58,,0.67,,False,0.0,0.0,0.0,0.0,0.0,-171.373,-171.024,0.006,True,True,Mode(963497464),0.0,0,
0.011,THRUST_SEARCH,OPEN_LOOP,-0.0001,-6e-05,-0.00023,-6e-05,0.0,-0.00048,0.5802,0.5802,0.5802,,0.67,,False,0.0,0.0,0.0,0.0,0.0,-171.373,-170.9775,0.006,True,False,Mode(963497464),0.011,1,0.58
0.022,THRUST_SEARCH,OPEN_LOOP,-0.0001,-0.00013,-0.00024,-0.00013,0.0,-0.00093,0.5804,0.5804,0.5804,,0.67,,False,0.0,0.0,0.0,0.0,0.0,-171.373,-170.9231,0.0016,True,False,Mode(963497464),0.0215,1,0.58
0.033,THRUST_SEARCH,OPEN_LOOP,-0.0002,-0.00017,-0.00026,-0.00017,0.0,-0.00138,0.5807,0.5807,0.5807,,0.67,,False,0.0,0.0,0.0,0.0,0.0,-171.373,-170.9302,0.004,True,False,Mode(963497464),0.0325,1,0.58
0.043,THRUST_SEARCH,OPEN_LOOP,-0.0002,-0.0002,-0.00021,-0.0002,0.0,-0.00148,0.5809,0.5809,0.5809,,0.67,,False,0.0,0.0,0.0,0.0,0.0,-171.373,-170.9316,0.006,True,False,Mode(963497464),0.0435,1,0.58
0.054,THRUST_SEARCH,OPEN_LOOP,-0.0002,-0.00021,-0.00021,-0.00021,0.0,-0.00146,0.5811,0.5811,0.5811,,0.67,,False,0.0,0.0,0.0,0.0,0.0,-171.373,-170.9346,0.008,True,True,Mode(963497464),0.0545,1,0.58
0.066,THRUST_SEARCH,OPEN_LOOP,-0.0002,-0.00019,-0.0001,-0.0001,0.0,-0.00088,0.5813,0.5813,0.5813,,0.67,,False,0.0,0.0,0.0,0.0,0.0,-171.373,-170.9544,0.004,True,False,Mode(963497464),0.0655,2,0.5811
0.076,THRUST_SEARCH,OPEN_LOOP,-0.0002,-0.00017,-0.0001,-0.0001,0.0,-0.00048,0.5815,0.5815,0.5815,,0.67,,False,0.0,0.0,0.0,0.0,0.0,-171.373,-170.9698,0.006,True,False,Mode(963497464),0.0765,2,0.5811
0.087,THRUST_SEARCH,OPEN_LOOP,-0.0001,-0.00012,1e-05,1e-05,0.0,0.00023,0.5817,0.5817,0.5817,,0.67,,False,0.0,0.0,0.0,0.0,0.0,-171.373,-170.9682,0.008,True,False,Mode(963497464),0.0875,2,0.5811
0.098,THRUST_SEARCH,OPEN_LOOP,-0.0001,-9e-05,-1e-05,-1e-05,0.0,0.00061,0.582,0.582,0.582,,0.67,,False,0.0,0.0,0.0,0.0,0.0,-171.373,-170.9588,0.004,True,False,Mode(963497464),0.0985,2,0.5811
0.11,THRUST_SEARCH,OPEN_LOOP,-0.0001,-5e-05,4e-05,4e-05,0.0,0.001,0.5822,0.5822,0.5822,,0.67,,False,0.0,0.0,0.0,0.0,0.0,-171.373,-170.9499,0.006,True,True,Mode(963497464),0.1095,2,0.5811
0.12,THRUST_SEARCH,OPEN_LOOP,0.0,1e-05,0.00018,0.00018,0.0,0.00163,0.5824,0.5824,0.5824,,0.67,,False,0.0,0.0,0.0,0.0,0.0,-171.373,-170.9477,0.0075,True,False,Mode(963497464),0.1199,3,0.5822
0.131,THRUST_SEARCH,OPEN_LOOP,0.0002,0.00017,0.0006,0.0006,0.0,0.00303,0.5826,0.5826,0.5826,,0.67,,False,0.0,0.0,0.0,0.0,0.0,-171.373,-170.9442,0.0015,True,False,Mode(963497464),0.1306,3,0.5822
0.142,THRUST_SEARCH,OPEN_LOOP,0.0003,0.0003,0.00063,0.00063,0.0,0.00398,0.5828,0.5828,0.5828,,0.67,,False,0.0,0.0,0.0,0.0,0.0,-171.373,-170.9199,0.004,True,False,Mode(963497464),0.1415,3,0.5822
0.152,THRUST_SEARCH,OPEN_LOOP,0.0003,0.00033,0.00031,0.00033,0.0,0.00391,0.583,0.583,0.583,,0.67,,False,0.0,0.0,0.0,0.0,0.0,-171.373,-170.9485,0.006,True,False,Mode(963497464),0.152,3,0.5822
0.163,THRUST_SEARCH,OPEN_LOOP,0.0003,0.00035,0.00025,0.00035,0.0,0.00369,0.5833,0.5833,0.5833,,0.67,,False,0.0,0.0,0.0,0.0,0.0,-171.373,-171.0118,0.0015,True,True,Mode(963497464),0.1626,3,0.5822
0.174,THRUST_SEARCH,OPEN_LOOP,0.0004,0.00037,0.00031,0.00037,0.0,0.00355,0.5835,0.5835,0.5835,,0.67,,False,0.0,0.0,0.0,0.0,0.0,-171.373,-171.0605,0.004,True,False,Mode(963497464),0.1735,4,0.5833
0.184,THRUST_SEARCH,OPEN_LOOP,0.0004,0.00041,0.0004,0.00041,0.0,0.00353,0.5837,0.5837,0.5837,,0.67,,False,0.0,0.0,0.0,0.0,0.0,-171.373,-171.0952,0.006,True,False,Mode(963497464),0.1841,4,0.5833
0.195,THRUST_SEARCH,OPEN_LOOP,0.0004,0.00043,0.00038,0.00043,0.0,0.00344,0.5839,0.5839,0.5839,,0.67,,False,0.0,0.0,0.0,0.0,0.0,-171.373,-171.109,0.008,True,False,Mode(963497464),0.195,4,0.5833
0.206,THRUST_SEARCH,OPEN_LOOP,0.0004,0.00043,0.00024,0.00043,0.0,0.00314,0.5841,0.5841,0.5841,,0.67,,False,0.0,0.0,0.0,0.0,0.0,-171.373,-171.1024,0.001,True,False,Mode(963497464),0.206,4,0.5833
0.218,THRUST_SEARCH,OPEN_LOOP,0.0004,0.0004,0.0001,0.0004,0.0,0.00273,0.5843,0.5843,0.5843,,0.67,,False,0.0,0.0,0.0,0.0,0.0,-171.373,-171.093,0.0061,True,True,Mode(963497464),0.2171,4,0.5833
0.228,THRUST_SEARCH,OPEN_LOOP,0.0004,0.00039,0.00017,0.00039,0.0,0.00245,0.5846,0.5846,0.5846,,0.67,,False,0.0,0.0,0.0,0.0,0.0,-171.373,-171.0798,0.008,True,False,Mode(963497464),0.228,5,0.5843
0.239,THRUST_SEARCH,OPEN_LOOP,0.0004,0.00037,0.00013,0.00037,0.0,0.00217,0.5848,0.5848,0.5848,,0.67,,False,0.0,0.0,0.0,0.0,0.0,-171.373,-171.0637,0.01,True,False,Mode(963497464),0.2389,5,0.5843
0.25,THRUST_SEARCH,OPEN_LOOP,0.0004,0.00036,0.00019,0.00036,0.0,0.00198,0.585,0.585,0.585,,0.67,,False,0.0,0.0,0.0,0.0,0.0,-171.373,-171.0964,0.0037,True,False,Mode(963497464),0.2496,5,0.5843
0.261,THRUST_SEARCH,OPEN_LOOP,0.0003,0.00034,0.00012,0.00034,0.0,0.00176,0.5852,0.5852,0.5852,,0.67,,False,0.0,0.0,0.0,0.0,0.0,-171.373,-171.0836,0.006,True,False,Mode(963497464),0.2606,5,0.5843
0.272,THRUST_SEARCH,OPEN_LOOP,0.0003,0.00033,0.00011,0.00033,0.0,0.00155,0.5854,0.5854,0.5854,,0.67,,False,0.0,0.0,0.0,0.0,0.0,-171.373,-171.0955,0.008,True,True,Mode(963497464),0.2715,5,0.5843
0.283,THRUST_SEARCH,OPEN_LOOP,0.0002,0.00025,-0.00034,0.00025,0.0,0.00103,0.5857,0.5857,0.5857,,0.67,,False,0.0,0.0,0.0,0.0,0.0,-171.373,-170.9861,0.004,True,False,Mode(963497464),0.2825,6,0.5854
0.293,THRUST_SEARCH,OPEN_LOOP,0.0002,0.00018,-0.00029,0.00018,0.0,0.00064,0.5859,0.5859,0.5859,,0.67,,False,0.0,0.0,0.0,0.0,0.0,-171.373,-170.9387,0.005,True,False,Mode(963497464),0.293,6,0.5854
0.304,THRUST_SEARCH,OPEN_LOOP,0.0001,0.00014,-0.00023,0.00014,0.0,0.00035,0.5861,0.5861,0.5861,,0.67,,False,0.0,0.0,0.0,0.0,0.0,-171.373,-170.9085,0.007,True,False,Mode(963497464),0.3039,6,0.5854
0.315,THRUST_SEARCH,OPEN_LOOP,0.0001,0.00011,-0.00011,0.00011,0.0,0.00019,0.5863,0.5863,0.5863,,0.67,,False,0.0,0.0,0.0,0.0,0.0,-171.373,-170.9498,0.003,True,False,Mode(963497464),0.3149,6,0.5854
0.325,THRUST_SEARCH,OPEN_LOOP,0.0001,8e-05,-9e-05,8e-05,0.0,7e-05,0.5865,0.5865,0.5865,,0.67,,False,0.0,0.0,0.0,0.0,0.0,-171.373,-170.9728,0.0045,True,True,Mode(963497464),0.3254,6,0.5854
0.336,THRUST_SEARCH,OPEN_LOOP,0.0001,9e-05,0.0001,0.0001,0.0,8e-05,0.5867,0.5867,0.5867,,0.67,,False,0.0,0.0,0.0,0.0,0.0,-171.373,-170.9893,0.007,True,False,Mode(963497464),0.3364,7,0.5865
0.347,THRUST_SEARCH,OPEN_LOOP,0.0001,8e-05,6e-05,8e-05,0.0,6e-05,0.5869,0.5869,0.5869,,0.67,,False,0.0,0.0,0.0,0.0,0.0,-171.373,-171.0263,0.0006,True,False,Mode(963497464),0.3474,7,0.5865
0.358,THRUST_SEARCH,OPEN_LOOP,0.0001,9e-05,0.00012,0.00012,0.0,8e-05,0.5872,0.5872,0.5872,,0.67,,False,0.0,0.0,0.0,0.0,0.0,-171.373,-171.0404,0.003,True,False,Mode(963497464),0.3583,7,0.5865
0.369,THRUST_SEARCH,OPEN_LOOP,0.0001,7e-05,-0.00012,7e-05,0.0,-3e-05,0.5874,0.5874,0.5874,,0.67,,False,0.0,0.0,0.0,0.0,0.0,-171.373,-171.0131,0.008,True,False,Mode(963497464),0.3693,7,0.5865
0.381,THRUST_SEARCH,OPEN_LOOP,0.0001,6e-05,1e-05,6e-05,0.0,-6e-05,0.5876,0.5876,0.5876,,0.67,,False,0.0,0.0,0.0,0.0,0.0,-171.373,-171.0004,0.001,True,True,Mode(963497464),0.3807,7,0.5865
0.392,THRUST_SEARCH,OPEN_LOOP,0.0001,6e-05,4e-05,6e-05,0.0,-7e-05,0.5878,0.5878,0.5878,,0.67,,False,0.0,0.0,0.0,0.0,0.0,-171.373,-170.9986,0.004,True,False,Mode(963497464),0.3921,8,0.5876
0.403,THRUST_SEARCH,OPEN_LOOP,0.0001,5e-05,5e-05,5e-05,0.0,-7e-05,0.5881,0.5881,0.5881,,0.67,,False,0.0,0.0,0.0,0.0,0.0,-171.373,-170.9963,0.006,True,False,Mode(963497464),0.4026,8,0.5876
0.413,THRUST_SEARCH,OPEN_LOOP,0.0001,7e-05,0.00018,0.00018,0.0,-1e-05,0.5883,0.5883,0.5883,,0.67,,False,0.0,0.0,0.0,0.0,0.0,-171.373,-171.0271,0.0015,True,False,Mode(963497464),0.4131,8,0.5876
0.424,THRUST_SEARCH,OPEN_LOOP,0.0001,7e-05,0.00013,0.00013,0.0,2e-05,0.5885,0.5885,0.5885,,0.67,,False,0.0,0.0,0.0,0.0,0.0,-171.373,-171.0549,0.003,True,False,Mode(963497464),0.4241,8,0.5876
0.436,THRUST_SEARCH,OPEN_LOOP,0.0001,7e-05,0.0,7e-05,0.0,-2e-05,0.5887,0.5887,0.5887,,0.67,,False,0.0,0.0,0.0,0.0,0.0,-171.373,-171.067,0.005,True,True,Mode(963497464),0.435,8,0.5876
0.446,THRUST_SEARCH,OPEN_LOOP,0.0001,6e-05,4e-05,6e-05,0.0,-3e-05,0.5889,0.5889,0.5889,,0.67,,False,0.0,0.0,0.0,0.0,0.0,-171.373,-171.073,0.009,True,False,Mode(963497464),0.446,9,0.5887
0.457,THRUST_SEARCH,OPEN_LOOP,0.0,4e-05,-0.00015,4e-05,0.0,-0.00012,0.5891,0.5891,0.5891,,0.67,,False,0.0,0.0,0.0,0.0,0.0,-171.373,-171.1339,0.002,True,False,Mode(963497464),0.457,9,0.5887
0.468,THRUST_SEARCH,OPEN_LOOP,0.0001,6e-05,0.0002,0.0002,0.0,-5e-05,0.5894,0.5894,0.5894,,0.67,,False,0.0,0.0,0.0,0.0,0.0,-171.373,-171.124,0.0067,True,False,Mode(963497464),0.4676,9,0.5887
0.479,THRUST_SEARCH,OPEN_LOOP,0.0001,9e-05,0.00036,0.00036,0.0,7e-05,0.5896,0.5896,0.5896,,0.67,,False,0.0,0.0,0.0,0.0,0.0,-171.373,-171.1233,0.009,True,False,Mode(963497464),0.4786,9,0.5887
0.49,THRUST_SEARCH,OPEN_LOOP,0.0001,8e-05,3e-05,8e-05,0.0,5e-05,0.5898,0.5898,0.5898,,0.67,,False,0.0,0.0,0.0,0.0,0.0,-171.373,-171.0653,0.001,True,True,Mode(963497464),0.4896,9,0.5887
0.502,THRUST_SEARCH,OPEN_LOOP,0.0001,7e-05,-3e-05,7e-05,0.0,0.0,0.59,0.59,0.59,,0.67,,False,0.0,0.0,0.0,0.0,0.0,-171.373,-171.0501,0.006,True,False,Mode(963497464),0.5005,10,0.5898
0.511,THRUST_SEARCH,OPEN_LOOP,0.0001,6e-05,-1e-05,6e-05,0.0,-3e-05,0.5902,0.5902,0.5902,,0.67,,False,0.0,0.0,0.0,0.0,0.0,-171.373,-171.0017,0.0066,True,False,Mode(963497464),0.5111,10,0.5898
0.522,THRUST_SEARCH,OPEN_LOOP,0.0001,7e-05,0.00011,0.00011,0.0,-1e-05,0.5904,0.5904,0.5904,,0.67,,False,0.0,0.0,0.0,0.0,0.0,-171.373,-170.9644,0.009,True,False,Mode(963497464),0.522,10,0.5898
0.533,THRUST_SEARCH,OPEN_LOOP,0.0001,8e-05,0.00018,0.00018,0.0,3e-05,0.5907,0.5907,0.5907,,0.67,,False,0.0,0.0,0.0,0.0,0.0,-171.373,-170.9695,0.005,True,False,Mode(963497464),0.533,10,0.5898
0.545,THRUST_SEARCH,OPEN_LOOP,0.0001,0.0001,0.0003,0.0003,0.0,0.00012,0.5909,0.5909,0.5909,,0.67,,False,0.0,0.0,0.0,0.0,0.0,-171.373,-170.9935,0.006,True,True,Mode(963497464),0.544,10,0.5898
0.554,THRUST_SEARCH,OPEN_LOOP,0.0001,8e-05,-0.00012,8e-05,0.0,4e-05,0.5911,0.5911,0.5911,,0.67,,False,0.0,0.0,0.0,0.0,0.0,-171.373,-170.9587,0.0015,True,False,Mode(963497464),0.5545,11,0.5909
0.565,THRUST_SEARCH,OPEN_LOOP,0.0001,7e-05,-1e-05,7e-05,0.0,0.0,0.5913,0.5913,0.5913,,0.67,,False,0.0,0.0,0.0,0.0,0.0,-171.373,-170.9462,0.003,True,False,Mode(963497464),0.5654,11,0.5909
0.576,THRUST_SEARCH,OPEN_LOOP,0.0001,6e-05,-7e-05,6e-05,0.0,-5e-05,0.5915,0.5915,0.5915,,0.67,,False,0.0,0.0,0.0,0.0,0.0,-171.373,-170.9493,0.0045,True,False,Mode(963497464),0.5759,11,0.5909
0.587,THRUST_SEARCH,OPEN_LOOP,0.0001,8e-05,0.00026,0.00026,0.0,2e-05,0.5917,0.5917,0.5917,,0.67,,False,0.0,0.0,0.0,0.0,0.0,-171.373,-171.0296,0.0001,True,False,Mode(963497464),0.5866,11,0.5909
0.597,THRUST_SEARCH,OPEN_LOOP,0.0001,9e-05,0.0002,0.0002,0.0,7e-05,0.5919,0.5919,0.5919,,0.67,,False,0.0,0.0,0.0,0.0,0.0,-171.373,-171.0381,0.0015,True,True,Mode(963497464),0.0,11,0.5909
0.608,THRUST_SEARCH,OPEN_LOOP,0.0001,0.0001,0.00023,0.00023,0.0,0.00012,0.5922,0.5922,0.5922,,0.67,,False,0.0,0.0,0.0,0.0,0.0,-171.373,-171.0596,0.004,True,False,Mode(963497464),0.011,12,0.5919
0.62,THRUST_SEARCH,OPEN_LOOP,0.0001,0.00011,0.00018,0.00018,0.0,0.00015,0.5924,0.5924,0.5924,,0.67,,False,0.0,0.0,0.0,0.0,0.0,-171.373,-171.0794,0.006,True,False,Mode(963497464),0.022,12,0.5919
0.63,THRUST_SEARCH,OPEN_LOOP,0.0001,0.00012,0.00021,0.00021,0.0,0.00018,0.5926,0.5926,0.5926,,0.67,,False,0.0,0.0,0.0,0.0,0.0,-171.373,-171.113,0.002,True,False,Mode(963497464),0.0329,12,0.5919
0.641,THRUST_SEARCH,OPEN_LOOP,0.0001,0.00013,0.00021,0.00021,0.0,0.00021,0.5928,0.5928,0.5928,,0.67,,False,0.0,0.0,0.0,0.0,0.0,-171.373,-171.113,0.0126,True,False,Mode(963497464),0.0435,12,0.5919
0.652,THRUST_SEARCH,OPEN_LOOP,0.0001,0.00015,0.0003,0.0003,0.0,0.00027,0.593,0.593,0.593,,0.67,,False,0.0,0.0,0.0,0.0,0.0,-171.373,-171.1243,0.005,True,True,Mode(963497464),0.0545,12,0.5919
0.663,THRUST_SEARCH,OPEN_LOOP,0.0002,0.00016,0.0003,0.0003,0.0,0.00032,0.5933,0.5933,0.5933,,0.67,,False,0.0,0.0,0.0,0.0,0.0,-171.373,-171.1495,0.001,True,False,Mode(963497464),0.0655,13,0.593
0.674,THRUST_SEARCH,OPEN_LOOP,0.0002,0.00017,0.00018,0.00018,0.0,0.00033,0.5935,0.5935,0.5935,,0.67,,False,0.0,0.0,0.0,0.0,0.0,-171.373,-171.1654,0.001,True,False,Mode(963497464),0.0765,13,0.593
0.685,THRUST_SEARCH,OPEN_LOOP,0.0002,0.00017,0.0002,0.0002,0.0,0.00034,0.5937,0.5937,0.5937,,0.67,,False,0.0,0.0,0.0,0.0,0.0,-171.373,-171.1655,0.006,True,False,Mode(963497464),0.0875,13,0.593
0.696,THRUST_SEARCH,OPEN_LOOP,0.0002,0.00018,0.00017,0.00018,0.0,0.00034,0.5939,0.5939,0.5939,,0.67,,False,0.0,0.0,0.0,0.0,0.0,-171.373,-171.1703,0.008,True,False,Mode(963497464),0.0984,13,0.593
0.707,THRUST_SEARCH,OPEN_LOOP,0.0002,0.00019,0.00028,0.00028,0.0,0.00037,0.5941,0.5941,0.5941,,0.67,,False,0.0,0.0,0.0,0.0,0.0,-171.373,-171.1848,0.001,True,True,Mode(963497464),0.1094,13,0.593
0.718,THRUST_SEARCH,OPEN_LOOP,0.0002,0.0002,0.00025,0.00025,0.0,0.0004,0.5944,0.5944,0.5944,,0.67,,False,0.0,0.0,0.0,0.0,0.0,-171.373,-171.2049,0.006,True,False,Mode(963497464),0.1204,14,0.5941
0.729,THRUST_SEARCH,OPEN_LOOP,0.0002,0.00021,0.00027,0.00027,0.0,0.00042,0.5946,0.5946,0.5946,,0.67,,False,0.0,0.0,0.0,0.0,0.0,-171.373,-171.2174,0.008,True,False,Mode(963497464),0.1314,14,0.5941
0.74,THRUST_SEARCH,OPEN_LOOP,0.0002,0.00021,0.00024,0.00024,0.0,0.00043,0.5948,0.5948,0.5948,,0.67,,False,0.0,0.0,0.0,0.0,0.0,-171.373,-171.1987,0.001,True,False,Mode(963497464),0.1423,14,0.5941
0.751,THRUST_SEARCH,OPEN_LOOP,0.0002,0.00022,0.00018,0.00022,0.0,0.00041,0.595,0.595,0.595,,0.67,,False,0.0,0.0,0.0,0.0,0.0,-171.373,-171.1319,0.006,True,False,Mode(963497464),0.1533,14,0.5941
0.762,THRUST_SEARCH,OPEN_LOOP,0.0002,0.00021,7e-05,0.00021,0.0,0.00036,0.5952,0.5952,0.5952,,0.67,,False,0.0,0.0,0.0,0.0,0.0,-171.373,-171.0924,0.008,True,True,Mode(963497464),0.1643,14,0.5941
0.773,THRUST_SEARCH,OPEN_LOOP,0.0002,0.00019,1e-05,0.00019,0.0,0.00029,0.5955,0.5955,0.5955,,0.67,,False,0.0,0.0,0.0,0.0,0.0,-171.373,-171.0549,0.001,True,False,Mode(963497464),0.1752,15,0.5952
0.784,THRUST_SEARCH,OPEN_LOOP,0.0002,0.00018,-1e-05,0.00018,0.0,0.00021,0.5957,0.5957,0.5957,,0.67,,False,0.0,0.0,0.0,0.0,0.0,-171.373,-171.0575,0.006,True,False,Mode(963497464),0.1862,15,0.5952
0.794,THRUST_SEARCH,OPEN_LOOP,0.0002,0.00016,-1e-05,0.00016,0.0,0.00015,0.5959,0.5959,0.5959,,0.67,,False,0.0,0.0,0.0,0.0,0.0,-171.373,-171.0741,0.008,True,False,Mode(963497464),0.1972,15,0.5952
0.805,THRUST_SEARCH,OPEN_LOOP,0.0002,0.00015,3e-05,0.00015,0.0,0.0001,0.5961,0.5961,0.5961,,0.67,,False,0.0,0.0,0.0,0.0,0.0,-171.373,-171.0594,0.001,True,False,Mode(963497464),0.2082,15,0.5952
0.817,THRUST_SEARCH,OPEN_LOOP,0.0001,0.00014,-1e-05,0.00014,0.0,4e-05,0.5963,0.5963,0.5963,,0.67,,False,0.0,0.0,0.0,0.0,0.0,-171.373,-171.0381,0.003,True,True,Mode(963497464),0.2191,15,0.5952
0.827,THRUST_SEARCH,OPEN_LOOP,0.0001,0.00013,4e-05,0.00013,0.0,0.0,0.5965,0.5965,0.5965,,0.67,,False,0.0,0.0,0.0,0.0,0.0,-171.373,-170.9997,0.0073,True,False,Mode(963497464),0.2295,16,0.5963
0.838,THRUST_SEARCH,OPEN_LOOP,0.0001,0.00012,-6e-05,0.00012,0.0,-7e-05,0.5968,0.5968,0.5968,,0.67,,False,0.0,0.0,0.0,0.0,0.0,-171.373,-171.0085,0.01,True,False,Mode(963497464),0.2404,16,0.5963
0.849,THRUST_SEARCH,OPEN_LOOP,0.0001,0.00014,0.00039,0.00039,0.0,3e-05,0.597,0.597,0.597,,0.67,,False,0.0,0.0,0.0,0.0,0.0,-171.373,-171.0912,0.004,True,False,Mode(963497464),0.2514,16,0.5963
0.86,THRUST_SEARCH,OPEN_LOOP,0.0003,0.00025,0.00144,0.00144,0.0,0.0005,0.5972,0.5972,0.5972,,0.67,,False,0.0,0.0,0.0,0.0,0.0,-171.373,-171.11,0.006,True,False,Mode(963497464),0.2624,16,0.5963
0.87,THRUST_SEARCH,OPEN_LOOP,0.0004,0.00044,0.00237,0.00237,0.0,0.00125,0.5974,0.5974,0.5974,,0.67,,False,0.0,0.0,0.0,0.0,0.0,-171.373,-170.9837,0.0075,True,True,Mode(963497464),0.2729,16,0.5963
0.882,THRUST_SEARCH,OPEN_LOOP,0.0008,0.00081,0.00454,0.00454,0.0,0.00272,0.5976,0.5976,0.5976,,0.67,,False,0.0,0.0,0.0,0.0,0.0,-171.373,-170.0803,0.0014,True,False,Mode(963497464),0.2842,17,0.5974
0.893,THRUST_SEARCH,OPEN_LOOP,0.0012,0.00117,0.00471,0.00471,0.0,0.0041,0.5979,0.5979,0.5979,,0.67,,False,0.0,0.0,0.0,0.0,0.0,-171.373,-169.3519,0.003,True,False,Mode(963497464),0.2952,17,0.5974
0.903,THRUST_SEARCH,OPEN_LOOP,0.0017,0.00166,0.00636,0.00636,0.0,0.00595,0.5981,0.5981,0.5981,,0.67,,False,0.0,0.0,0.0,0.0,0.0,-171.373,-168.8441,0.008,True,False,Mode(963497464),0.3062,17,0.5974
0.914,THRUST_SEARCH,OPEN_LOOP,0.0023,0.00228,0.00815,0.00815,0.0,0.00825,0.5983,0.5983,0.5983,,0.67,,False,0.0,0.0,0.0,0.0,0.0,-171.373,-168.4916,0.001,True,False,Mode(963497464),0.3171,17,0.5974
0.925,THRUST_SEARCH,OPEN_LOOP,0.0029,0.00292,0.00872,0.00872,0.0,0.01053,0.5985,0.5985,0.5985,,0.67,,False,0.0,0.0,0.0,0.0,0.0,-171.373,-168.538,0.006,True,True,Mode(963497464),0.3281,17,0.5974
0.936,THRUST_SEARCH,OPEN_LOOP,0.0037,0.00366,0.01017,0.01017,0.0,0.01309,0.5987,0.5987,0.5987,,0.67,,False,0.0,0.0,0.0,0.0,0.0,-171.373,-168.7389,0.008,True,False,Mode(963497464),0.3391,18,0.5985
0.947,THRUST_SEARCH,OPEN_LOOP,0.0045,0.00448,0.01169,0.01169,0.0,0.01592,0.5989,0.5989,0.5989,,0.67,,False,0.0,0.0,0.0,0.0,0.0,-171.373,-168.7168,0.001,True,False,Mode(963497464),0.35,18,0.5985
0.958,THRUST_SEARCH,OPEN_LOOP,0.0053,0.00529,0.01198,0.01198,0.0,0.01855,0.5992,0.5992,0.5992,,0.67,,False,0.0,0.0,0.0,0.0,0.0,-171.373,-168.2745,0.003,True,False,Mode(963497464),0.361,18,0.5985
0.969,THRUST_SEARCH,OPEN_LOOP,0.006,0.00601,0.01156,0.01156,0.0,0.02072,0.5994,0.5994,0.5994,,0.67,,False,0.0,0.0,0.0,0.0,0.0,-171.373,-167.5496,0.0075,True,False,Mode(963497464),0.3715,18,0.5985
0.981,THRUST_SEARCH,OPEN_LOOP,0.0067,0.00665,0.01102,0.01102,0.0,0.02243,0.5996,0.5996,0.5996,,0.67,,False,0.0,0.0,0.0,0.0,0.0,-171.373,-166.6415,0.009,True,True,Mode(963497464),0.3825,18,0.5985
0.991,THRUST_SEARCH,OPEN_LOOP,0.0073,0.00725,0.01099,0.01099,0.0,0.02389,0.5998,0.5998,0.5998,,0.67,,False,0.0,0.0,0.0,0.0,0.0,-171.373,-165.4206,0.004,True,False,Mode(963497464),0.3934,19,0.5996
1.001,THRUST_SEARCH,OPEN_LOOP,0.0078,0.00776,0.01055,0.01055,0.0,0.02498,0.6,0.6,0.6,,0.67,,False,0.0,0.0,0.0,0.0,0.0,-171.373,-165.27,0.006,True,False,Mode(963497464),0.4039,19,0.5996
1.012,THRUST_SEARCH,OPEN_LOOP,0.0082,0.00824,0.01032,0.01032,0.0,0.0258,0.6002,0.6002,0.6002,,0.67,,False,0.0,0.0,0.0,0.0,0.0,-171.373,-165.4249,0.008,True,False,Mode(963497464),0.4149,19,0.5996
1.023,THRUST_SEARCH,OPEN_LOOP,0.0087,0.00868,0.01038,0.01038,0.0,0.02646,0.6005,0.6005,0.6005,,0.67,,False,0.0,0.0,0.0,0.0,0.0,-171.373,-165.9276,0.004,True,False,Mode(963497464),0.4259,19,0.5996
1.035,THRUST_SEARCH,OPEN_LOOP,0.0091,0.00912,0.01066,0.01066,0.0,0.02707,0.6007,0.6007,0.6007,,0.67,,False,0.0,0.0,0.0,0.0,0.0,-171.373,-165.98,0.006,True,True,Mode(963497464),0.4368,19,0.5996
1.045,THRUST_SEARCH,OPEN_LOOP,0.0093,0.00929,0.00802,0.00929,0.0,0.02657,0.6009,0.6009,0.6009,,0.67,,False,0.0,0.0,0.0,0.0,0.0,-171.373,-165.6413,0.0068,True,False,Mode(963497464),0.4476,20,0.6007
1.056,THRUST_SEARCH,OPEN_LOOP,0.0094,0.00939,0.00741,0.00939,0.0,0.0258,0.6011,0.6011,0.6011,,0.67,,False,0.0,0.0,0.0,0.0,0.0,-171.373,-164.7736,0.003,True,False,Mode(963497464),0.4586,20,0.6007
1.066,THRUST_SEARCH,OPEN_LOOP,0.0094,0.00939,0.00647,0.00939,0.0,0.02466,0.6013,0.6013,0.6013,,0.67,,False,0.0,0.0,0.0,0.0,0.0,-171.373,-164.3098,0.0045,True,False,Mode(963497464),0.4691,20,0.6007
1.077,THRUST_SEARCH,OPEN_LOOP,0.0093,0.0093,0.00554,0.0093,0.0,0.02319,0.6015,0.6015,0.6015,,0.67,,False,0.0,0.0,0.0,0.0,0.0,-171.373,-163.8992,0.006,True,False,Mode(963497464),0.48,20,0.6007
1.088,THRUST_SEARCH,OPEN_LOOP,0.0091,0.00914,0.0047,0.00914,0.0,0.02146,0.6018,0.6018,0.6018,,0.67,,False,0.0,0.0,0.0,0.0,0.0,-171.373,-163.1179,0.002,True,True,Mode(963497464),0.491,20,0.6007
1.099,THRUST_SEARCH,OPEN_LOOP,0.009,0.00899,0.00486,0.00899,0.0,0.01985,0.602,0.602,0.602,,0.67,,False,0.0,0.0,0.0,0.0,0.0,-171.373,-163.0003,0.004,True,False,Mode(963497464),0.502,21,0.6018
1.111,THRUST_SEARCH,OPEN_LOOP,0.0089,0.00888,0.00535,0.00888,0.0,0.01846,0.6022,0.6022,0.6022,,0.67,,False,0.0,0.0,0.0,0.0,0.0,-171.373,-163.1583,0.004,True,False,Mode(963497464),0.5133,21,0.6018
1.122,THRUST_SEARCH,OPEN_LOOP,0.0086,0.00864,0.00397,0.00864,0.0,0.01663,0.6024,0.6024,0.6024,,0.67,,False,0.0,0.0,0.0,0.0,0.0,-171.373,-163.3639,0.009,True,False,Mode(963497464),0.5242,21,0.6018
1.133,THRUST_SEARCH,OPEN_LOOP,0.0084,0.00836,0.00347,0.00836,0.0,0.01472,0.6027,0.6027,0.6027,,0.67,,False,0.0,0.0,0.0,0.0,0.0,-171.373,-163.5394,0.005,True,False,Mode(963497464),0.5352,21,0.6018
1.143,THRUST_SEARCH,OPEN_LOOP,0.0081,0.00806,0.00322,0.00806,0.0,0.01282,0.6029,0.6029,0.6029,,0.67,,False,0.0,0.0,0.0,0.0,0.0,-171.373,-163.5979,0.0071,True,True,Mode(963497464),0.5462,21,0.6018
1.155,THRUST_SEARCH,OPEN_LOOP,0.0078,0.00778,0.0034,0.00778,0.0,0.01109,0.6031,0.6031,0.6031,,0.67,,False,0.0,0.0,0.0,0.0,0.0,-171.373,-163.878,0.0011,True,False,Mode(963497464),0.5572,22,0.6029
1.165,THRUST_SEARCH,OPEN_LOOP,0.0075,0.00748,0.00302,0.00748,0.0,0.00934,0.6033,0.6033,0.6033,,0.67,,False,0.0,0.0,0.0,0.0,0.0,-171.373,-164.0179,0.003,True,False,Mode(963497464),0.5682,22,0.6029
1.176,THRUST_SEARCH,OPEN_LOOP,0.0073,0.00729,0.00424,0.00729,0.0,0.00815,0.6035,0.6035,0.6035,,0.67,,False,0.0,0.0,0.0,0.0,0.0,-171.373,-164.0146,0.0045,True,False,Mode(963497464),0.5787,22,0.6029
1.187,THRUST_SEARCH,OPEN_LOOP,0.0072,0.00718,0.00508,0.00718,0.0,0.00733,0.6037,0.6037,0.6037,,0.67,,False,0.0,0.0,0.0,0.0,0.0,-171.373,-163.2028,0.0,True,False,Mode(963497464),0.5892,22,0.6029
1.197,THRUST_SEARCH,OPEN_LOOP,0.0071,0.00707,0.0051,0.00707,0.0,0.00656,0.6039,0.6039,0.6039,,0.67,,False,0.0,0.0,0.0,0.0,0.0,-171.373,-162.5551,0.0015,True,True,Mode(963497464),0.5997,22,0.6029
1.208,THRUST_SEARCH,OPEN_LOOP,0.007,0.00696,0.00497,0.00696,0.0,0.00579,0.6042,0.6042,0.6042,,0.67,,False,0.0,0.0,0.0,0.0,0.0,-171.373,-161.9811,0.004,True,False,Mode(963497464),0.6107,23,0.6039
1.218,THRUST_SEARCH,OPEN_LOOP,0.0068,0.00684,0.00498,0.00684,0.0,0.00506,0.6044,0.6044,0.6044,,0.67,,False,0.0,0.0,0.0,0.0,0.0,-171.373,-161.6807,0.006,True,False,Mode(963497464),0.6211,23,0.6039
1.229,THRUST_SEARCH,OPEN_LOOP,0.0068,0.00677,0.00539,0.00677,0.0,0.00453,0.6046,0.6046,0.6046,,0.67,,False,0.0,0.0,0.0,0.0,0.0,-171.373,-161.7188,0.0075,True,False,Mode(963497464),0.6316,23,0.6039
1.24,THRUST_SEARCH,OPEN_LOOP,0.0067,0.00667,0.00511,0.00667,0.0,0.00393,0.6048,0.6048,0.6048,,0.67,,False,0.0,0.0,0.0,0.0,0.0,-171.373,-162.5695,0.0007,True,False,Mode(963497464),0.6422,23,0.6039
1.251,THRUST_SEARCH,OPEN_LOOP,0.0065,0.00654,0.0047,0.00654,0.0,0.00321,0.605,0.605,0.605,,0.67,,False,0.0,0.0,0.0,0.0,0.0,-171.373,-162.9736,0.006,True,True,Mode(963497464),0.6532,23,0.6039
1.261,THRUST_SEARCH,OPEN_LOOP,0.0064,0.00639,0.00437,0.00639,0.0,0.00243,0.6052,0.6052,0.6052,,0.67,,False,0.0,0.0,0.0,0.0,0.0,-171.373,-163.2064,0.007,True,False,Mode(963497464),0.6642,24,0.605
1.272,THRUST_SEARCH,OPEN_LOOP,0.0062,0.00621,0.00409,0.00621,0.0,0.00161,0.6054,0.6054,0.6054,,0.67,,False,0.0,0.0,0.0,0.0,0.0,-171.373,-163.1538,0.009,True,False,Mode(963497464),0.6747,24,0.605
1.283,THRUST_SEARCH,OPEN_LOOP,0.0059,0.00586,0.00186,0.00586,0.0,7e-05,0.6057,0.6057,0.6057,,0.67,,False,0.0,0.0,0.0,0.0,0.0,-171.373,-162.392,0.005,True,False,Mode(963497464),0.6856,24,0.605
1.294,THRUST_SEARCH,OPEN_LOOP,0.0055,0.00551,0.00178,0.00551,0.0,-0.00138,0.6059,0.6059,0.6059,,0.67,,False,0.0,0.0,0.0,0.0,0.0,-171.373,-162.1208,0.0068,True,False,Mode(963497464),0.6968,24,0.605
1.306,THRUST_SEARCH,OPEN_LOOP,0.0051,0.0051,0.00092,0.0051,0.0,-0.00301,0.6061,0.6061,0.6061,,0.67,,False,0.0,0.0,0.0,0.0,0.0,-171.373,-162.0776,0.009,True,True,Mode(963497464),0.7077,24,0.605
1.316,THRUST_SEARCH,OPEN_LOOP,0.0047,0.0047,0.00082,0.0047,0.0,-0.00452,0.6063,0.6063,0.6063,,0.67,,False,0.0,0.0,0.0,0.0,0.0,-171.373,-162.4055,0.004,True,False,Mode(963497464),0.7187,25,0.6061
1.327,THRUST_SEARCH,OPEN_LOOP,0.0043,0.0043,0.0006,0.0043,0.0,-0.00596,0.6065,0.6065,0.6065,,0.67,,False,0.0,0.0,0.0,0.0,0.0,-171.373,-162.6107,0.006,True,False,Mode(963497464),0.7297,25,0.6061
1.338,THRUST_SEARCH,OPEN_LOOP,0.004,0.00403,0.00185,0.00403,0.0,-0.00681,0.6068,0.6068,0.6068,,0.67,,False,0.0,0.0,0.0,0.0,0.0,-171.373,-162.8676,0.008,True,False,Mode(963497464),0.7406,25,0.6061
1.349,THRUST_SEARCH,OPEN_LOOP,0.0038,0.00379,0.00195,0.00379,0.0,-0.00753,0.607,0.607,0.607,,0.67,,False,0.0,0.0,0.0,0.0,0.0,-171.373,-162.8419,0.004,True,False,Mode(963497464),0.7516,25,0.6061
1.36,THRUST_SEARCH,OPEN_LOOP,0.0035,0.00348,0.00108,0.00348,0.0,-0.00846,0.6072,0.6072,0.6072,,0.67,,False,0.0,0.0,0.0,0.0,0.0,-171.373,-162.6316,0.006,True,True,Mode(963497464),0.7626,25,0.6061
1.371,THRUST_SEARCH,OPEN_LOOP,0.0032,0.00324,0.00169,0.00324,0.0,-0.00907,0.6074,0.6074,0.6074,,0.67,,False,0.0,0.0,0.0,0.0,0.0,-171.373,-162.5258,0.008,True,False,Mode(963497464),0.7736,26,0.6072
1.381,THRUST_SEARCH,OPEN_LOOP,0.0031,0.00308,0.00246,0.00308,0.0,-0.00931,0.6076,0.6076,0.6076,,0.67,,False,0.0,0.0,0.0,0.0,0.0,-171.373,-162.8662,0.0035,True,False,Mode(963497464),0.7841,26,0.6072
1.392,THRUST_SEARCH,OPEN_LOOP,0.003,0.00299,0.00308,0.00308,0.0,-0.00928,0.6078,0.6078,0.6078,,0.67,,False,0.0,0.0,0.0,0.0,0.0,-171.373,-163.261,0.006,True,False,Mode(963497464),0.795,26,0.6072
1.403,THRUST_SEARCH,OPEN_LOOP,0.003,0.00295,0.00357,0.00357,0.0,-0.00904,0.6081,0.6081,0.6081,,0.67,,False,0.0,0.0,0.0,0.0,0.0,-171.373,-163.6715,0.0075,True,False,Mode(963497464),0.8055,26,0.6072
1.414,THRUST_SEARCH,OPEN_LOOP,0.003,0.00302,0.00482,0.00482,0.0,-0.00834,0.6083,0.6083,0.6083,,0.67,,False,0.0,0.0,0.0,0.0,0.0,-171.373,-164.0391,0.001,True,True,Mode(963497464),0.8165,26,0.6072
1.425,THRUST_SEARCH,OPEN_LOOP,0.0031,0.00313,0.00522,0.00522,0.0,-0.00752,0.6085,0.6085,0.6085,,0.67,,False,0.0,0.0,0.0,0.0,0.0,-171.373,-163.9054,0.003,True,False,Mode(963497464),0.8275,27,0.6083
1.435,THRUST_SEARCH,OPEN_LOOP,0.0033,0.00326,0.00551,0.00551,0.0,-0.00665,0.6087,0.6087,0.6087,,0.67,,False,0.0,0.0,0.0,0.0,0.0,-171.373,-163.5617,0.0075,True,False,Mode(963497464),0.8379,27,0.6083
1.446,THRUST_SEARCH,OPEN_LOOP,0.0033,0.00335,0.00509,0.00509,0.0,-0.00597,0.6089,0.6089,0.6089,,0.67,,False,0.0,0.0,0.0,0.0,0.0,-171.373,-162.9373,0.001,True,False,Mode(963497464),0.8489,27,0.6083
1.457,THRUST_SEARCH,OPEN_LOOP,0.0034,0.00337,0.00425,0.00425,0.0,-0.00563,0.6091,0.6091,0.6091,,0.67,,False,0.0,0.0,0.0,0.0,0.0,-171.373,-162.7937,0.003,True,False,Mode(963497464),0.8599,27,0.6083
1.469,THRUST_SEARCH,OPEN_LOOP,0.0035,0.00346,0.00508,0.00508,0.0,-0.005,0.6094,0.6094,0.6094,,0.67,,False,0.0,0.0,0.0,0.0,0.0,-171.373,-162.9775,0.0045,True,True,Mode(963497464),0.8704,27,0.6083
1.479,THRUST_SEARCH,OPEN_LOOP,0.0036,0.00355,0.00513,0.00513,0.0,-0.00439,0.6096,0.6096,0.6096,,0.67,,False,0.0,0.0,0.0,0.0,0.0,-171.373,-163.8534,0.001,True,False,Mode(963497464),0.8813,28,0.6094
1.49,THRUST_SEARCH,OPEN_LOOP,0.0037,0.00374,0.00629,0.00629,0.0,-0.0034,0.6098,0.6098,0.6098,,0.67,,False,0.0,0.0,0.0,0.0,0.0,-171.373,-164.2367,0.003,True,False,Mode(963497464),0.8923,28,0.6094
1.501,THRUST_SEARCH,OPEN_LOOP,0.0038,0.00381,0.00489,0.00489,0.0,-0.00297,0.61,0.61,0.61,,0.67,,False,0.0,0.0,0.0,0.0,0.0,-171.373,-164.5116,0.005,True,False,Mode(963497464),0.9033,28,0.6094
1.511,THRUST_SEARCH,OPEN_LOOP,0.0039,0.00393,0.00556,0.00556,0.0,-0.00234,0.6102,0.6102,0.6102,,0.67,,False,0.0,0.0,0.0,0.0,0.0,-171.373,-164.6303,0.0066,True,False,Mode(963497464),0.9139,28,0.6094
1.523,THRUST_SEARCH,OPEN_LOOP,0.0039,0.00392,0.00411,0.00411,0.0,-0.00227,0.6104,0.6104,0.6104,,0.67,,False,0.0,0.0,0.0,0.0,0.0,-171.373,-164.5321,0.009,True,True,Mode(963497464),0.9248,28,0.6094
1.533,THRUST_SEARCH,OPEN_LOOP,0.004,0.00399,0.00495,0.00495,0.0,-0.0019,0.6107,0.6107,0.6107,,0.67,,False,0.0,0.0,0.0,0.0,0.0,-171.373,-164.7891,0.0045,True,False,Mode(963497464),0.9353,29,0.6104
1.544,THRUST_SEARCH,OPEN_LOOP,0.0039,0.00394,0.00367,0.00394,0.0,-0.002,0.6109,0.6109,0.6109,,0.67,,False,0.0,0.0,0.0,0.0,0.0,-171.373,-165.0758,0.0069,True,False,Mode(963497464),0.9462,29,0.6104
1.554,THRUST_SEARCH,OPEN_LOOP,0.0041,0.00406,0.0055,0.0055,0.0,-0.00144,0.6111,0.6111,0.6111,,0.67,,False,0.0,0.0,0.0,0.0,0.0,-171.373,-165.2529,0.009,True,False,Mode(963497464),0.9572,29,0.6104
1.565,THRUST_SEARCH,OPEN_LOOP,0.0042,0.00423,0.00628,0.00628,0.0,-0.00065,0.6113,0.6113,0.6113,,0.67,,False,0.0,0.0,0.0,0.0,0.0,-171.373,-165.7097,0.002,True,False,Mode(963497464),0.9682,29,0.6104
1.577,THRUST_SEARCH,OPEN_LOOP,0.0043,0.0043,0.00505,0.00505,0.0,-0.00035,0.6115,0.6115,0.6115,,0.67,,False,0.0,0.0,0.0,0.0,0.0,-171.373,-165.9037,0.0044,True,True,Mode(963497464),0.9795,29,0.6104
1.588,THRUST_SEARCH,OPEN_LOOP,0.0044,0.00441,0.0057,0.0057,0.0,0.00015,0.6118,0.6118,0.6118,,0.67,,False,0.0,0.0,0.0,0.0,0.0,-171.373,-166.1613,0.0007,True,False,Mode(963497464),0.9903,30,0.6115
1.599,THRUST_SEARCH,OPEN_LOOP,0.0044,0.00438,0.00403,0.00438,0.0,1e-05,0.612,0.612,0.612,,0.67,,False,0.0,0.0,0.0,0.0,0.0,-171.373,-166.3023,0.003,True,False,Mode(963497464),1.0012,30,0.6115
1.61,THRUST_SEARCH,OPEN_LOOP,0.0044,0.00442,0.00487,0.00487,0.0,0.00019,0.6122,0.6122,0.6122,,0.67,,False,0.0,0.0,0.0,0.0,0.0,-171.373,-166.5076,0.005,True,False,Mode(963497464),1.0122,30,0.6115
1.621,THRUST_SEARCH,OPEN_LOOP,0.0044,0.00444,0.00457,0.00457,0.0,0.00024,0.6124,0.6124,0.6124,,0.67,,False,0.0,0.0,0.0,0.0,0.0,-171.373,-166.9061,0.001,True,False,Mode(963497464),1.0233,30,0.6115
1.632,THRUST_SEARCH,OPEN_LOOP,0.0045,0.00448,0.00485,0.00485,0.0,0.00039,0.6126,0.6126,0.6126,,0.67,,False,0.0,0.0,0.0,0.0,0.0,-171.373,-167.247,0.003,True,True,Mode(963497464),1.0342,30,0.6115
1.642,THRUST_SEARCH,OPEN_LOOP,0.0045,0.00449,0.0046,0.0046,0.0,0.00043,0.6128,0.6128,0.6128,,0.67,,False,0.0,0.0,0.0,0.0,0.0,-171.373,-167.5397,0.0046,True,False,Mode(963497464),1.0448,31,0.6126
1.653,THRUST_SEARCH,OPEN_LOOP,0.0046,0.00457,0.00539,0.00539,0.0,0.00075,0.6131,0.6131,0.6131,,0.67,,False,0.0,0.0,0.0,0.0,0.0,-171.373,-167.768,0.0071,True,False,Mode(963497464),1.0558,31,0.6126
1.664,THRUST_SEARCH,OPEN_LOOP,0.0046,0.00463,0.00511,0.00511,0.0,0.00094,0.6133,0.6133,0.6133,,0.67,,False,0.0,0.0,0.0,0.0,0.0,-171.373,-168.0737,0.003,True,False,Mode(963497464),1.0668,31,0.6126
1.675,THRUST_SEARCH,OPEN_LOOP,0.0045,0.00448,0.00281,0.00448,0.0,0.00028,0.6135,0.6135,0.6135,,0.67,,False,0.0,0.0,0.0,0.0,0.0,-171.373,-167.9483,0.003,True,False,Mode(963497464),1.0778,31,0.6126
1.686,THRUST_SEARCH,OPEN_LOOP,0.0045,0.00447,0.00438,0.00447,0.0,0.00025,0.6137,0.6137,0.6137,,0.67,,False,0.0,0.0,0.0,0.0,0.0,-171.373,-167.9438,0.008,True,True,Mode(963497464),1.0887,31,0.6126
1.697,THRUST_SEARCH,OPEN_LOOP,0.0044,0.00437,0.00324,0.00437,0.0,-0.00019,0.6139,0.6139,0.6139,,0.67,,False,0.0,0.0,0.0,0.0,0.0,-171.373,-167.9693,0.001,True,False,Mode(963497464),0.0,32,0.6137
1.708,THRUST_SEARCH,OPEN_LOOP,0.0043,0.00427,0.00324,0.00427,0.0,-0.00059,0.6142,0.6142,0.6142,,0.67,,False,0.0,0.0,0.0,0.0,0.0,-171.373,-167.9693,0.012,True,False,Mode(963497464),0.011,32,0.6137
1.719,THRUST_SEARCH,OPEN_LOOP,0.0042,0.00421,0.00368,0.00421,0.0,-0.0008,0.6144,0.6144,0.6144,,0.67,,False,0.0,0.0,0.0,0.0,0.0,-171.373,-167.7144,0.007,True,False,Mode(963497464),0.0224,32,0.6137
1.73,THRUST_SEARCH,OPEN_LOOP,0.0042,0.00424,0.00457,0.00457,0.0,-0.00067,0.6146,0.6146,0.6146,,0.67,,False,0.0,0.0,0.0,0.0,0.0,-171.373,-167.1919,0.0,True,False,Mode(963497464),0.0334,32,0.6137
1.741,THRUST_SEARCH,OPEN_LOOP,0.0042,0.0042,0.0039,0.0042,0.0,-0.00079,0.6148,0.6148,0.6148,,0.67,,False,0.0,0.0,0.0,0.0,0.0,-171.373,-166.8234,0.005,True,True,Mode(963497464),0.0443,32,0.6137
1.752,THRUST_SEARCH,OPEN_LOOP,0.0043,0.0043,0.00545,0.00545,0.0,-0.00034,0.615,0.615,0.615,,0.67,,False,0.0,0.0,0.0,0.0,0.0,-171.373,-166.5647,0.0071,True,False,Mode(963497464),0.0554,33,0.6148
1.763,THRUST_SEARCH,OPEN_LOOP,0.0043,0.00429,0.00424,0.00429,0.0,-0.00036,0.6153,0.6153,0.6153,,0.67,,False,0.0,0.0,0.0,0.0,0.0,-171.373,-166.3237,0.009,True,False,Mode(963497464),0.0663,33,0.6148
1.775,THRUST_SEARCH,OPEN_LOOP,0.0042,0.00418,0.00302,0.00418,0.0,-0.00082,0.6155,0.6155,0.6155,,0.67,,False,0.0,0.0,0.0,0.0,0.0,-171.373,-166.1016,0.003,True,False,Mode(963497464),0.0783,33,0.6148
1.786,THRUST_SEARCH,OPEN_LOOP,0.0041,0.00415,0.00393,0.00415,0.0,-0.0009,0.6157,0.6157,0.6157,,0.67,,False,0.0,0.0,0.0,0.0,0.0,-171.373,-166.1813,0.0075,True,False,Mode(963497464),0.0888,33,0.6148
1.797,THRUST_SEARCH,OPEN_LOOP,0.0041,0.00411,0.00382,0.00411,0.0,-0.00102,0.6159,0.6159,0.6159,,0.67,,False,0.0,0.0,0.0,0.0,0.0,-171.373,-166.6744,0.001,True,True,Mode(963497464),0.0998,33,0.6148
1.808,THRUST_SEARCH,OPEN_LOOP,0.0041,0.00409,0.00395,0.00409,0.0,-0.00107,0.6162,0.6162,0.6162,,0.67,,False,0.0,0.0,0.0,0.0,0.0,-171.373,-166.9379,0.003,True,False,Mode(963497464),0.1107,34,0.6159
1.819,THRUST_SEARCH,OPEN_LOOP,0.0039,0.00394,0.00254,0.00394,0.0,-0.00162,0.6164,0.6164,0.6164,,0.67,,False,0.0,0.0,0.0,0.0,0.0,-171.373,-166.8509,0.0046,True,False,Mode(963497464),0.1213,34,0.6159
1.829,THRUST_SEARCH,OPEN_LOOP,0.0038,0.00381,0.00257,0.00381,0.0,-0.00211,0.6166,0.6166,0.6166,,0.67,,False,0.0,0.0,0.0,0.0,0.0,-171.373,-166.3413,0.0009,True,False,Mode(963497464),0.1316,34,0.6159
1.84,THRUST_SEARCH,OPEN_LOOP,0.0037,0.00373,0.0032,0.00373,0.0,-0.00231,0.6168,0.6168,0.6168,,0.67,,False,0.0,0.0,0.0,0.0,0.0,-171.373,-166.3596,0.002,True,False,Mode(963497464),0.1426,34,0.6159
1.851,THRUST_SEARCH,OPEN_LOOP,0.0036,0.00364,0.00291,0.00364,0.0,-0.0026,0.617,0.617,0.617,,0.67,,False,0.0,0.0,0.0,0.0,0.0,-171.373,-166.6409,0.004,True,True,Mode(963497464),0.1536,34,0.6159
1.862,THRUST_SEARCH,OPEN_LOOP,0.0036,0.00356,0.00298,0.00356,0.0,-0.00283,0.6172,0.6172,0.6172,,0.67,,False,0.0,0.0,0.0,0.0,0.0,-171.373,-166.9591,0.0068,True,False,Mode(963497464),0.1646,35,0.617
1.873,THRUST_SEARCH,OPEN_LOOP,0.0036,0.00365,0.00493,0.00493,0.0,-0.00232,0.6175,0.6175,0.6175,,0.67,,False,0.0,0.0,0.0,0.0,0.0,-171.373,-167.2443,0.009,True,False,Mode(963497464),0.1756,35,0.617
1.884,THRUST_SEARCH,OPEN_LOOP,0.0037,0.00373,0.0049,0.0049,0.0,-0.00186,0.6177,0.6177,0.6177,,0.67,,False,0.0,0.0,0.0,0.0,0.0,-171.373,-167.5648,0.005,True,False,Mode(963497464),0.1865,35,0.617
1.894,THRUST_SEARCH,OPEN_LOOP,0.0038,0.00378,0.00452,0.00452,0.0,-0.00157,0.6179,0.6179,0.6179,,0.67,,False,0.0,0.0,0.0,0.0,0.0,-171.373,-167.5271,0.0069,True,False,Mode(963497464),0.1974,35,0.617
1.906,THRUST_SEARCH,OPEN_LOOP,0.0038,0.00377,0.00388,0.00388,0.0,-0.00153,0.6181,0.6181,0.6181,,0.67,,False,0.0,0.0,0.0,0.0,0.0,-171.373,-167.3077,0.009,True,True,Mode(963497464),0.2084,35,0.617
1.916,THRUST_SEARCH,OPEN_LOOP,0.0037,0.00374,0.0035,0.00374,0.0,-0.00163,0.6183,0.6183,0.6183,,0.67,,False,0.0,0.0,0.0,0.0,0.0,-171.373,-166.9273,0.0045,True,False,Mode(963497464),0.2188,36,0.6181
1.927,THRUST_SEARCH,OPEN_LOOP,0.0036,0.0036,0.00228,0.0036,0.0,-0.00214,0.6185,0.6185,0.6185,,0.67,,False,0.0,0.0,0.0,0.0,0.0,-171.373,-166.9281,0.0067,True,False,Mode(963497464),0.2295,36,0.6181
1.937,THRUST_SEARCH,OPEN_LOOP,0.0035,0.00354,0.00323,0.00354,0.0,-0.00226,0.6187,0.6187,0.6187,,0.67,,False,0.0,0.0,0.0,0.0,0.0,-171.373,-167.0991,0.009,True,False,Mode(963497464),0.2405,36,0.6181
1.949,THRUST_SEARCH,OPEN_LOOP,0.0036,0.00357,0.0041,0.0041,0.0,-0.00205,0.619,0.619,0.619,,0.67,,False,0.0,0.0,0.0,0.0,0.0,-171.373,-167.3929,0.002,True,False,Mode(963497464),0.2515,36,0.6181
1.96,THRUST_SEARCH,OPEN_LOOP,0.0036,0.00361,0.00428,0.00428,0.0,-0.00179,0.6192,0.6192,0.6192,,0.67,,False,0.0,0.0,0.0,0.0,0.0,-171.373,-167.4326,0.004,True,True,Mode(963497464),0.2625,36,0.6181
1.97,THRUST_SEARCH,OPEN_LOOP,0.0036,0.00362,0.0039,0.0039,0.0,-0.00168,0.6194,0.6194,0.6194,,0.67,,False,0.0,0.0,0.0,0.0,0.0,-171.373,-167.4149,0.009,True,False,Mode(963497464),0.2735,37,0.6192
1.981,THRUST_SEARCH,OPEN_LOOP,0.0035,0.00353,0.0028,0.00353,0.0,-0.00196,0.6196,0.6196,0.6196,,0.67,,False,0.0,0.0,0.0,0.0,0.0,-171.373,-167.4958,0.004,True,False,Mode(963497464),0.2845,37,0.6192
1.992,THRUST_SEARCH,OPEN_LOOP,0.0034,0.00337,0.00189,0.00337,0.0,-0.00254,0.6198,0.6198,0.6198,,0.67,,False,0.0,0.0,0.0,0.0,0.0,-171.373,-167.6164,0.006,True,False,Mode(963497464),0.2954,37,0.6192
2.003,THRUST_SEARCH,OPEN_LOOP,0.0032,0.00316,0.00121,0.00316,0.0,-0.0033,0.6201,0.6201,0.6201,,0.67,,False,0.0,0.0,0.0,0.0,0.0,-171.373,-167.8038,0.0075,True,False,Mode(963497464),0.3059,37,0.6192
2.014,THRUST_SEARCH,OPEN_LOOP,0.0029,0.0029,0.00056,0.0029,0.0,-0.00422,0.6203,0.6203,0.6203,,0.67,,False,0.0,0.0,0.0,0.0,0.0,-171.373,-168.5776,0.001,True,True,Mode(963497464),0.3169,37,0.6192
2.025,THRUST_SEARCH,OPEN_LOOP,0.0027,0.00266,0.00066,0.00266,0.0,-0.005,0.6205,0.6205,0.6205,,0.67,,False,0.0,0.0,0.0,0.0,0.0,-171.373,-168.9542,0.0031,True,False,Mode(963497464),0.328,38,0.6203
2.035,THRUST_SEARCH,OPEN_LOOP,0.0024,0.00242,0.00034,0.00242,0.0,-0.00581,0.6207,0.6207,0.6207,,0.67,,False,0.0,0.0,0.0,0.0,0.0,-171.373,-169.2408,0.0075,True,False,Mode(963497464),0.3383,38,0.6203
2.046,THRUST_SEARCH,OPEN_LOOP,0.0022,0.00222,0.00081,0.00222,0.0,-0.00636,0.6209,0.6209,0.6209,,0.67,,False,0.0,0.0,0.0,0.0,0.0,-171.373,-169.6657,0.001,True,False,Mode(963497464),0.3493,38,0.6203
2.057,THRUST_SEARCH,OPEN_LOOP,0.0021,0.00207,0.0012,0.00207,0.0,-0.0067,0.6211,0.6211,0.6211,,0.67,,False,0.0,0.0,0.0,0.0,0.0,-171.373,-169.7431,0.003,True,False,Mode(963497464),0.3603,38,0.6203
2.069,THRUST_SEARCH,OPEN_LOOP,0.0019,0.00188,0.00066,0.00188,0.0,-0.00717,0.6214,0.6214,0.6214,,0.67,,False,0.0,0.0,0.0,0.0,0.0,-171.373,-169.5074,0.0045,True,True,Mode(963497464),0.3708,38,0.6203
2.079,THRUST_SEARCH,OPEN_LOOP,0.0019,0.00188,0.00269,0.00269,0.0,-0.00686,0.6216,0.6216,0.6216,,0.67,,False,0.0,0.0,0.0,0.0,0.0,-171.373,-168.9,0.001,True,False,Mode(963497464),0.3818,39,0.6214
2.09,THRUST_SEARCH,OPEN_LOOP,0.002,0.002,0.00408,0.00408,0.0,-0.00605,0.6218,0.6218,0.6218,,0.67,,False,0.0,0.0,0.0,0.0,0.0,-171.373,-168.5011,0.003,True,False,Mode(963497464),0.3928,39,0.6214
2.101,THRUST_SEARCH,OPEN_LOOP,0.0021,0.00211,0.00397,0.00397,0.0,-0.00532,0.622,0.622,0.622,,0.67,,False,0.0,0.0,0.0,0.0,0.0,-171.373,-168.0662,0.005,True,False,Mode(963497464),0.4037,39,0.6214
2.112,THRUST_SEARCH,OPEN_LOOP,0.0024,0.00239,0.006,0.006,0.0,-0.00391,0.6222,0.6222,0.6222,,0.67,,False,0.0,0.0,0.0,0.0,0.0,-171.373,-167.6084,0.003,True,False,Mode(963497464),0.4147,39,0.6214
2.123,THRUST_SEARCH,OPEN_LOOP,0.0027,0.00273,0.00675,0.00675,0.0,-0.00234,0.6225,0.6225,0.6225,,0.67,,False,0.0,0.0,0.0,0.0,0.0,-171.373,-166.7638,0.0012,True,True,Mode(963497464),0.4259,39,0.6214
2.133,THRUST_SEARCH,OPEN_LOOP,0.0031,0.00309,0.00721,0.00721,0.0,-0.00073,0.6227,0.6227,0.6227,,0.67,,False,0.0,0.0,0.0,0.0,0.0,-171.373,-166.4543,0.003,True,False,Mode(963497464),0.4364,40,0.6225
2.144,THRUST_SEARCH,OPEN_LOOP,0.0034,0.00341,0.00687,0.00687,0.0,0.00062,0.6229,0.6229,0.6229,,0.67,,False,0.0,0.0,0.0,0.0,0.0,-171.373,-166.1586,0.0068,True,False,Mode(963497464),0.4471,40,0.6225
2.155,THRUST_SEARCH,OPEN_LOOP,0.0038,0.00376,0.00745,0.00745,0.0,0.00205,0.6231,0.6231,0.6231,,0.67,,False,0.0,0.0,0.0,0.0,0.0,-171.373,-165.9587,0.009,True,False,Mode(963497464),0.4581,40,0.6225
2.166,THRUST_SEARCH,OPEN_LOOP,0.0041,0.00408,0.00714,0.00714,0.0,0.00325,0.6233,0.6233,0.6233,,0.67,,False,0.0,0.0,0.0,0.0,0.0,-171.373,-165.5868,0.005,True,False,Mode(963497464),0.4691,40,0.6225
2.177,THRUST_SEARCH,OPEN_LOOP,0.0044,0.00438,0.00726,0.00726,0.0,0.00437,0.6235,0.6235,0.6235,,0.67,,False,0.0,0.0,0.0,0.0,0.0,-171.373,-165.4146,0.0068,True,True,Mode(963497464),0.4802,40,0.6225
2.188,THRUST_SEARCH,OPEN_LOOP,0.0046,0.00461,0.00654,0.00654,0.0,0.00513,0.6238,0.6238,0.6238,,0.67,,False,0.0,0.0,0.0,0.0,0.0,-171.373,-165.2321,0.009,True,False,Mode(963497464),0.4912,41,0.6235
2.199,THRUST_SEARCH,OPEN_LOOP,0.0048,0.00478,0.00599,0.00599,0.0,0.0056,0.624,0.624,0.624,,0.67,,False,0.0,0.0,0.0,0.0,0.0,-171.373,-165.4669,0.002,True,False,Mode(963497464),0.5021,41,0.6235
2.21,THRUST_SEARCH,OPEN_LOOP,0.0049,0.00495,0.00601,0.00601,0.0,0.00602,0.6242,0.6242,0.6242,,0.67,,False,0.0,0.0,0.0,0.0,0.0,-171.373,-165.7569,0.0072,True,False,Mode(963497464),0.5133,41,0.6235
2.221,THRUST_SEARCH,OPEN_LOOP,0.0049,0.00489,0.00363,0.00489,0.0,0.00552,0.6244,0.6244,0.6244,,0.67,,False,0.0,0.0,0.0,0.0,0.0,-171.373,-166.5705,0.001,True,False,Mode(963497464),0.5243,41,0.6235
2.232,THRUST_SEARCH,OPEN_LOOP,0.005,0.00503,0.00579,0.00579,0.0,0.00582,0.6246,0.6246,0.6246,,0.67,,False,0.0,0.0,0.0,0.0,0.0,-171.373,-166.9739,0.003,True,True,Mode(963497464),0.5352,41,0.6235
2.243,THRUST_SEARCH,OPEN_LOOP,0.0049,0.00493,0.00324,0.00493,0.0,0.00516,0.6249,0.6249,0.6249,,0.67,,False,0.0,0.0,0.0,0.0,0.0,-171.373,-167.2253,0.005,True,False,Mode(963497464),0.5462,42,0.6246
2.254,THRUST_SEARCH,OPEN_LOOP,0.0048,0.00475,0.0023,0.00475,0.0,0.00419,0.6251,0.6251,0.6251,,0.67,,False,0.0,0.0,0.0,0.0,0.0,-171.373,-167.1593,0.001,True,False,Mode(963497464),0.5572,42,0.6246
2.265,THRUST_SEARCH,OPEN_LOOP,0.0046,0.00457,0.0021,0.00457,0.0,0.00322,0.6253,0.6253,0.6253,,0.67,,False,0.0,0.0,0.0,0.0,0.0,-171.373,-166.8986,0.003,True,False,Mode(963497464),0.5682,42,0.6246
2.276,THRUST_SEARCH,OPEN_LOOP,0.0043,0.00433,0.00151,0.00433,0.0,0.00211,0.6255,0.6255,0.6255,,0.67,,False,0.0,0.0,0.0,0.0,0.0,-171.373,-166.7316,0.005,True,False,Mode(963497464),0.5791,42,0.6246
2.287,THRUST_SEARCH,OPEN_LOOP,0.004,0.00403,0.00064,0.00403,0.0,0.00078,0.6257,0.6257,0.6257,,0.67,,False,0.0,0.0,0.0,0.0,0.0,-171.373,-166.9503,0.0,True,True,Mode(963497464),0.5902,42,0.6246
2.298,THRUST_SEARCH,OPEN_LOOP,0.0037,0.00374,0.00052,0.00374,0.0,-0.00048,0.626,0.626,0.626,,0.67,,False,0.0,0.0,0.0,0.0,0.0,-171.373,-167.3421,0.002,True,False,Mode(963497464),0.6011,43,0.6257
2.309,THRUST_SEARCH,OPEN_LOOP,0.0035,0.00348,0.0008,0.00348,0.0,-0.00153,0.6262,0.6262,0.6262,,0.67,,False,0.0,0.0,0.0,0.0,0.0,-171.373,-167.8143,0.0037,True,False,Mode(963497464),0.6118,43,0.6257
2.32,THRUST_SEARCH,OPEN_LOOP,0.0031,0.00315,-0.00017,0.00315,0.0,-0.00283,0.6264,0.6264,0.6264,,0.67,,False,0.0,0.0,0.0,0.0,0.0,-171.373,-168.1504,0.006,True,False,Mode(963497464),0.6227,43,0.6257
2.331,THRUST_SEARCH,OPEN_LOOP,0.0028,0.00277,-0.00083,0.00277,0.0,-0.00425,0.6266,0.6266,0.6266,,0.67,,False,0.0,0.0,0.0,0.0,0.0,-171.373,-167.89,0.002,True,False,Mode(963497464),0.6337,43,0.6257
2.342,THRUST_SEARCH,OPEN_LOOP,0.0024,0.00241,-0.00092,0.00241,0.0,-0.00556,0.6268,0.6268,0.6268,,0.67,,False,0.0,0.0,0.0,0.0,0.0,-171.373,-167.6162,0.004,True,True,Mode(963497464),0.6448,43,0.6257
2.353,THRUST_SEARCH,OPEN_LOOP,0.0021,0.00205,-0.00104,0.00205,0.0,-0.00678,0.6271,0.6271,0.6271,,0.67,,False,0.0,0.0,0.0,0.0,0.0,-171.373,-167.4365,0.007,True,False,Mode(963497464),0.6563,44,0.6268
2.365,THRUST_SEARCH,OPEN_LOOP,0.0018,0.00175,-0.00055,0.00175,0.0,-0.00769,0.6273,0.6273,0.6273,,0.67,,False,0.0,0.0,0.0,0.0,0.0,-171.373,-167.8027,0.001,True,False,Mode(963497464),0.6678,44,0.6268
2.376,THRUST_SEARCH,OPEN_LOOP,0.0016,0.00156,0.00044,0.00156,0.0,-0.00814,0.6275,0.6275,0.6275,,0.67,,False,0.0,0.0,0.0,0.0,0.0,-171.373,-168.0875,0.0061,True,False,Mode(963497464),0.6789,44,0.6268
2.386,THRUST_SEARCH,OPEN_LOOP,0.0015,0.00145,0.00118,0.00145,0.0,-0.00824,0.6277,0.6277,0.6277,,0.67,,False,0.0,0.0,0.0,0.0,0.0,-171.373,-168.3576,0.0075,True,False,Mode(963497464),0.6893,44,0.6268
2.397,THRUST_SEARCH,OPEN_LOOP,0.0014,0.0014,0.00188,0.00188,0.0,-0.00806,0.6279,0.6279,0.6279,,0.67,,False,0.0,0.0,0.0,0.0,0.0,-171.373,-168.5318,0.001,True,True,Mode(963497464),0.7002,44,0.6268
2.408,THRUST_SEARCH,OPEN_LOOP,0.0013,0.0013,0.00112,0.0013,0.0,-0.00813,0.6282,0.6282,0.6282,,0.67,,False,0.0,0.0,0.0,0.0,0.0,-171.373,-168.3795,0.003,True,False,Mode(963497464),0.7112,45,0.6279
2.419,THRUST_SEARCH,OPEN_LOOP,0.0013,0.00129,0.00209,0.00209,0.0,-0.00781,0.6284,0.6284,0.6284,,0.67,,False,0.0,0.0,0.0,0.0,0.0,-171.373,-168.3489,0.0075,True,False,Mode(963497464),0.7217,45,0.6279
2.43,THRUST_SEARCH,OPEN_LOOP,0.0013,0.00126,0.00183,0.00183,0.0,-0.00759,0.6286,0.6286,0.6286,,0.67,,False,0.0,0.0,0.0,0.0,0.0,-171.373,-168.6248,0.001,True,False,Mode(963497464),0.7327,45,0.6279
2.441,THRUST_SEARCH,OPEN_LOOP,0.0012,0.00125,0.002,0.002,0.0,-0.00729,0.6288,0.6288,0.6288,,0.67,,False,0.0,0.0,0.0,0.0,0.0,-171.373,-168.9776,0.0031,True,False,Mode(963497464),0.7437,45,0.6279
2.451,THRUST_SEARCH,OPEN_LOOP,0.0012,0.00124,0.00193,0.00193,0.0,-0.00702,0.629,0.629,0.629,,0.67,,False,0.0,0.0,0.0,0.0,0.0,-171.373,-169.4946,0.0044,True,True,Mode(963497464),0.754,45,0.6279
2.462,THRUST_SEARCH,OPEN_LOOP,0.0013,0.00126,0.00234,0.00234,0.0,-0.0066,0.6292,0.6292,0.6292,,0.67,,False,0.0,0.0,0.0,0.0,0.0,-171.373,-170.4051,0.001,True,False,Mode(963497464),0.765,46,0.629
2.473,THRUST_SEARCH,OPEN_LOOP,0.0012,0.00122,0.00152,0.00152,0.0,-0.00648,0.6295,0.6295,0.6295,,0.67,,False,0.0,0.0,0.0,0.0,0.0,-171.373,-170.6241,0.003,True,False,Mode(963497464),0.7759,46,0.629
2.484,THRUST_SEARCH,OPEN_LOOP,0.0011,0.00108,0.0004,0.00108,0.0,-0.00675,0.6297,0.6297,0.6297,,0.67,,False,0.0,0.0,0.0,0.0,0.0,-171.373,-170.6344,0.005,True,False,Mode(963497464),0.7869,46,0.629
2.495,THRUST_SEARCH,OPEN_LOOP,0.001,0.00096,0.00041,0.00096,0.0,-0.00696,0.6299,0.6299,0.6299,,0.67,,False,0.0,0.0,0.0,0.0,0.0,-171.373,-170.5794,0.0067,True,False,Mode(963497464),0.7977,46,0.629
2.507,THRUST_SEARCH,OPEN_LOOP,0.0009,0.00087,0.00076,0.00087,0.0,-0.00701,0.6301,0.6301,0.6301,,0.67,,False,0.0,0.0,0.0,0.0,0.0,-171.373,-170.6313,0.009,True,True,Mode(963497464),0.8087,46,0.629
2.517,THRUST_SEARCH,OPEN_LOOP,0.0008,0.00078,0.0006,0.00078,0.0,-0.00708,0.6303,0.6303,0.6303,,0.67,,False,0.0,0.0,0.0,0.0,0.0,-171.373,-171.2382,0.004,True,False,Mode(963497464),0.8196,47,0.6301
2.528,THRUST_SEARCH,OPEN_LOOP,0.0007,0.00068,0.0005,0.00068,0.0,-0.00715,0.6306,0.6306,0.6306,,0.67,,False,0.0,0.0,0.0,0.0,0.0,-171.373,-171.675,0.0071,True,False,Mode(963497464),0.8309,47,0.6301
2.539,THRUST_SEARCH,OPEN_LOOP,0.0006,0.00061,0.00065,0.00065,0.0,-0.00713,0.6308,0.6308,0.6308,,0.67,,False,0.0,0.0,0.0,0.0,0.0,-171.373,-172.228,0.009,True,False,Mode(963497464),0.8419,47,0.6301
2.55,THRUST_SEARCH,OPEN_LOOP,0.0004,0.00039,-0.00104,0.00039,0.0,-0.00769,0.631,0.631,0.631,,0.67,,False,0.0,0.0,0.0,0.0,0.0,-171.373,-172.8881,0.005,True,False,Mode(963497464),0.8528,47,0.6301
2.561,THRUST_SEARCH,OPEN_LOOP,0.0001,0.00011,-0.00188,0.00011,0.0,-0.00848,0.6312,0.6312,0.6312,,0.67,,False,0.0,0.0,0.0,0.0,0.0,-171.373,-172.7607,0.0074,True,True,Mode(963497464),0.8643,47,0.6301
2.572,THRUST_SEARCH,OPEN_LOOP,-0.0002,-0.00016,-0.00203,-0.00016,0.0,-0.00921,0.6314,0.6314,0.6314,,0.67,,False,0.0,0.0,0.0,0.0,0.0,-171.373,-172.3174,0.001,True,False,Mode(963497464),0.8752,48,0.6312
2.583,THRUST_SEARCH,OPEN_LOOP,-0.0005,-0.0005,-0.00303,-0.0005,0.0,-0.01021,0.6317,0.6317,0.6317,,0.67,,False,0.0,0.0,0.0,0.0,0.0,-171.373,-172.2829,0.003,True,False,Mode(963497464),0.8862,48,0.6312
2.594,THRUST_SEARCH,OPEN_LOOP,-0.0008,-0.00084,-0.00327,-0.00084,0.0,-0.01117,0.6319,0.6319,0.6319,,0.67,,False,0.0,0.0,0.0,0.0,0.0,-171.373,-172.5255,0.0075,True,False,Mode(963497464),0.8967,48,0.6312
2.605,THRUST_SEARCH,OPEN_LOOP,-0.001,-0.00103,-0.00172,-0.00103,0.0,-0.01144,0.6321,0.6321,0.6321,,0.67,,False,0.0,0.0,0.0,0.0,0.0,-171.373,-172.9484,0.001,True,False,Mode(963497464),0.9077,48,0.6312
2.616,THRUST_SEARCH,OPEN_LOOP,-0.0011,-0.0011,-0.00051,-0.00051,0.0,-0.01121,0.6323,0.6323,0.6323,,0.67,,False,0.0,0.0,0.0,0.0,0.0,-171.373,-172.8451,0.003,True,True,Mode(963497464),0.9186,48,0.6312
2.627,THRUST_SEARCH,OPEN_LOOP,-0.001,-0.00101,0.0012,0.0012,0.0,-0.01035,0.6325,0.6325,0.6325,,0.67,,False,0.0,0.0,0.0,0.0,0.0,-171.373,-172.6488,0.005,True,False,Mode(963497464),0.9296,49,0.6323
2.638,THRUST_SEARCH,OPEN_LOOP,-0.0008,-0.00085,0.00203,0.00203,0.0,-0.00921,0.6328,0.6328,0.6328,,0.67,,False,0.0,0.0,0.0,0.0,0.0,-171.373,-172.3743,0.0075,True,False,Mode(963497464),0.0,49,0.6323
2.649,THRUST_SEARCH,OPEN_LOOP,-0.0005,-0.00046,0.00474,0.00474,0.0,-0.00717,0.633,0.633,0.633,,0.67,,False,0.0,0.0,0.0,0.0,0.0,-171.373,-172.3336,0.004,True,False,Mode(963497464),0.011,49,0.6323
2.659,THRUST_SEARCH,OPEN_LOOP,0.0,2e-05,0.00584,0.00584,0.0,-0.00489,0.6332,0.6332,0.6332,,0.67,,False,0.0,0.0,0.0,0.0,0.0,-171.373,-172.5525,0.006,True,False,Mode(963497464),0.0214,49,0.6323
2.67,THRUST_SEARCH,OPEN_LOOP,0.0006,0.00057,0.00692,0.00692,0.0,-0.00241,0.6334,0.6334,0.6334,,0.67,,False,0.0,0.0,0.0,0.0,0.0,-171.373,-172.9151,0.0076,True,True,Mode(963497464),0.032,49,0.6323
2.681,THRUST_SEARCH,OPEN_LOOP,0.0013,0.00128,0.00907,0.00907,0.0,0.00065,0.6336,0.6336,0.6336,,0.67,,False,0.0,0.0,0.0,0.0,0.0,-171.373,-173.6796,0.0005,True,False,Mode(963497464),0.0434,50,0.6334
2.692,THRUST_SEARCH,OPEN_LOOP,0.002,0.00198,0.00929,0.00929,0.0,0.00352,0.6338,0.6338,0.6338,,0.67,,False,0.0,0.0,0.0,0.0,0.0,-171.373,-173.8898,0.006,True,False,Mode(963497464),0.0544,50,0.6334
2.703,THRUST_SEARCH,OPEN_LOOP,0.0027,0.00269,0.00982,0.00982,0.0,0.00632,0.6341,0.6341,0.6341,,0.67,,False,0.0,0.0,0.0,0.0,0.0,-171.373,-173.9608,0.008,True,False,Mode(963497464),0.0654,50,0.6334
2.714,THRUST_SEARCH,OPEN_LOOP,0.0033,0.0033,0.00901,0.00901,0.0,0.00856,0.6343,0.6343,0.6343,,0.67,,False,0.0,0.0,0.0,0.0,0.0,-171.373,-173.7218,0.001,True,False,Mode(963497464),0.0764,50,0.6334
2.725,THRUST_SEARCH,OPEN_LOOP,0.0039,0.00389,0.00909,0.00909,0.0,0.0106,0.6345,0.6345,0.6345,,0.67,,False,0.0,0.0,0.0,0.0,0.0,-171.373,-173.5888,0.003,True,True,Mode(963497464),0.0873,50,0.6334
2.736,THRUST_SEARCH,OPEN_LOOP,0.0046,0.00457,0.0105,0.0105,0.0,0.01293,0.6347,0.6347,0.6347,,0.67,,False,0.0,0.0,0.0,0.0,0.0,-171.373,-173.5753,0.008,True,False,Mode(963497464),0.0983,51,0.6345
2.747,THRUST_SEARCH,OPEN_LOOP,0.0053,0.00532,0.01168,0.01168,0.0,0.01543,0.6349,0.6349,0.6349,,0.67,,False,0.0,0.0,0.0,0.0,0.0,-171.373,-173.852,0.001,True,False,Mode(963497464),0.1093,51,0.6345
2.758,THRUST_SEARCH,OPEN_LOOP,0.006,0.006,0.01144,0.01144,0.0,0.01757,0.6352,0.6352,0.6352,,0.67,,False,0.0,0.0,0.0,0.0,0.0,-171.373,-174.0509,0.003,True,False,Mode(963497464),0.1202,51,0.6345
2.77,THRUST_SEARCH,OPEN_LOOP,0.0066,0.00664,0.01136,0.01136,0.0,0.01942,0.6354,0.6354,0.6354,,0.67,,False,0.0,0.0,0.0,0.0,0.0,-171.373,-174.1249,0.004,True,False,Mode(963497464),0.1312,51,0.6345
2.78,THRUST_SEARCH,OPEN_LOOP,0.0072,0.00717,0.01048,0.01048,0.0,0.02073,0.6356,0.6356,0.6356,,0.67,,False,0.0,0.0,0.0,0.0,0.0,-171.373,-174.1812,0.002,True,True,Mode(963497464),0.1422,51,0.6345
2.791,THRUST_SEARCH,OPEN_LOOP,0.0075,0.00751,0.00875,0.00875,0.0,0.02121,0.6358,0.6358,0.6358,,0.67,,False,0.0,0.0,0.0,0.0,0.0,-171.373,-174.1077,0.004,True,False,Mode(963497464),0.1532,52,0.6356
2.801,THRUST_SEARCH,OPEN_LOOP,0.0077,0.00774,0.00776,0.00776,0.0,0.02122,0.636,0.636,0.636,,0.67,,False,0.0,0.0,0.0,0.0,0.0,-171.373,-174.1954,0.006,True,False,Mode(963497464),0.1636,52,0.6356
2.812,THRUST_SEARCH,OPEN_LOOP,0.0079,0.0079,0.0072,0.0079,0.0,0.02094,0.6362,0.6362,0.6362,,0.67,,False,0.0,0.0,0.0,0.0,0.0,-171.373,-174.3463,0.008,True,False,Mode(963497464),0.1746,52,0.6356
2.823,THRUST_SEARCH,OPEN_LOOP,0.008,0.00803,0.0069,0.00803,0.0,0.0205,0.6365,0.6365,0.6365,,0.67,,False,0.0,0.0,0.0,0.0,0.0,-171.373,-174.8124,0.001,True,False,Mode(963497464),0.1856,52,0.6356
2.834,THRUST_SEARCH,OPEN_LOOP,0.0081,0.00812,0.00671,0.00812,0.0,0.01995,0.6367,0.6367,0.6367,,0.67,,False,0.0,0.0,0.0,0.0,0.0,-171.373,-175.0605,0.006,True,True,Mode(963497464),0.1966,52,0.6356
2.845,THRUST_SEARCH,OPEN_LOOP,0.0082,0.00817,0.00644,0.00817,0.0,0.01927,0.6369,0.6369,0.6369,,0.67,,False,0.0,0.0,0.0,0.0,0.0,-171.373,-175.229,0.005,True,False,Mode(963497464),0.2075,53,0.6367
2.856,THRUST_SEARCH,OPEN_LOOP,0.0081,0.00811,0.00524,0.00811,0.0,0.01814,0.6371,0.6371,0.6371,,0.67,,False,0.0,0.0,0.0,0.0,0.0,-171.373,-175.6731,0.001,True,False,Mode(963497464),0.2185,53,0.6367
2.867,THRUST_SEARCH,OPEN_LOOP,0.0079,0.00794,0.00402,0.00794,0.0,0.0166,0.6373,0.6373,0.6373,,0.67,,False,0.0,0.0,0.0,0.0,0.0,-171.373,-175.8993,0.0061,True,False,Mode(963497464),0.2296,53,0.6367
2.878,THRUST_SEARCH,OPEN_LOOP,0.0078,0.00782,0.00467,0.00782,0.0,0.01536,0.6376,0.6376,0.6376,,0.67,,False,0.0,0.0,0.0,0.0,0.0,-171.373,-176.0974,0.008,True,False,Mode(963497464),0.2404,53,0.6367
2.889,THRUST_SEARCH,OPEN_LOOP,0.0076,0.00763,0.00383,0.00763,0.0,0.01387,0.6378,0.6378,0.6378,,0.67,,False,0.0,0.0,0.0,0.0,0.0,-171.373,-176.5705,0.001,True,True,Mode(963497464),0.2514,53,0.6367
2.9,THRUST_SEARCH,OPEN_LOOP,0.0075,0.00751,0.00465,0.00751,0.0,0.01275,0.638,0.638,0.638,,0.67,,False,0.0,0.0,0.0,0.0,0.0,-171.373,-176.8849,0.003,True,False,Mode(963497464),0.2624,54,0.6378
2.911,THRUST_SEARCH,OPEN_LOOP,0.0074,0.00736,0.00434,0.00736,0.0,0.01157,0.6382,0.6382,0.6382,,0.67,,False,0.0,0.0,0.0,0.0,0.0,-171.373,-177.2084,0.0075,True,False,Mode(963497464),0.2729,54,0.6378
2.921,THRUST_SEARCH,OPEN_LOOP,0.0071,0.00709,0.00287,0.00709,0.0,0.00991,0.6384,0.6384,0.6384,,0.67,,False,0.0,0.0,0.0,0.0,0.0,-171.373,-177.4271,0.001,True,False,Mode(963497464),0.2838,54,0.6378
2.932,THRUST_SEARCH,OPEN_LOOP,0.0067,0.00671,0.00162,0.00671,0.0,0.00792,0.6386,0.6386,0.6386,,0.67,,False,0.0,0.0,0.0,0.0,0.0,-171.373,-177.4047,0.003,True,False,Mode(963497464),0.2948,54,0.6378
2.943,THRUST_SEARCH,OPEN_LOOP,0.0064,0.00635,0.00159,0.00635,0.0,0.00606,0.6389,0.6389,0.6389,,0.67,,False,0.0,0.0,0.0,0.0,0.0,-171.373,-177.3463,0.0038,True,True,Mode(963497464),0.3056,54,0.6378
2.955,THRUST_SEARCH,OPEN_LOOP,0.006,0.00602,0.00179,0.00602,0.0,0.0044,0.6391,0.6391,0.6391,,0.67,,False,0.0,0.0,0.0,0.0,0.0,-171.373,-177.4799,0.009,True,False,Mode(963497464),0.3166,55,0.6389
2.965,THRUST_SEARCH,OPEN_LOOP,0.0057,0.0057,0.00184,0.0057,0.0,0.0029,0.6393,0.6393,0.6393,,0.67,,False,0.0,0.0,0.0,0.0,0.0,-171.373,-177.7122,0.0015,True,False,Mode(963497464),0.3271,55,0.6389
2.976,THRUST_SEARCH,OPEN_LOOP,0.0053,0.0053,0.00075,0.0053,0.0,0.00112,0.6395,0.6395,0.6395,,0.67,,False,0.0,0.0,0.0,0.0,0.0,-171.373,-177.8857,0.0032,True,False,Mode(963497464),0.3382,55,0.6389
2.987,THRUST_SEARCH,OPEN_LOOP,0.0049,0.00492,0.00076,0.00492,0.0,-0.0005,0.6397,0.6397,0.6397,,0.67,,False,0.0,0.0,0.0,0.0,0.0,-171.373,-178.1336,0.008,True,False,Mode(963497464),0.349,55,0.6389
2.997,THRUST_SEARCH,OPEN_LOOP,0.0046,0.00455,0.00069,0.00455,0.0,-0.00201,0.6399,0.6399,0.6399,,0.67,,False,0.0,0.0,0.0,0.0,0.0,-171.373,-178.4174,0.001,True,True,Mode(963497464),0.3595,55,0.6389
3.008,THRUST_SEARCH,OPEN_LOOP,0.0042,0.00425,0.00121,0.00425,0.0,-0.00319,0.6402,0.6402,0.6402,,0.67,,False,0.0,0.0,0.0,0.0,0.0,-171.373,-178.4804,0.003,True,False,Mode(963497464),0.3705,56,0.6399
3.019,THRUST_SEARCH,OPEN_LOOP,0.0039,0.00388,0.00038,0.00388,0.0,-0.00456,0.6404,0.6404,0.6404,,0.67,,False,0.0,0.0,0.0,0.0,0.0,-171.373,-178.6219,0.008,True,False,Mode(963497464),0.3815,56,0.6399
3.03,THRUST_SEARCH,OPEN_LOOP,0.0036,0.00358,0.00095,0.00358,0.0,-0.00558,0.6406,0.6406,0.6406,,0.67,,False,0.0,0.0,0.0,0.0,0.0,-171.373,-179.0645,0.001,True,False,Mode(963497464),0.3924,56,0.6399
3.041,THRUST_SEARCH,OPEN_LOOP,0.0034,0.00344,0.00261,0.00344,0.0,-0.00591,0.6408,0.6408,0.6408,,0.67,,False,0.0,0.0,0.0,0.0,0.0,-171.373,-179.2393,0.003,True,False,Mode(963497464),0.4033,56,0.6399
3.051,THRUST_SEARCH,OPEN_LOOP,0.0033,0.00325,0.00186,0.00325,0.0,-0.00645,0.641,0.641,0.641,,0.67,,False,0.0,0.0,0.0,0.0,0.0,-171.373,-179.2735,0.0045,True,True,Mode(963497464),0.4138,56,0.6399
3.062,THRUST_SEARCH,OPEN_LOOP,0.003,0.00303,0.00146,0.00303,0.0,-0.00706,0.6412,0.6412,0.6412,,0.67,,False,0.0,0.0,0.0,0.0,0.0,-171.373,-179.2261,0.001,True,False,Mode(963497464),0.4248,57,0.641
3.073,THRUST_SEARCH,OPEN_LOOP,0.0028,0.0028,0.00116,0.0028,0.0,-0.0077,0.6415,0.6415,0.6415,,0.67,,False,0.0,0.0,0.0,0.0,0.0,-171.373,-179.1857,0.003,True,False,Mode(963497464),0.4358,57,0.641
3.084,THRUST_SEARCH,OPEN_LOOP,0.0026,0.00261,0.00148,0.00261,0.0,-0.00814,0.6417,0.6417,0.6417,,0.67,,False,0.0,0.0,0.0,0.0,0.0,-171.373,-179.2286,0.0045,True,False,Mode(963497464),0.4463,57,0.641
3.095,THRUST_SEARCH,OPEN_LOOP,0.0024,0.00236,0.00066,0.00236,0.0,-0.0088,0.6419,0.6419,0.6419,,0.67,,False,0.0,0.0,0.0,0.0,0.0,-171.373,-179.2361,0.0069,True,False,Mode(963497464),0.4572,57,0.641
3.107,THRUST_SEARCH,OPEN_LOOP,0.0021,0.00214,0.00081,0.00214,0.0,-0.00932,0.6421,0.6421,0.6421,,0.67,,False,0.0,0.0,0.0,0.0,0.0,-171.373,-179.2048,0.009,True,True,Mode(963497464),0.4681,57,0.641
3.116,THRUST_SEARCH,OPEN_LOOP,0.002,0.00203,0.00189,0.00203,0.0,-0.00938,0.6423,0.6423,0.6423,,0.67,,False,0.0,0.0,0.0,0.0,0.0,-171.373,-179.4003,0.0045,True,False,Mode(963497464),0.4786,58,0.6421
3.127,THRUST_SEARCH,OPEN_LOOP,0.0019,0.00195,0.0021,0.0021,0.0,-0.00932,0.6425,0.6425,0.6425,,0.67,,False,0.0,0.0,0.0,0.0,0.0,-171.373,-179.4336,0.0065,True,False,Mode(963497464),0.4891,58,0.6421
3.138,THRUST_SEARCH,OPEN_LOOP,0.0018,0.00179,0.00126,0.00179,0.0,-0.00952,0.6428,0.6428,0.6428,,0.67,,False,0.0,0.0,0.0,0.0,0.0,-171.373,-179.1832,0.0009,True,False,Mode(963497464),0.5004,58,0.6421
3.149,THRUST_SEARCH,OPEN_LOOP,0.0016,0.00155,0.00011,0.00155,0.0,-0.01008,0.643,0.643,0.643,,0.67,,False,0.0,0.0,0.0,0.0,0.0,-171.373,-179.0773,0.003,True,False,Mode(963497464),0.5114,58,0.6421
3.16,THRUST_SEARCH,OPEN_LOOP,0.0013,0.00131,-0.00014,0.00131,0.0,-0.01065,0.6432,0.6432,0.6432,,0.67,,False,0.0,0.0,0.0,0.0,0.0,-171.373,-179.0779,0.005,True,True,Mode(963497464),0.5223,58,0.6421
3.171,THRUST_SEARCH,OPEN_LOOP,0.0011,0.00105,-0.00039,0.00105,0.0,-0.01121,0.6434,0.6434,0.6434,,0.67,,False,0.0,0.0,0.0,0.0,0.0,-171.373,-179.0717,0.0072,True,False,Mode(963497464),0.5333,59,0.6432
3.182,THRUST_SEARCH,OPEN_LOOP,0.0009,0.00089,0.00047,0.00089,0.0,-0.01137,0.6436,0.6436,0.6436,,0.67,,False,0.0,0.0,0.0,0.0,0.0,-171.373,-179.554,0.003,True,False,Mode(963497464),0.5442,59,0.6432
3.192,THRUST_SEARCH,OPEN_LOOP,0.0006,0.0006,-0.00117,0.0006,0.0,-0.01206,0.6438,0.6438,0.6438,,0.67,,False,0.0,0.0,0.0,0.0,0.0,-171.373,-179.8892,0.0045,True,False,Mode(963497464),0.5547,59,0.6432
3.203,THRUST_SEARCH,OPEN_LOOP,0.0004,0.00036,-0.00087,0.00036,0.0,-0.01254,0.6441,0.6441,0.6441,,0.67,,False,0.0,0.0,0.0,0.0,0.0,-171.373,179.8271,0.0071,True,False,Mode(963497464),0.5658,59,0.6432
3.214,THRUST_SEARCH,OPEN_LOOP,-0.0001,-7e-05,-0.00313,-7e-05,0.0,-0.01373,0.6443,0.6443,0.6443,,0.67,,False,0.0,0.0,0.0,0.0,0.0,-171.373,179.6477,0.003,True,True,Mode(963497464),0.5768,59,0.6432
3.225,THRUST_SEARCH,OPEN_LOOP,-0.0004,-0.00036,-0.00184,-0.00036,0.0,-0.01431,0.6445,0.6445,0.6445,,0.67,,False,0.0,0.0,0.0,0.0,0.0,-171.373,179.7234,0.005,True,False,Mode(963497464),0.5877,60,0.6443
3.236,THRUST_SEARCH,OPEN_LOOP,-0.0008,-0.00081,-0.00385,-0.00081,0.0,-0.0155,0.6447,0.6447,0.6447,,0.67,,False,0.0,0.0,0.0,0.0,0.0,-171.373,179.842,0.0071,True,False,Mode(963497464),0.5988,60,0.6443
3.247,THRUST_SEARCH,OPEN_LOOP,-0.0012,-0.0012,-0.00357,-0.0012,0.0,-0.01643,0.6449,0.6449,0.6449,,0.67,,False,0.0,0.0,0.0,0.0,0.0,-171.373,179.913,0.009,True,False,Mode(963497464),0.6098,60,0.6443
3.258,THRUST_SEARCH,OPEN_LOOP,-0.0016,-0.00157,-0.00372,-0.00157,0.0,-0.01727,0.6452,0.6452,0.6452,,0.67,,False,0.0,0.0,0.0,0.0,0.0,-171.373,-179.9301,0.0045,True,False,Mode(963497464),0.6203,60,0.6443
3.269,THRUST_SEARCH,OPEN_LOOP,-0.0018,-0.00183,-0.00256,-0.00183,0.0,-0.01755,0.6454,0.6454,0.6454,,0.67,,False,0.0,0.0,0.0,0.0,0.0,-171.373,-179.8844,0.007,True,True,Mode(963497464),0.6312,60,0.6443
3.279,THRUST_SEARCH,OPEN_LOOP,-0.002,-0.00204,-0.00228,-0.00204,0.0,-0.01764,0.6456,0.6456,0.6456,,0.67,,False,0.0,0.0,0.0,0.0,0.0,-171.373,-179.738,0.009,True,False,Mode(963497464),0.6417,61,0.6454
3.29,THRUST_SEARCH,OPEN_LOOP,-0.0022,-0.0022,-0.00183,-0.00183,0.0,-0.0175,0.6458,0.6458,0.6458,,0.67,,False,0.0,0.0,0.0,0.0,0.0,-171.373,-179.0902,0.002,True,False,Mode(963497464),0.6527,61,0.6454
3.301,THRUST_SEARCH,OPEN_LOOP,-0.0024,-0.00242,-0.00284,-0.00242,0.0,-0.01766,0.646,0.646,0.646,,0.67,,False,0.0,0.0,0.0,0.0,0.0,-171.373,-179.0023,0.0037,True,False,Mode(963497464),0.6634,61,0.6454
