time,state,controller_mode,target_z,curr_z,raw_z,height_for_safety,target_vz,curr_vz,thrust,raw_thrust,search_thrust,liftoff_thrust,hover_thrust_est,thrust_no_floor,floor_applied,a_cmd_z,v_cmd_z,z_integral,roll_cmd_deg,pitch_cmd_deg,yaw_cmd_deg,yaw_mocap_deg,mocap_age,kf_used_measurement,mavlink_sent,mav_mode,mav_heartbeat_age,mav_send_count,mav_last_thrust
0.002,THRUST_SEARCH,OPEN_LOOP,0.0005,0.00047,0.00057,0.00057,0.0,5e-05,0.58,0.58,0.58,,0.67,,False,0.0,0.0,0.0,0.0,0.0,0.2518,0.1499,0.004,True,True,Mode(963497464),0.001,0,
0.012,THRUST_SEARCH,OPEN_LOOP,0.0006,0.00059,0.00074,0.00074,0.0,0.00044,0.5802,0.5802,0.5802,,0.67,,False,0.0,0.0,0.0,0.0,0.0,0.2518,0.1044,0.006,True,False,Mode(963497464),0.012,1,0.58
0.023,THRUST_SEARCH,OPEN_LOOP,0.0007,0.00067,0.00081,0.00081,0.0,0.00102,0.5805,0.5805,0.5805,,0.67,,False,0.0,0.0,0.0,0.0,0.0,0.2518,0.0602,0.008,True,False,Mode(963497464),0.0229,1,0.58
0.034,THRUST_SEARCH,OPEN_LOOP,0.0007,0.00072,0.00081,0.00081,0.0,0.00151,0.5807,0.5807,0.5807,,0.67,,False,0.0,0.0,0.0,0.0,0.0,0.2518,-0.0255,0.001,True,False,Mode(963497464),0.0343,1,0.58
0.045,THRUST_SEARCH,OPEN_LOOP,0.0007,0.00066,0.00046,0.00066,0.0,0.00032,0.5809,0.5809,0.5809,,0.67,,False,0.0,0.0,0.0,0.0,0.0,0.2518,-0.0525,0.004,True,False,Mode(963497464),0.0453,1,0.58
0.056,THRUST_SEARCH,OPEN_LOOP,0.0006,0.00057,0.00036,0.00057,0.0,-0.00104,0.5811,0.5811,0.5811,,0.67,,False,0.0,0.0,0.0,0.0,0.0,0.2518,-0.0497,0.002,True,True,Mode(963497464),0.0562,1,0.58
0.067,THRUST_SEARCH,OPEN_LOOP,0.0005,0.00046,0.0002,0.00046,0.0,-0.00265,0.5813,0.5813,0.5813,,0.67,,False,0.0,0.0,0.0,0.0,0.0,0.2518,-0.088,0.003,True,False,Mode(963497464),0.0672,2,0.5811
0.078,THRUST_SEARCH,OPEN_LOOP,0.0004,0.00037,0.00022,0.00037,0.0,-0.0035,0.5816,0.5816,0.5816,,0.67,,False,0.0,0.0,0.0,0.0,0.0,0.2518,-0.0855,0.0045,True,False,Mode(963497464),0.0777,2,0.5811
0.089,THRUST_SEARCH,OPEN_LOOP,0.0003,0.00031,0.00026,0.00031,0.0,-0.00379,0.5818,0.5818,0.5818,,0.67,,False,0.0,0.0,0.0,0.0,0.0,0.2518,-0.1094,0.007,True,False,Mode(963497464),0.0887,2,0.5811
0.1,THRUST_SEARCH,OPEN_LOOP,0.0002,0.00024,0.00018,0.00024,0.0,-0.0041,0.582,0.582,0.582,,0.67,,False,0.0,0.0,0.0,0.0,0.0,0.2518,-0.158,0.001,True,False,Mode(963497464),0.0998,2,0.5811
0.111,THRUST_SEARCH,OPEN_LOOP,0.0001,0.00012,-9e-05,0.00012,0.0,-0.005,0.5822,0.5822,0.5822,,0.67,,False,0.0,0.0,0.0,0.0,0.0,0.2518,-0.1434,0.003,True,True,Mode(963497464),0.1108,2,0.5811
0.122,THRUST_SEARCH,OPEN_LOOP,-0.0,-1e-05,-0.00024,-1e-05,0.0,-0.00585,0.5824,0.5824,0.5824,,0.67,,False,0.0,0.0,0.0,0.0,0.0,0.2518,-0.1306,0.008,True,False,Mode(963497464),0.1218,3,0.5822
0.133,THRUST_SEARCH,OPEN_LOOP,-0.0001,-0.00011,-0.00023,-0.00011,0.0,-0.00624,0.5827,0.5827,0.5827,,0.67,,False,0.0,0.0,0.0,0.0,0.0,0.2518,-0.1269,0.0001,True,False,Mode(963497464),0.1327,3,0.5822
0.144,THRUST_SEARCH,OPEN_LOOP,-0.0002,-0.00018,-0.0002,-0.00018,0.0,-0.00628,0.5829,0.5829,0.5829,,0.67,,False,0.0,0.0,0.0,0.0,0.0,0.2518,-0.1065,0.005,True,False,Mode(963497464),0.1436,3,0.5822
0.155,THRUST_SEARCH,OPEN_LOOP,-0.0001,-0.00015,0.00022,0.00022,0.0,-0.00533,0.5831,0.5831,0.5831,,0.67,,False,0.0,0.0,0.0,0.0,0.0,0.2518,-0.0128,0.007,True,False,Mode(963497464),0.1546,3,0.5822
0.167,THRUST_SEARCH,OPEN_LOOP,-0.0001,-0.00011,0.00026,0.00026,0.0,-0.00448,0.5833,0.5833,0.5833,,0.67,,False,0.0,0.0,0.0,0.0,0.0,0.2518,0.0787,0.009,True,True,Mode(963497464),0.1656,3,0.5822
0.176,THRUST_SEARCH,OPEN_LOOP,-0.0001,-7e-05,0.00027,0.00027,0.0,-0.0038,0.5835,0.5835,0.5835,,0.67,,False,0.0,0.0,0.0,0.0,0.0,0.2518,0.228,0.0036,True,False,Mode(963497464),0.1761,4,0.5833
0.187,THRUST_SEARCH,OPEN_LOOP,-0.0,-4e-05,0.00028,0.00028,0.0,-0.00321,0.5837,0.5837,0.5837,,0.67,,False,0.0,0.0,0.0,0.0,0.0,0.2518,0.2799,0.006,True,False,Mode(963497464),0.1871,4,0.5833
0.198,THRUST_SEARCH,OPEN_LOOP,-0.0,-2e-05,0.00019,0.00019,0.0,-0.00286,0.584,0.584,0.584,,0.67,,False,0.0,0.0,0.0,0.0,0.0,0.2518,0.3315,0.0075,True,False,Mode(963497464),0.1976,4,0.5833
0.209,THRUST_SEARCH,OPEN_LOOP,-0.0,-0.0,0.00021,0.00021,0.0,-0.00252,0.5842,0.5842,0.5842,,0.67,,False,0.0,0.0,0.0,0.0,0.0,0.2518,0.4012,0.001,True,False,Mode(963497464),0.2086,4,0.5833
0.219,THRUST_SEARCH,OPEN_LOOP,0.0,3e-05,0.00035,0.00035,0.0,-0.00209,0.5844,0.5844,0.5844,,0.67,,False,0.0,0.0,0.0,0.0,0.0,0.2518,0.4284,0.0008,True,True,Mode(963497464),0.2193,4,0.5833
0.23,THRUST_SEARCH,OPEN_LOOP,0.0,4e-05,0.00018,0.00018,0.0,-0.0019,0.5846,0.5846,0.5846,,0.67,,False,0.0,0.0,0.0,0.0,0.0,0.2518,0.45,0.005,True,False,Mode(963497464),0.2303,5,0.5844
0.241,THRUST_SEARCH,OPEN_LOOP,0.0001,6e-05,0.00026,0.00026,0.0,-0.00167,0.5848,0.5848,0.5848,,0.67,,False,0.0,0.0,0.0,0.0,0.0,0.2518,0.4922,0.001,True,False,Mode(963497464),0.2412,5,0.5844
0.252,THRUST_SEARCH,OPEN_LOOP,-0.0,-0.0,-0.00022,-0.0,0.0,-0.00191,0.585,0.585,0.585,,0.67,,False,0.0,0.0,0.0,0.0,0.0,0.2518,0.3831,0.002,True,False,Mode(963497464),0.2522,5,0.5844
0.263,THRUST_SEARCH,OPEN_LOOP,-0.0,-3e-05,-7e-05,-3e-05,0.0,-0.00195,0.5853,0.5853,0.5853,,0.67,,False,0.0,0.0,0.0,0.0,0.0,0.2518,0.335,0.005,True,False,Mode(963497464),0.2632,5,0.5844
0.274,THRUST_SEARCH,OPEN_LOOP,-0.0,-4e-05,3e-05,3e-05,0.0,-0.00188,0.5855,0.5855,0.5855,,0.67,,False,0.0,0.0,0.0,0.0,0.0,0.2518,0.2522,0.001,True,True,Mode(963497464),0.2742,5,0.5844
0.285,THRUST_SEARCH,OPEN_LOOP,-0.0,-5e-05,3e-05,3e-05,0.0,-0.00182,0.5857,0.5857,0.5857,,0.67,,False,0.0,0.0,0.0,0.0,0.0,0.2518,0.196,0.003,True,False,Mode(963497464),0.2851,6,0.5855
0.296,THRUST_SEARCH,OPEN_LOOP,-0.0001,-6e-05,2e-05,2e-05,0.0,-0.00175,0.5859,0.5859,0.5859,,0.67,,False,0.0,0.0,0.0,0.0,0.0,0.2518,0.1556,0.007,True,False,Mode(963497464),0.2961,6,0.5855
0.31,THRUST_SEARCH,OPEN_LOOP,-0.0001,-6e-05,9e-05,9e-05,0.0,-0.00164,0.5862,0.5862,0.5862,,0.67,,False,0.0,0.0,0.0,0.0,0.0,0.2518,0.0809,0.0,True,False,Mode(963497464),0.3096,6,0.5855
0.32,THRUST_SEARCH,OPEN_LOOP,-0.0,-3e-05,0.00026,0.00026,0.0,-0.00142,0.5864,0.5864,0.5864,,0.67,,False,0.0,0.0,0.0,0.0,0.0,0.2518,0.0558,0.004,True,False,Mode(963497464),0.3196,6,0.5855
0.331,THRUST_SEARCH,OPEN_LOOP,-0.0,-2e-05,0.0002,0.0002,0.0,-0.00127,0.5866,0.5866,0.5866,,0.67,,False,0.0,0.0,0.0,0.0,0.0,0.2518,0.0506,0.004,True,True,Mode(963497464),0.331,6,0.5855
0.342,THRUST_SEARCH,OPEN_LOOP,-0.0,-0.0,0.00017,0.00017,0.0,-0.00116,0.5868,0.5868,0.5868,,0.67,,False,0.0,0.0,0.0,0.0,0.0,0.2518,0.0795,0.003,True,False,Mode(963497464),0.342,7,0.5866
0.352,THRUST_SEARCH,OPEN_LOOP,-0.0,-0.0,0.00011,0.00011,0.0,-0.00109,0.587,0.587,0.587,,0.67,,False,0.0,0.0,0.0,0.0,0.0,0.2518,0.0926,0.0045,True,False,Mode(963497464),0.3525,7,0.5866
0.363,THRUST_SEARCH,OPEN_LOOP,0.0,0.0,0.00014,0.00014,0.0,-0.00101,0.5873,0.5873,0.5873,,0.67,,False,0.0,0.0,0.0,0.0,0.0,0.2518,0.0825,0.0037,True,False,Mode(963497464),0.3632,7,0.5866
0.374,THRUST_SEARCH,OPEN_LOOP,0.0,0.0,6e-05,6e-05,0.0,-0.00097,0.5875,0.5875,0.5875,,0.67,,False,0.0,0.0,0.0,0.0,0.0,0.2518,0.0865,0.009,True,False,Mode(963497464),0.3741,7,0.5866
0.386,THRUST_SEARCH,OPEN_LOOP,0.0,1e-05,0.00014,0.00014,0.0,-0.0009,0.5877,0.5877,0.5877,,0.67,,False,0.0,0.0,0.0,0.0,0.0,0.2518,0.1108,0.005,True,True,Mode(963497464),0.3851,7,0.5866
0.396,THRUST_SEARCH,OPEN_LOOP,-0.0,-3e-05,-0.00023,-3e-05,0.0,-0.00101,0.5879,0.5879,0.5879,,0.67,,False,0.0,0.0,0.0,0.0,0.0,0.2518,0.188,0.0043,True,False,Mode(963497464),0.3962,8,0.5877
0.407,THRUST_SEARCH,OPEN_LOOP,-0.0,-0.0,0.00031,0.00031,0.0,-0.00084,0.5881,0.5881,0.5881,,0.67,,False,0.0,0.0,0.0,0.0,0.0,0.2518,0.1322,0.001,True,False,Mode(963497464),0.4072,8,0.5877
0.418,THRUST_SEARCH,OPEN_LOOP,0.0,3e-05,0.00039,0.00039,0.0,-0.00066,0.5884,0.5884,0.5884,,0.67,,False,0.0,0.0,0.0,0.0,0.0,0.2518,0.126,0.002,True,False,Mode(963497464),0.4182,8,0.5877
0.429,THRUST_SEARCH,OPEN_LOOP,0.0,4e-05,0.00022,0.00022,0.0,-0.00057,0.5886,0.5886,0.5886,,0.67,,False,0.0,0.0,0.0,0.0,0.0,0.2518,0.1083,0.007,True,False,Mode(963497464),0.4295,8,0.5877
0.44,THRUST_SEARCH,OPEN_LOOP,0.0,4e-05,7e-05,7e-05,0.0,-0.00056,0.5888,0.5888,0.5888,,0.67,,False,0.0,0.0,0.0,0.0,0.0,0.2518,0.0973,0.008,True,True,Mode(963497464),0.4404,8,0.5877
0.451,THRUST_SEARCH,OPEN_LOOP,0.0,3e-05,-4e-05,3e-05,0.0,-0.00059,0.589,0.589,0.589,,0.67,,False,0.0,0.0,0.0,0.0,0.0,0.2518,0.0918,0.003,True,False,Mode(963497464),0.4513,9,0.5888
0.462,THRUST_SEARCH,OPEN_LOOP,0.0,2e-05,-3e-05,2e-05,0.0,-0.00061,0.5892,0.5892,0.5892,,0.67,,False,0.0,0.0,0.0,0.0,0.0,0.2518,0.1008,0.003,True,False,Mode(963497464),0.4623,9,0.5888
0.473,THRUST_SEARCH,OPEN_LOOP,0.0,0.0,-9e-05,0.0,0.0,-0.00065,0.5895,0.5895,0.5895,,0.67,,False,0.0,0.0,0.0,0.0,0.0,0.2518,0.107,0.008,True,False,Mode(963497464),0.4733,9,0.5888
0.484,THRUST_SEARCH,OPEN_LOOP,-0.0,-3e-05,-0.00029,-3e-05,0.0,-0.00076,0.5897,0.5897,0.5897,,0.67,,False,0.0,0.0,0.0,0.0,0.0,0.2518,0.1505,0.001,True,False,Mode(963497464),0.4843,9,0.5888
0.496,THRUST_SEARCH,OPEN_LOOP,-0.0001,-7e-05,-0.00029,-7e-05,0.0,-0.00086,0.5899,0.5899,0.5899,,0.67,,False,0.0,0.0,0.0,0.0,0.0,0.2518,0.1791,0.006,True,True,Mode(963497464),0.4952,9,0.5888
0.506,THRUST_SEARCH,OPEN_LOOP,-0.0001,-0.00011,-0.00043,-0.00011,0.0,-0.001,0.5901,0.5901,0.5901,,0.67,,False,0.0,0.0,0.0,0.0,0.0,0.2518,0.2274,0.0075,True,False,Mode(963497464),0.5057,10,0.5899
0.517,THRUST_SEARCH,OPEN_LOOP,-0.0001,-7e-05,0.00044,0.00044,0.0,-0.00078,0.5903,0.5903,0.5903,,0.67,,False,0.0,0.0,0.0,0.0,0.0,0.2518,0.4251,0.001,True,False,Mode(963497464),0.5167,10,0.5899
0.527,THRUST_SEARCH,OPEN_LOOP,-0.0,-1e-05,0.00061,0.00061,0.0,-0.00052,0.5905,0.5905,0.5905,,0.67,,False,0.0,0.0,0.0,0.0,0.0,0.2518,0.4516,0.005,True,False,Mode(963497464),0.5272,10,0.5899
0.538,THRUST_SEARCH,OPEN_LOOP,0.0001,5e-05,0.00071,0.00071,0.0,-0.00025,0.5908,0.5908,0.5908,,0.67,,False,0.0,0.0,0.0,0.0,0.0,0.2518,0.4375,0.005,True,False,Mode(963497464),0.5382,10,0.5899
0.549,THRUST_SEARCH,OPEN_LOOP,0.0001,0.0001,0.00063,0.00063,0.0,-3e-05,0.591,0.591,0.591,,0.67,,False,0.0,0.0,0.0,0.0,0.0,0.2518,0.4561,0.009,True,True,Mode(963497464),0.5493,10,0.5899
0.561,THRUST_SEARCH,OPEN_LOOP,0.0001,0.00013,0.00045,0.00045,0.0,0.0001,0.5912,0.5912,0.5912,,0.67,,False,0.0,0.0,0.0,0.0,0.0,0.2518,0.469,0.003,True,False,Mode(963497464),0.5602,11,0.591
0.571,THRUST_SEARCH,OPEN_LOOP,0.0002,0.00016,0.0004,0.0004,0.0,0.0002,0.5914,0.5914,0.5914,,0.67,,False,0.0,0.0,0.0,0.0,0.0,0.2518,0.4646,0.0045,True,False,Mode(963497464),0.5707,11,0.591
0.582,THRUST_SEARCH,OPEN_LOOP,0.0002,0.00019,0.00049,0.00049,0.0,0.00032,0.5916,0.5916,0.5916,,0.67,,False,0.0,0.0,0.0,0.0,0.0,0.2518,0.2168,0.001,True,False,Mode(963497464),0.5817,11,0.591
0.593,THRUST_SEARCH,OPEN_LOOP,0.0003,0.00027,0.00103,0.00103,0.0,0.00062,0.5919,0.5919,0.5919,,0.67,,False,0.0,0.0,0.0,0.0,0.0,0.2518,0.1249,0.003,True,False,Mode(963497464),0.5926,11,0.591
0.604,THRUST_SEARCH,OPEN_LOOP,0.0004,0.00042,0.00191,0.00191,0.0,0.00121,0.5921,0.5921,0.5921,,0.67,,False,0.0,0.0,0.0,0.0,0.0,0.2518,-0.065,0.005,True,True,Mode(963497464),0.6036,11,0.591
0.615,THRUST_SEARCH,OPEN_LOOP,0.0008,0.00078,0.00438,0.00438,0.0,0.00264,0.5923,0.5923,0.5923,,0.67,,False,0.0,0.0,0.0,0.0,0.0,0.2518,-0.3347,0.001,True,False,Mode(963497464),0.6146,12,0.5921
0.626,THRUST_SEARCH,OPEN_LOOP,0.0011,0.00113,0.00438,0.00438,0.0,0.00394,0.5925,0.5925,0.5925,,0.67,,False,0.0,0.0,0.0,0.0,0.0,0.2518,-0.3347,0.012,True,False,Mode(963497464),0.6256,12,0.5921
0.636,THRUST_SEARCH,OPEN_LOOP,0.0018,0.0018,0.00829,0.00829,0.0,0.00649,0.5927,0.5927,0.5927,,0.67,,False,0.0,0.0,0.0,0.0,0.0,0.2518,-0.3378,0.0044,True,False,Mode(963497464),0.636,12,0.5921
0.647,THRUST_SEARCH,OPEN_LOOP,0.0026,0.00259,0.01013,0.01013,0.0,0.00946,0.5929,0.5929,0.5929,,0.67,,False,0.0,0.0,0.0,0.0,0.0,0.2518,-0.2949,0.007,True,False,Mode(963497464),0.647,12,0.5921
0.659,THRUST_SEARCH,OPEN_LOOP,0.0034,0.00344,0.01123,0.01123,0.0,0.01252,0.5932,0.5932,0.5932,,0.67,,False,0.0,0.0,0.0,0.0,0.0,0.2518,-0.1474,0.0039,True,True,Mode(963497464),0.6579,12,0.5921
0.669,THRUST_SEARCH,OPEN_LOOP,0.0047,0.0047,0.01639,0.01639,0.0,0.01711,0.5934,0.5934,0.5934,,0.67,,False,0.0,0.0,0.0,0.0,0.0,0.2518,0.3256,0.005,True,False,Mode(963497464),0.6688,13,0.5932
0.68,THRUST_SEARCH,OPEN_LOOP,0.0061,0.00612,0.0188,0.0188,0.0,0.0221,0.5936,0.5936,0.5936,,0.67,,False,0.0,0.0,0.0,0.0,0.0,0.2518,0.4679,0.007,True,False,Mode(963497464),0.6803,13,0.5932
0.693,THRUST_SEARCH,OPEN_LOOP,0.0076,0.00761,0.02054,0.02054,0.0,0.02721,0.5939,0.5939,0.5939,,0.67,,False,0.0,0.0,0.0,0.0,0.0,0.2518,0.5796,0.009,True,False,Mode(963497464),0.0,13,0.5932
0.703,THRUST_SEARCH,OPEN_LOOP,0.0093,0.00933,0.02403,0.02403,0.0,0.03302,0.5941,0.5941,0.5941,,0.67,,False,0.0,0.0,0.0,0.0,0.0,0.2518,0.9554,0.004,True,False,Mode(963497464),0.011,13,0.5932
0.714,THRUST_SEARCH,OPEN_LOOP,0.011,0.01098,0.02472,0.02472,0.0,0.03842,0.5943,0.5943,0.5943,,0.67,,False,0.0,0.0,0.0,0.0,0.0,0.2518,1.0495,0.006,True,True,Mode(963497464),0.0215,13,0.5932
0.724,THRUST_SEARCH,OPEN_LOOP,0.0127,0.01267,0.02613,0.02613,0.0,0.0437,0.5945,0.5945,0.5945,,0.67,,False,0.0,0.0,0.0,0.0,0.0,0.2518,1.1088,0.0015,True,False,Mode(963497464),0.0319,14,0.5943
0.735,THRUST_SEARCH,OPEN_LOOP,0.0144,0.01437,0.02727,0.02727,0.0,0.04875,0.5947,0.5947,0.5947,,0.67,,False,0.0,0.0,0.0,0.0,0.0,0.2518,1.0919,0.003,True,False,Mode(963497464),0.0429,14,0.5943
0.745,THRUST_SEARCH,OPEN_LOOP,0.0161,0.01609,0.02882,0.02882,0.0,0.05372,0.5949,0.5949,0.5949,,0.67,,False,0.0,0.0,0.0,0.0,0.0,0.2518,0.9488,0.0045,True,False,Mode(963497464),0.0534,14,0.5943
0.756,THRUST_SEARCH,OPEN_LOOP,0.0178,0.01783,0.02999,0.02999,0.0,0.05846,0.5951,0.5951,0.5951,,0.67,,False,0.0,0.0,0.0,0.0,0.0,0.2518,0.8186,0.0069,True,False,Mode(963497464),0.0643,14,0.5943
0.767,THRUST_SEARCH,OPEN_LOOP,0.0196,0.01962,0.03181,0.03181,0.0,0.06322,0.5953,0.5953,0.5953,,0.67,,False,0.0,0.0,0.0,0.0,0.0,0.2518,0.6034,0.003,True,True,Mode(963497464),0.0753,14,0.5943
0.778,THRUST_SEARCH,OPEN_LOOP,0.0214,0.02138,0.03261,0.03261,0.0,0.06762,0.5956,0.5956,0.5956,,0.67,,False,0.0,0.0,0.0,0.0,0.0,0.2518,0.5868,0.005,True,False,Mode(963497464),0.0862,15,0.5953
0.789,THRUST_SEARCH,OPEN_LOOP,0.023,0.02303,0.03279,0.03279,0.0,0.07143,0.5958,0.5958,0.5958,,0.67,,False,0.0,0.0,0.0,0.0,0.0,0.2518,0.5211,0.007,True,False,Mode(963497464),0.097,15,0.5953
0.8,THRUST_SEARCH,OPEN_LOOP,0.0246,0.02457,0.03254,0.03254,0.0,0.07455,0.596,0.596,0.596,,0.67,,False,0.0,0.0,0.0,0.0,0.0,0.2518,0.3731,0.002,True,False,Mode(963497464),0.108,15,0.5953
0.811,THRUST_SEARCH,OPEN_LOOP,0.0259,0.02593,0.03171,0.03171,0.0,0.07681,0.5962,0.5962,0.5962,,0.67,,False,0.0,0.0,0.0,0.0,0.0,0.2518,0.3218,0.004,True,False,Mode(963497464),0.119,15,0.5953
0.823,THRUST_SEARCH,OPEN_LOOP,0.0273,0.02727,0.03254,0.03254,0.0,0.07887,0.5964,0.5964,0.5964,,0.67,,False,0.0,0.0,0.0,0.0,0.0,0.2518,0.2155,0.006,True,True,Mode(963497464),0.1299,15,0.5953
0.832,THRUST_SEARCH,OPEN_LOOP,0.0285,0.02847,0.03243,0.03243,0.0,0.08042,0.5966,0.5966,0.5966,,0.67,,False,0.0,0.0,0.0,0.0,0.0,0.2518,-0.0507,0.0015,True,False,Mode(963497464),0.1404,16,0.5964
0.843,THRUST_SEARCH,OPEN_LOOP,0.0296,0.02965,0.03278,0.03278,0.0,0.08164,0.5969,0.5969,0.5969,,0.67,,False,0.0,0.0,0.0,0.0,0.0,0.2518,-0.0453,0.002,True,False,Mode(963497464),0.1514,16,0.5964
0.854,THRUST_SEARCH,OPEN_LOOP,0.0307,0.03071,0.03259,0.03259,0.0,0.08237,0.5971,0.5971,0.5971,,0.67,,False,0.0,0.0,0.0,0.0,0.0,0.2518,0.0066,0.0045,True,False,Mode(963497464),0.1622,16,0.5964
0.866,THRUST_SEARCH,OPEN_LOOP,0.0317,0.03168,0.03235,0.03235,0.0,0.08263,0.5973,0.5973,0.5973,,0.67,,False,0.0,0.0,0.0,0.0,0.0,0.2518,0.0423,0.008,True,False,Mode(963497464),0.1732,16,0.5964
0.876,THRUST_SEARCH,OPEN_LOOP,0.0326,0.03256,0.03235,0.03256,0.0,0.08255,0.5975,0.5975,0.5975,,0.67,,False,0.0,0.0,0.0,0.0,0.0,0.2518,0.0423,0.019,True,True,Mode(963497464),0.1841,16,0.5964
0.889,THRUST_SEARCH,OPEN_LOOP,0.0332,0.03316,0.029,0.03316,0.0,0.08091,0.5978,0.5978,0.5978,,0.67,,False,0.0,0.0,0.0,0.0,0.0,0.2518,0.5256,0.0,True,False,Mode(963497464),0.1961,17,0.5975
0.899,THRUST_SEARCH,OPEN_LOOP,0.0335,0.03349,0.02736,0.03349,0.0,0.07848,0.598,0.598,0.598,,0.67,,False,0.0,0.0,0.0,0.0,0.0,0.2518,0.6296,0.0014,True,False,Mode(963497464),0.2075,17,0.5975
0.91,THRUST_SEARCH,OPEN_LOOP,0.0337,0.03365,0.02639,0.03365,0.0,0.07561,0.5982,0.5982,0.5982,,0.67,,False,0.0,0.0,0.0,0.0,0.0,0.2518,0.5355,0.0031,True,False,Mode(963497464),0.2186,17,0.5975
0.921,THRUST_SEARCH,OPEN_LOOP,0.0337,0.03374,0.02629,0.03374,0.0,0.07267,0.5984,0.5984,0.5984,,0.67,,False,0.0,0.0,0.0,0.0,0.0,0.2518,0.4647,0.0046,True,False,Mode(963497464),0.229,17,0.5975
0.931,THRUST_SEARCH,OPEN_LOOP,0.0336,0.03363,0.02424,0.03363,0.0,0.06897,0.5986,0.5986,0.5986,,0.67,,False,0.0,0.0,0.0,0.0,0.0,0.2518,0.4074,0.0008,True,True,Mode(963497464),0.2397,17,0.5975
0.943,THRUST_SEARCH,OPEN_LOOP,0.0334,0.03337,0.02262,0.03337,0.0,0.06474,0.5989,0.5989,0.5989,,0.67,,False,0.0,0.0,0.0,0.0,0.0,0.2518,0.6032,0.0032,True,False,Mode(963497464),0.2509,18,0.5986
0.953,THRUST_SEARCH,OPEN_LOOP,0.0329,0.03287,0.02048,0.03287,0.0,0.05988,0.5991,0.5991,0.5991,,0.67,,False,0.0,0.0,0.0,0.0,0.0,0.2518,0.8804,0.0045,True,False,Mode(963497464),0.2612,18,0.5986
0.964,THRUST_SEARCH,OPEN_LOOP,0.0323,0.03225,0.01877,0.03225,0.0,0.05459,0.5993,0.5993,0.5993,,0.67,,False,0.0,0.0,0.0,0.0,0.0,0.2518,1.1378,0.006,True,False,Mode(963497464),0.2721,18,0.5986
0.975,THRUST_SEARCH,OPEN_LOOP,0.0313,0.03134,0.01543,0.03134,0.0,0.04835,0.5995,0.5995,0.5995,,0.67,,False,0.0,0.0,0.0,0.0,0.0,0.2518,1.283,0.002,True,False,Mode(963497464),0.2831,18,0.5986
0.986,THRUST_SEARCH,OPEN_LOOP,0.0303,0.03034,0.01412,0.03034,0.0,0.04197,0.5997,0.5997,0.5997,,0.67,,False,0.0,0.0,0.0,0.0,0.0,0.2518,1.1434,0.0041,True,True,Mode(963497464),0.2942,18,0.5986
0.997,THRUST_SEARCH,OPEN_LOOP,0.0292,0.02919,0.01223,0.02919,0.0,0.0353,0.5999,0.5999,0.5999,,0.67,,False,0.0,0.0,0.0,0.0,0.0,0.2518,0.9236,0.006,True,False,Mode(963497464),0.3052,19,0.5997
1.008,THRUST_SEARCH,OPEN_LOOP,0.0279,0.02787,0.00987,0.02787,0.0,0.02822,0.6002,0.6002,0.6002,,0.67,,False,0.0,0.0,0.0,0.0,0.0,0.2518,0.6941,0.002,True,False,Mode(963497464),0.3161,19,0.5997
1.019,THRUST_SEARCH,OPEN_LOOP,0.0265,0.02647,0.00842,0.02647,0.0,0.02112,0.6004,0.6004,0.6004,,0.67,,False,0.0,0.0,0.0,0.0,0.0,0.2518,0.4748,0.004,True,False,Mode(963497464),0.3271,19,0.5997
1.03,THRUST_SEARCH,OPEN_LOOP,0.025,0.02503,0.00745,0.02503,0.0,0.01417,0.6006,0.6006,0.6006,,0.67,,False,0.0,0.0,0.0,0.0,0.0,0.2518,0.2398,0.007,True,False,Mode(963497464),0.3386,19,0.5997
1.043,THRUST_SEARCH,OPEN_LOOP,0.0237,0.0237,0.00807,0.0237,0.0,0.008,0.6008,0.6008,0.6008,,0.67,,False,0.0,0.0,0.0,0.0,0.0,0.2518,0.2722,0.009,True,True,Mode(963497464),0.3496,19,0.5997
1.055,THRUST_SEARCH,OPEN_LOOP,0.0226,0.02263,0.01055,0.02263,0.0,0.00321,0.6011,0.6011,0.6011,,0.67,,False,0.0,0.0,0.0,0.0,0.0,0.2518,0.7528,0.0025,True,False,Mode(963497464),0.3621,20,0.6008
1.064,THRUST_SEARCH,OPEN_LOOP,0.0217,0.02167,0.01129,0.02167,0.0,-0.00091,0.6013,0.6013,0.6013,,0.67,,False,0.0,0.0,0.0,0.0,0.0,0.2518,0.774,0.004,True,False,Mode(963497464),0.3721,20,0.6008
1.078,THRUST_SEARCH,OPEN_LOOP,0.0207,0.02073,0.01131,0.02073,0.0,-0.00475,0.6016,0.6016,0.6016,,0.67,,False,0.0,0.0,0.0,0.0,0.0,0.2518,0.6071,0.011,True,False,Mode(963497464),0.3865,20,0.6008
1.089,THRUST_SEARCH,OPEN_LOOP,0.02,0.02003,0.01337,0.02003,0.0,-0.00746,0.6018,0.6018,0.6018,,0.67,,False,0.0,0.0,0.0,0.0,0.0,0.2518,0.1481,0.006,True,False,Mode(963497464),0.3975,20,0.6008
1.1,THRUST_SEARCH,OPEN_LOOP,0.0194,0.01941,0.01397,0.01941,0.0,-0.00967,0.602,0.602,0.602,,0.67,,False,0.0,0.0,0.0,0.0,0.0,0.2518,0.2249,0.001,True,True,Mode(963497464),0.4085,20,0.6008
1.111,THRUST_SEARCH,OPEN_LOOP,0.0188,0.01881,0.01372,0.01881,0.0,-0.01173,0.6022,0.6022,0.6022,,0.67,,False,0.0,0.0,0.0,0.0,0.0,0.2518,0.3492,0.006,True,False,Mode(963497464),0.4194,21,0.602
1.122,THRUST_SEARCH,OPEN_LOOP,0.0182,0.01825,0.01379,0.01825,0.0,-0.01353,0.6024,0.6024,0.6024,,0.67,,False,0.0,0.0,0.0,0.0,0.0,0.2518,0.5222,0.005,True,False,Mode(963497464),0.4304,21,0.602
1.134,THRUST_SEARCH,OPEN_LOOP,0.0178,0.0178,0.01477,0.0178,0.0,-0.01475,0.6027,0.6027,0.6027,,0.67,,False,0.0,0.0,0.0,0.0,0.0,0.2518,0.6853,0.001,True,False,Mode(963497464),0.4419,21,0.602
1.145,THRUST_SEARCH,OPEN_LOOP,0.0174,0.01736,0.01452,0.01736,0.0,-0.0159,0.6029,0.6029,0.6029,,0.67,,False,0.0,0.0,0.0,0.0,0.0,0.2518,0.6354,0.0062,True,False,Mode(963497464),0.453,21,0.602
1.156,THRUST_SEARCH,OPEN_LOOP,0.017,0.01696,0.01471,0.01696,0.0,-0.0168,0.6031,0.6031,0.6031,,0.67,,False,0.0,0.0,0.0,0.0,0.0,0.2518,0.631,0.008,True,True,Mode(963497464),0.4638,21,0.602
1.167,THRUST_SEARCH,OPEN_LOOP,0.0166,0.01656,0.01432,0.01656,0.0,-0.01771,0.6033,0.6033,0.6033,,0.67,,False,0.0,0.0,0.0,0.0,0.0,0.2518,1.096,0.001,True,False,Mode(963497464),0.4748,22,0.6031
1.178,THRUST_SEARCH,OPEN_LOOP,0.0162,0.01619,0.01432,0.01619,0.0,-0.01845,0.6036,0.6036,0.6036,,0.67,,False,0.0,0.0,0.0,0.0,0.0,0.2518,1.4436,0.003,True,False,Mode(963497464),0.4858,22,0.6031
1.189,THRUST_SEARCH,OPEN_LOOP,0.0157,0.01574,0.01323,0.01574,0.0,-0.01946,0.6038,0.6038,0.6038,,0.67,,False,0.0,0.0,0.0,0.0,0.0,0.2518,1.8295,0.0073,True,False,Mode(963497464),0.4971,22,0.6031
1.2,THRUST_SEARCH,OPEN_LOOP,0.0153,0.01526,0.01253,0.01526,0.0,-0.02056,0.604,0.604,0.604,,0.67,,False,0.0,0.0,0.0,0.0,0.0,0.2518,2.5066,0.001,True,False,Mode(963497464),0.5081,22,0.6031
1.211,THRUST_SEARCH,OPEN_LOOP,0.0148,0.01478,0.01218,0.01478,0.0,-0.0216,0.6042,0.6042,0.6042,,0.67,,False,0.0,0.0,0.0,0.0,0.0,0.2518,2.6056,0.003,True,True,Mode(963497464),0.519,22,0.6031
1.223,THRUST_SEARCH,OPEN_LOOP,0.0143,0.01428,0.01179,0.01428,0.0,-0.0226,0.6045,0.6045,0.6045,,0.67,,False,0.0,0.0,0.0,0.0,0.0,0.2518,2.7086,0.006,True,False,Mode(963497464),0.531,23,0.6042
1.234,THRUST_SEARCH,OPEN_LOOP,0.0138,0.01379,0.0113,0.01379,0.0,-0.02361,0.6047,0.6047,0.6047,,0.67,,False,0.0,0.0,0.0,0.0,0.0,0.2518,3.1023,0.002,True,False,Mode(963497464),0.542,23,0.6042
1.245,THRUST_SEARCH,OPEN_LOOP,0.0133,0.01328,0.01084,0.01328,0.0,-0.02459,0.6049,0.6049,0.6049,,0.67,,False,0.0,0.0,0.0,0.0,0.0,0.2518,3.3649,0.0045,True,False,Mode(963497464),0.5534,23,0.6042
1.258,THRUST_SEARCH,OPEN_LOOP,0.0128,0.01278,0.01037,0.01278,0.0,-0.02556,0.6052,0.6052,0.6052,,0.67,,False,0.0,0.0,0.0,0.0,0.0,0.2518,3.5329,0.008,True,False,Mode(963497464),0.5654,23,0.6042
1.268,THRUST_SEARCH,OPEN_LOOP,0.0122,0.01216,0.00853,0.01216,0.0,-0.02701,0.6053,0.6053,0.6053,,0.67,,False,0.0,0.0,0.0,0.0,0.0,0.2518,3.7017,0.003,True,True,Mode(963497464),0.5749,23,0.6042
1.278,THRUST_SEARCH,OPEN_LOOP,0.0115,0.01146,0.00726,0.01146,0.0,-0.02869,0.6056,0.6056,0.6056,,0.67,,False,0.0,0.0,0.0,0.0,0.0,0.2518,3.8117,0.004,True,False,Mode(963497464),0.5858,24,0.6053
1.289,THRUST_SEARCH,OPEN_LOOP,0.0107,0.01074,0.00672,0.01074,0.0,-0.03031,0.6058,0.6058,0.6058,,0.67,,False,0.0,0.0,0.0,0.0,0.0,0.2518,3.7309,0.007,True,False,Mode(963497464),0.5973,24,0.6053
1.3,THRUST_SEARCH,OPEN_LOOP,0.01,0.01,0.00583,0.01,0.0,-0.03198,0.606,0.606,0.606,,0.67,,False,0.0,0.0,0.0,0.0,0.0,0.2518,3.5398,0.003,True,False,Mode(963497464),0.6083,24,0.6053
1.311,THRUST_SEARCH,OPEN_LOOP,0.0094,0.0094,0.00675,0.0094,0.0,-0.03304,0.6062,0.6062,0.6062,,0.67,,False,0.0,0.0,0.0,0.0,0.0,0.2518,3.4978,0.004,True,False,Mode(963497464),0.6193,24,0.6053
1.322,THRUST_SEARCH,OPEN_LOOP,0.0088,0.00879,0.00621,0.00879,0.0,-0.03407,0.6064,0.6064,0.6064,,0.67,,False,0.0,0.0,0.0,0.0,0.0,0.2518,3.6264,0.001,True,True,Mode(963497464),0.6302,24,0.6053
1.333,THRUST_SEARCH,OPEN_LOOP,0.0082,0.00824,0.00648,0.00824,0.0,-0.03477,0.6067,0.6067,0.6067,,0.67,,False,0.0,0.0,0.0,0.0,0.0,0.2518,3.8366,0.006,True,False,Mode(963497464),0.6412,25,0.6064
1.344,THRUST_SEARCH,OPEN_LOOP,0.0076,0.00762,0.00515,0.00762,0.0,-0.03575,0.6069,0.6069,0.6069,,0.67,,False,0.0,0.0,0.0,0.0,0.0,0.2518,4.1889,0.004,True,False,Mode(963497464),0.6522,25,0.6064
1.355,THRUST_SEARCH,OPEN_LOOP,0.007,0.00703,0.0049,0.00703,0.0,-0.0366,0.6071,0.6071,0.6071,,0.67,,False,0.0,0.0,0.0,0.0,0.0,0.2518,4.2757,0.0061,True,False,Mode(963497464),0.6633,25,0.6064
1.366,THRUST_SEARCH,OPEN_LOOP,0.0065,0.00654,0.0056,0.00654,0.0,-0.03697,0.6073,0.6073,0.6073,,0.67,,False,0.0,0.0,0.0,0.0,0.0,0.2518,4.1219,0.002,True,False,Mode(963497464),0.6741,25,0.6064
1.377,THRUST_SEARCH,OPEN_LOOP,0.0061,0.00607,0.00533,0.00607,0.0,-0.03726,0.6075,0.6075,0.6075,,0.67,,False,0.0,0.0,0.0,0.0,0.0,0.2518,3.9681,0.004,True,True,Mode(963497464),0.6848,25,0.6064
1.388,THRUST_SEARCH,OPEN_LOOP,0.0058,0.00577,0.0071,0.0071,0.0,-0.03673,0.6078,0.6078,0.6078,,0.67,,False,0.0,0.0,0.0,0.0,0.0,0.2518,3.8691,0.006,True,False,Mode(963497464),0.6963,26,0.6075
1.399,THRUST_SEARCH,OPEN_LOOP,0.0055,0.00548,0.00663,0.00663,0.0,-0.03628,0.608,0.608,0.608,,0.67,,False,0.0,0.0,0.0,0.0,0.0,0.2518,3.3869,0.002,True,False,Mode(963497464),0.7073,26,0.6075
1.41,THRUST_SEARCH,OPEN_LOOP,0.0052,0.00523,0.00681,0.00681,0.0,-0.03565,0.6082,0.6082,0.6082,,0.67,,False,0.0,0.0,0.0,0.0,0.0,0.2518,3.2901,0.004,True,False,Mode(963497464),0.7183,26,0.6075
1.421,THRUST_SEARCH,OPEN_LOOP,0.0049,0.00486,0.00513,0.00513,0.0,-0.03554,0.6084,0.6084,0.6084,,0.67,,False,0.0,0.0,0.0,0.0,0.0,0.2518,3.3854,0.0066,True,False,Mode(963497464),0.7294,26,0.6075
1.433,THRUST_SEARCH,OPEN_LOOP,0.0046,0.00461,0.0061,0.0061,0.0,-0.03495,0.6086,0.6086,0.6086,,0.67,,False,0.0,0.0,0.0,0.0,0.0,0.2518,3.5239,0.009,True,True,Mode(963497464),0.7403,26,0.6075
1.443,THRUST_SEARCH,OPEN_LOOP,0.0045,0.00454,0.00758,0.00758,0.0,-0.03375,0.6089,0.6089,0.6089,,0.67,,False,0.0,0.0,0.0,0.0,0.0,0.2518,3.6147,0.0015,True,False,Mode(963497464),0.7508,27,0.6086
1.454,THRUST_SEARCH,OPEN_LOOP,0.0044,0.00441,0.00695,0.00695,0.0,-0.03275,0.6091,0.6091,0.6091,,0.67,,False,0.0,0.0,0.0,0.0,0.0,0.2518,3.55,0.006,True,False,Mode(963497464),0.7618,27,0.6086
1.465,THRUST_SEARCH,OPEN_LOOP,0.0043,0.00425,0.00637,0.00637,0.0,-0.03191,0.6093,0.6093,0.6093,,0.67,,False,0.0,0.0,0.0,0.0,0.0,0.2518,3.5081,0.005,True,False,Mode(963497464),0.7728,27,0.6086
1.476,THRUST_SEARCH,OPEN_LOOP,0.0041,0.00413,0.00651,0.00651,0.0,-0.03097,0.6095,0.6095,0.6095,,0.67,,False,0.0,0.0,0.0,0.0,0.0,0.2518,3.7955,0.001,True,False,Mode(963497464),0.7838,27,0.6086
1.487,THRUST_SEARCH,OPEN_LOOP,0.0041,0.00405,0.00679,0.00679,0.0,-0.02988,0.6097,0.6097,0.6097,,0.67,,False,0.0,0.0,0.0,0.0,0.0,0.2518,3.9047,0.003,True,True,Mode(963497464),0.7947,27,0.6086
1.497,THRUST_SEARCH,OPEN_LOOP,0.004,0.00399,0.00679,0.00679,0.0,-0.02878,0.6099,0.6099,0.6099,,0.67,,False,0.0,0.0,0.0,0.0,0.0,0.2518,3.9047,0.014,True,False,Mode(963497464),0.8057,28,0.6097
1.508,THRUST_SEARCH,OPEN_LOOP,0.0039,0.00386,0.00581,0.00581,0.0,-0.02801,0.6102,0.6102,0.6102,,0.67,,False,0.0,0.0,0.0,0.0,0.0,0.2518,4.2484,0.002,True,False,Mode(963497464),0.8167,28,0.6097
1.519,THRUST_SEARCH,OPEN_LOOP,0.0038,0.0038,0.00639,0.00639,0.0,-0.02699,0.6104,0.6104,0.6104,,0.67,,False,0.0,0.0,0.0,0.0,0.0,0.2518,4.5147,0.0039,True,False,Mode(963497464),0.8275,28,0.6097
1.53,THRUST_SEARCH,OPEN_LOOP,0.0037,0.00373,0.00604,0.00604,0.0,-0.02608,0.6106,0.6106,0.6106,,0.67,,False,0.0,0.0,0.0,0.0,0.0,0.2518,4.9155,0.003,True,False,Mode(963497464),0.8384,28,0.6097
1.541,THRUST_SEARCH,OPEN_LOOP,0.0037,0.0037,0.00635,0.00635,0.0,-0.02504,0.6108,0.6108,0.6108,,0.67,,False,0.0,0.0,0.0,0.0,0.0,0.2518,5.8236,0.0015,True,True,Mode(963497464),0.8492,28,0.6097
1.552,THRUST_SEARCH,OPEN_LOOP,0.0036,0.00358,0.00523,0.00523,0.0,-0.02439,0.611,0.611,0.611,,0.67,,False,0.0,0.0,0.0,0.0,0.0,0.2518,6.1892,0.003,True,False,Mode(963497464),0.8602,29,0.6108
1.563,THRUST_SEARCH,OPEN_LOOP,0.0035,0.00348,0.00524,0.00524,0.0,-0.02369,0.6113,0.6113,0.6113,,0.67,,False,0.0,0.0,0.0,0.0,0.0,0.2518,6.5639,0.005,True,False,Mode(963497464),0.8711,29,0.6108
1.574,THRUST_SEARCH,OPEN_LOOP,0.0031,0.00313,0.00217,0.00313,0.0,-0.02407,0.6115,0.6115,0.6115,,0.67,,False,0.0,0.0,0.0,0.0,0.0,0.2518,7.2866,0.001,True,False,Mode(963497464),0.882,29,0.6108
1.585,THRUST_SEARCH,OPEN_LOOP,0.0028,0.00283,0.0024,0.00283,0.0,-0.02424,0.6117,0.6117,0.6117,,0.67,,False,0.0,0.0,0.0,0.0,0.0,0.2518,7.6438,0.003,True,False,Mode(963497464),0.893,29,0.6108
1.596,THRUST_SEARCH,OPEN_LOOP,0.0025,0.0025,0.00185,0.0025,0.0,-0.02449,0.6119,0.6119,0.6119,,0.67,,False,0.0,0.0,0.0,0.0,0.0,0.2518,7.9659,0.005,True,True,Mode(963497464),0.904,29,0.6108
1.607,THRUST_SEARCH,OPEN_LOOP,0.0022,0.0022,0.00187,0.0022,0.0,-0.02462,0.6121,0.6121,0.6121,,0.67,,False,0.0,0.0,0.0,0.0,0.0,0.2518,8.335,0.001,True,False,Mode(963497464),0.9149,30,0.6119
1.618,THRUST_SEARCH,OPEN_LOOP,0.0018,0.00184,0.00091,0.00184,0.0,-0.02499,0.6124,0.6124,0.6124,,0.67,,False,0.0,0.0,0.0,0.0,0.0,0.2518,8.23,0.003,True,False,Mode(963497464),0.9259,30,0.6119
1.629,THRUST_SEARCH,OPEN_LOOP,0.0015,0.00147,0.00044,0.00147,0.0,-0.02539,0.6126,0.6126,0.6126,,0.67,,False,0.0,0.0,0.0,0.0,0.0,0.2518,8.1418,0.005,True,False,Mode(963497464),0.9368,30,0.6119
1.64,THRUST_SEARCH,OPEN_LOOP,0.0011,0.00111,0.00027,0.00111,0.0,-0.02573,0.6128,0.6128,0.6128,,0.67,,False,0.0,0.0,0.0,0.0,0.0,0.2518,8.0785,0.007,True,False,Mode(963497464),0.9478,30,0.6119
1.65,THRUST_SEARCH,OPEN_LOOP,0.0007,0.00065,-0.00132,0.00065,0.0,-0.0265,0.613,0.613,0.613,,0.67,,False,0.0,0.0,0.0,0.0,0.0,0.2518,8.1648,0.003,True,True,Mode(963497464),0.9583,30,0.6119
1.661,THRUST_SEARCH,OPEN_LOOP,0.0002,0.00024,-0.00103,0.00024,0.0,-0.027,0.6132,0.6132,0.6132,,0.67,,False,0.0,0.0,0.0,0.0,0.0,0.2518,8.0269,0.005,True,False,Mode(963497464),0.0,31,0.613
1.672,THRUST_SEARCH,OPEN_LOOP,-0.0001,-8e-05,-0.00024,-8e-05,0.0,-0.02706,0.6134,0.6134,0.6134,,0.67,,False,0.0,0.0,0.0,0.0,0.0,0.2518,7.8803,0.007,True,False,Mode(963497464),0.0113,31,0.613
1.683,THRUST_SEARCH,OPEN_LOOP,-0.0003,-0.00029,0.00053,0.00053,0.0,-0.02675,0.6137,0.6137,0.6137,,0.67,,False,0.0,0.0,0.0,0.0,0.0,0.2518,7.8087,0.009,True,False,Mode(963497464),0.0218,31,0.613
1.694,THRUST_SEARCH,OPEN_LOOP,-0.0004,-0.00043,0.00112,0.00112,0.0,-0.02614,0.6139,0.6139,0.6139,,0.67,,False,0.0,0.0,0.0,0.0,0.0,0.2518,7.7924,0.01,True,False,Mode(963497464),0.0328,31,0.613
1.705,THRUST_SEARCH,OPEN_LOOP,-0.0005,-0.00053,0.0016,0.0016,0.0,-0.02531,0.6141,0.6141,0.6141,,0.67,,False,0.0,0.0,0.0,0.0,0.0,0.2518,7.5132,0.0073,True,True,Mode(963497464),0.044,31,0.613
1.716,THRUST_SEARCH,OPEN_LOOP,-0.0006,-0.00055,0.0022,0.0022,0.0,-0.02422,0.6143,0.6143,0.6143,,0.67,,False,0.0,0.0,0.0,0.0,0.0,0.2518,6.8269,0.0015,True,False,Mode(963497464),0.0555,32,0.6141
1.727,THRUST_SEARCH,OPEN_LOOP,-0.0005,-0.0005,0.00277,0.00277,0.0,-0.02293,0.6145,0.6145,0.6145,,0.67,,False,0.0,0.0,0.0,0.0,0.0,0.2518,6.5658,0.002,True,False,Mode(963497464),0.0664,32,0.6141
1.739,THRUST_SEARCH,OPEN_LOOP,-0.0005,-0.00051,0.00222,0.00222,0.0,-0.02185,0.6148,0.6148,0.6148,,0.67,,False,0.0,0.0,0.0,0.0,0.0,0.2518,6.492,0.0075,True,False,Mode(963497464),0.0779,32,0.6141
1.75,THRUST_SEARCH,OPEN_LOOP,-0.0003,-0.00032,0.00417,0.00417,0.0,-0.02007,0.615,0.615,0.615,,0.67,,False,0.0,0.0,0.0,0.0,0.0,0.2518,6.7858,0.003,True,False,Mode(963497464),0.0888,32,0.6141
1.76,THRUST_SEARCH,OPEN_LOOP,-0.0001,-7e-05,0.00479,0.00479,0.0,-0.01816,0.6152,0.6152,0.6152,,0.67,,False,0.0,0.0,0.0,0.0,0.0,0.2518,7.0285,0.0045,True,True,Mode(963497464),0.0993,32,0.6141
1.771,THRUST_SEARCH,OPEN_LOOP,0.0002,0.00018,0.00486,0.00486,0.0,-0.01632,0.6154,0.6154,0.6154,,0.67,,False,0.0,0.0,0.0,0.0,0.0,0.2518,7.2101,0.007,True,False,Mode(963497464),0.1103,33,0.6152
1.782,THRUST_SEARCH,OPEN_LOOP,0.0004,0.00039,0.00452,0.00452,0.0,-0.0147,0.6156,0.6156,0.6156,,0.67,,False,0.0,0.0,0.0,0.0,0.0,0.2518,7.2676,0.009,True,False,Mode(963497464),0.1212,33,0.6152
1.793,THRUST_SEARCH,OPEN_LOOP,0.0006,0.00058,0.00419,0.00419,0.0,-0.01327,0.6159,0.6159,0.6159,,0.67,,False,0.0,0.0,0.0,0.0,0.0,0.2518,7.143,0.002,True,False,Mode(963497464),0.1322,33,0.6152
1.804,THRUST_SEARCH,OPEN_LOOP,0.0008,0.00077,0.00439,0.00439,0.0,-0.01185,0.6161,0.6161,0.6161,,0.67,,False,0.0,0.0,0.0,0.0,0.0,0.2518,7.187,0.007,True,False,Mode(963497464),0.1432,33,0.6152
1.817,THRUST_SEARCH,OPEN_LOOP,0.001,0.00099,0.0047,0.0047,0.0,-0.01038,0.6163,0.6163,0.6163,,0.67,,False,0.0,0.0,0.0,0.0,0.0,0.2518,7.2731,0.001,True,True,Mode(963497464),0.1547,33,0.6152
1.827,THRUST_SEARCH,OPEN_LOOP,0.0012,0.00118,0.00434,0.00434,0.0,-0.00914,0.6165,0.6165,0.6165,,0.67,,False,0.0,0.0,0.0,0.0,0.0,0.2518,7.4492,0.0031,True,False,Mode(963497464),0.1658,34,0.6163
1.837,THRUST_SEARCH,OPEN_LOOP,0.0014,0.00144,0.00523,0.00523,0.0,-0.00765,0.6167,0.6167,0.6167,,0.67,,False,0.0,0.0,0.0,0.0,0.0,0.2518,7.6468,0.0045,True,False,Mode(963497464),0.1761,34,0.6163
1.848,THRUST_SEARCH,OPEN_LOOP,0.0017,0.00168,0.00507,0.00507,0.0,-0.00631,0.617,0.617,0.617,,0.67,,False,0.0,0.0,0.0,0.0,0.0,0.2518,8.0688,0.0,True,False,Mode(963497464),0.1871,34,0.6163
1.86,THRUST_SEARCH,OPEN_LOOP,0.0019,0.00188,0.00476,0.00476,0.0,-0.00518,0.6172,0.6172,0.6172,,0.67,,False,0.0,0.0,0.0,0.0,0.0,0.2518,8.188,0.003,True,False,Mode(963497464),0.1986,34,0.6163
1.871,THRUST_SEARCH,OPEN_LOOP,0.0021,0.00207,0.00464,0.00464,0.0,-0.00416,0.6174,0.6174,0.6174,,0.67,,False,0.0,0.0,0.0,0.0,0.0,0.2518,8.2743,0.005,True,True,Mode(963497464),0.2095,34,0.6163
1.881,THRUST_SEARCH,OPEN_LOOP,0.0023,0.00234,0.00559,0.00559,0.0,-0.00288,0.6176,0.6176,0.6176,,0.67,,False,0.0,0.0,0.0,0.0,0.0,0.2518,8.3004,0.007,True,False,Mode(963497464),0.2203,35,0.6174
1.892,THRUST_SEARCH,OPEN_LOOP,0.0025,0.00254,0.00505,0.00505,0.0,-0.00189,0.6178,0.6178,0.6178,,0.67,,False,0.0,0.0,0.0,0.0,0.0,0.2518,8.4709,0.003,True,False,Mode(963497464),0.2313,35,0.6174
1.903,THRUST_SEARCH,OPEN_LOOP,0.0029,0.00288,0.0066,0.0066,0.0,-0.00042,0.6181,0.6181,0.6181,,0.67,,False,0.0,0.0,0.0,0.0,0.0,0.2518,9.1276,0.004,True,False,Mode(963497464),0.2423,35,0.6174
1.914,THRUST_SEARCH,OPEN_LOOP,0.0033,0.00329,0.0077,0.0077,0.0,0.00132,0.6183,0.6183,0.6183,,0.67,,False,0.0,0.0,0.0,0.0,0.0,0.2518,9.4179,0.006,True,False,Mode(963497464),0.2532,35,0.6174
1.927,THRUST_SEARCH,OPEN_LOOP,0.0036,0.00364,0.00712,0.00712,0.0,0.0027,0.6185,0.6185,0.6185,,0.67,,False,0.0,0.0,0.0,0.0,0.0,0.2518,9.8849,0.0104,True,True,Mode(963497464),0.2656,35,0.6174
1.938,THRUST_SEARCH,OPEN_LOOP,0.0038,0.00384,0.00556,0.00556,0.0,0.00339,0.6188,0.6188,0.6188,,0.67,,False,0.0,0.0,0.0,0.0,0.0,0.2518,10.3451,0.0036,True,False,Mode(963497464),0.2767,36,0.6185
1.949,THRUST_SEARCH,OPEN_LOOP,0.0041,0.0041,0.00643,0.00643,0.0,0.00432,0.619,0.619,0.619,,0.67,,False,0.0,0.0,0.0,0.0,0.0,0.2518,10.34,0.009,True,False,Mode(963497464),0.2877,36,0.6185
1.96,THRUST_SEARCH,OPEN_LOOP,0.0043,0.00433,0.00619,0.00619,0.0,0.00506,0.6192,0.6192,0.6192,,0.67,,False,0.0,0.0,0.0,0.0,0.0,0.2518,10.5211,0.002,True,False,Mode(963497464),0.2987,36,0.6185
1.971,THRUST_SEARCH,OPEN_LOOP,0.0046,0.00462,0.00703,0.00703,0.0,0.00602,0.6194,0.6194,0.6194,,0.67,,False,0.0,0.0,0.0,0.0,0.0,0.2518,11.0223,0.007,True,False,Mode(963497464),0.3096,36,0.6185
1.983,THRUST_SEARCH,OPEN_LOOP,0.0049,0.00487,0.00677,0.00677,0.0,0.00678,0.6196,0.6196,0.6196,,0.67,,False,0.0,0.0,0.0,0.0,0.0,0.2518,11.6421,0.009,True,True,Mode(963497464),0.3206,36,0.6185
1.993,THRUST_SEARCH,OPEN_LOOP,0.0052,0.00518,0.0077,0.0077,0.0,0.00778,0.6199,0.6199,0.6199,,0.67,,False,0.0,0.0,0.0,0.0,0.0,0.2518,13.2564,0.001,True,False,Mode(963497464),0.3316,37,0.6196
2.004,THRUST_SEARCH,OPEN_LOOP,0.0054,0.00536,0.00638,0.00638,0.0,0.00818,0.6201,0.6201,0.6201,,0.67,,False,0.0,0.0,0.0,0.0,0.0,0.2518,13.6816,0.006,True,False,Mode(963497464),0.3425,37,0.6196
2.015,THRUST_SEARCH,OPEN_LOOP,0.0056,0.00561,0.00724,0.00724,0.0,0.00883,0.6203,0.6203,0.6203,,0.67,,False,0.0,0.0,0.0,0.0,0.0,0.2518,13.8485,0.008,True,False,Mode(963497464),0.3535,37,0.6196
2.026,THRUST_SEARCH,OPEN_LOOP,0.0058,0.00579,0.00669,0.00669,0.0,0.00918,0.6205,0.6205,0.6205,,0.67,,False,0.0,0.0,0.0,0.0,0.0,0.2518,13.6152,0.001,True,False,Mode(963497464),0.3645,37,0.6196
2.037,THRUST_SEARCH,OPEN_LOOP,0.0059,0.00595,0.0065,0.0065,0.0,0.0094,0.6207,0.6207,0.6207,,0.67,,False,0.0,0.0,0.0,0.0,0.0,0.2518,13.5042,0.006,True,True,Mode(963497464),0.3755,37,0.6196
2.047,THRUST_SEARCH,OPEN_LOOP,0.0061,0.00605,0.00608,0.00608,0.0,0.00942,0.6209,0.6209,0.6209,,0.67,,False,0.0,0.0,0.0,0.0,0.0,0.2518,13.6092,0.008,True,False,Mode(963497464),0.3864,38,0.6207
2.058,THRUST_SEARCH,OPEN_LOOP,0.0062,0.00621,0.00674,0.00674,0.0,0.00963,0.6212,0.6212,0.6212,,0.67,,False,0.0,0.0,0.0,0.0,0.0,0.2518,14.4148,0.001,True,False,Mode(963497464),0.3974,38,0.6207
2.069,THRUST_SEARCH,OPEN_LOOP,0.0063,0.00631,0.00633,0.00633,0.0,0.00963,0.6214,0.6214,0.6214,,0.67,,False,0.0,0.0,0.0,0.0,0.0,0.2518,14.9446,0.003,True,False,Mode(963497464),0.4084,38,0.6207
2.081,THRUST_SEARCH,OPEN_LOOP,0.0064,0.00637,0.00587,0.00637,0.0,0.00943,0.6216,0.6216,0.6216,,0.67,,False,0.0,0.0,0.0,0.0,0.0,0.2518,15.4241,0.006,True,False,Mode(963497464),0.4203,38,0.6207
2.092,THRUST_SEARCH,OPEN_LOOP,0.0063,0.00634,0.00494,0.00634,0.0,0.00887,0.6218,0.6218,0.6218,,0.67,,False,0.0,0.0,0.0,0.0,0.0,0.2518,15.2522,0.0015,True,True,Mode(963497464),0.4308,38,0.6207
2.105,THRUST_SEARCH,OPEN_LOOP,0.0063,0.00632,0.00494,0.00632,0.0,0.00832,0.6221,0.6221,0.6221,,0.67,,False,0.0,0.0,0.0,0.0,0.0,0.2518,15.2522,0.0135,True,False,Mode(963497464),0.4428,39,0.6218
2.115,THRUST_SEARCH,OPEN_LOOP,0.0064,0.00643,0.00666,0.00666,0.0,0.00841,0.6223,0.6223,0.6223,,0.67,,False,0.0,0.0,0.0,0.0,0.0,0.2518,13.936,0.007,True,False,Mode(963497464),0.4538,39,0.6218
2.126,THRUST_SEARCH,OPEN_LOOP,0.0067,0.00665,0.00797,0.00797,0.0,0.00894,0.6225,0.6225,0.6225,,0.67,,False,0.0,0.0,0.0,0.0,0.0,0.2518,13.5781,0.003,True,False,Mode(963497464),0.4652,39,0.6218
2.137,THRUST_SEARCH,OPEN_LOOP,0.0068,0.00684,0.00772,0.00772,0.0,0.0093,0.6227,0.6227,0.6227,,0.67,,False,0.0,0.0,0.0,0.0,0.0,0.2518,13.8898,0.005,True,False,Mode(963497464),0.4762,39,0.6218
2.15,THRUST_SEARCH,OPEN_LOOP,0.007,0.00703,0.00786,0.00786,0.0,0.00963,0.623,0.623,0.623,,0.67,,False,0.0,0.0,0.0,0.0,0.0,0.2518,14.1147,0.01,True,True,Mode(963497464),0.4877,39,0.6218
2.16,THRUST_SEARCH,OPEN_LOOP,0.0071,0.00713,0.00712,0.00713,0.0,0.00963,0.6232,0.6232,0.6232,,0.67,,False,0.0,0.0,0.0,0.0,0.0,0.2518,14.1709,0.001,True,False,Mode(963497464),0.4987,40,0.623
2.171,THRUST_SEARCH,OPEN_LOOP,0.0072,0.00724,0.00733,0.00733,0.0,0.00966,0.6234,0.6234,0.6234,,0.67,,False,0.0,0.0,0.0,0.0,0.0,0.2518,13.8535,0.006,True,False,Mode(963497464),0.5096,40,0.623
2.182,THRUST_SEARCH,OPEN_LOOP,0.0074,0.00737,0.00761,0.00761,0.0,0.00976,0.6236,0.6236,0.6236,,0.67,,False,0.0,0.0,0.0,0.0,0.0,0.2518,13.396,0.008,True,False,Mode(963497464),0.5206,40,0.623
2.193,THRUST_SEARCH,OPEN_LOOP,0.0074,0.00744,0.00704,0.00744,0.0,0.0096,0.6239,0.6239,0.6239,,0.67,,False,0.0,0.0,0.0,0.0,0.0,0.2518,12.7856,0.003,True,False,Mode(963497464),0.5316,40,0.623
2.203,THRUST_SEARCH,OPEN_LOOP,0.0075,0.0075,0.00706,0.0075,0.0,0.00942,0.6241,0.6241,0.6241,,0.67,,False,0.0,0.0,0.0,0.0,0.0,0.2518,12.7585,0.0045,True,True,Mode(963497464),0.5421,40,0.623
2.214,THRUST_SEARCH,OPEN_LOOP,0.0076,0.00757,0.00717,0.00757,0.0,0.00927,0.6243,0.6243,0.6243,,0.67,,False,0.0,0.0,0.0,0.0,0.0,0.2518,12.9297,0.0069,True,False,Mode(963497464),0.5529,41,0.6241
2.226,THRUST_SEARCH,OPEN_LOOP,0.0076,0.00758,0.00669,0.00758,0.0,0.00891,0.6245,0.6245,0.6245,,0.67,,False,0.0,0.0,0.0,0.0,0.0,0.2518,13.1647,0.009,True,False,Mode(963497464),0.5639,41,0.6241
2.235,THRUST_SEARCH,OPEN_LOOP,0.0075,0.00752,0.00584,0.00752,0.0,0.00825,0.6247,0.6247,0.6247,,0.67,,False,0.0,0.0,0.0,0.0,0.0,0.2518,13.2901,0.0045,True,False,Mode(963497464),0.5744,41,0.6241
2.247,THRUST_SEARCH,OPEN_LOOP,0.0074,0.00737,0.00492,0.00737,0.0,0.00728,0.6249,0.6249,0.6249,,0.67,,False,0.0,0.0,0.0,0.0,0.0,0.2518,13.1757,0.0071,True,False,Mode(963497464),0.5855,41,0.6241
2.258,THRUST_SEARCH,OPEN_LOOP,0.0072,0.00722,0.00479,0.00722,0.0,0.00632,0.6252,0.6252,0.6252,,0.67,,False,0.0,0.0,0.0,0.0,0.0,0.2518,12.2644,0.001,True,True,Mode(963497464),0.5965,41,0.6241
2.268,THRUST_SEARCH,OPEN_LOOP,0.007,0.007,0.00395,0.007,0.0,0.00512,0.6254,0.6254,0.6254,,0.67,,False,0.0,0.0,0.0,0.0,0.0,0.2518,11.7876,0.003,True,False,Mode(963497464),0.6074,42,0.6252
2.279,THRUST_SEARCH,OPEN_LOOP,0.0068,0.00678,0.00386,0.00678,0.0,0.00397,0.6256,0.6256,0.6256,,0.67,,False,0.0,0.0,0.0,0.0,0.0,0.2518,11.4458,0.005,True,False,Mode(963497464),0.6184,42,0.6252
2.29,THRUST_SEARCH,OPEN_LOOP,0.0066,0.00659,0.00419,0.00659,0.0,0.00302,0.6258,0.6258,0.6258,,0.67,,False,0.0,0.0,0.0,0.0,0.0,0.2518,11.2914,0.01,True,False,Mode(963497464),0.6294,42,0.6252
2.301,THRUST_SEARCH,OPEN_LOOP,0.0064,0.00642,0.00427,0.00642,0.0,0.00217,0.626,0.626,0.626,,0.67,,False,0.0,0.0,0.0,0.0,0.0,0.2518,11.1001,0.002,True,False,Mode(963497464),0.6404,42,0.6252
2.312,THRUST_SEARCH,OPEN_LOOP,0.0062,0.0062,0.00366,0.0062,0.0,0.00117,0.6262,0.6262,0.6262,,0.67,,False,0.0,0.0,0.0,0.0,0.0,0.2518,10.9044,0.0036,True,True,Mode(963497464),0.6509,42,0.6252
2.324,THRUST_SEARCH,OPEN_LOOP,0.0061,0.00611,0.00506,0.00611,0.0,0.00076,0.6265,0.6265,0.6265,,0.67,,False,0.0,0.0,0.0,0.0,0.0,0.2518,10.6434,0.009,True,False,Mode(963497464),0.6619,43,0.6262
2.334,THRUST_SEARCH,OPEN_LOOP,0.0063,0.00627,0.00779,0.00779,0.0,0.00136,0.6267,0.6267,0.6267,,0.67,,False,0.0,0.0,0.0,0.0,0.0,0.2518,10.3838,0.0,True,False,Mode(963497464),0.6728,43,0.6262
2.345,THRUST_SEARCH,OPEN_LOOP,0.0065,0.00654,0.00926,0.00926,0.0,0.00243,0.6269,0.6269,0.6269,,0.67,,False,0.0,0.0,0.0,0.0,0.0,0.2518,10.4007,0.002,True,False,Mode(963497464),0.6838,43,0.6262
2.356,THRUST_SEARCH,OPEN_LOOP,0.0069,0.00692,0.01057,0.01057,0.0,0.00386,0.6271,0.6271,0.6271,,0.67,,False,0.0,0.0,0.0,0.0,0.0,0.2518,10.5297,0.0071,True,False,Mode(963497464),0.6949,43,0.6262
2.368,THRUST_SEARCH,OPEN_LOOP,0.0073,0.00734,0.01137,0.01137,0.0,0.00545,0.6273,0.6273,0.6273,,0.67,,False,0.0,0.0,0.0,0.0,0.0,0.2518,10.6579,0.009,True,True,Mode(963497464),0.7059,43,0.6262
2.378,THRUST_SEARCH,OPEN_LOOP,0.0079,0.00789,0.01305,0.01305,0.0,0.00748,0.6276,0.6276,0.6276,,0.67,,False,0.0,0.0,0.0,0.0,0.0,0.2518,10.7083,0.01,True,False,Mode(963497464),0.7168,44,0.6273
2.389,THRUST_SEARCH,OPEN_LOOP,0.0085,0.00846,0.01354,0.01354,0.0,0.00949,0.6278,0.6278,0.6278,,0.67,,False,0.0,0.0,0.0,0.0,0.0,0.2518,10.5643,0.006,True,False,Mode(963497464),0.7283,44,0.6273
2.401,THRUST_SEARCH,OPEN_LOOP,0.0092,0.00921,0.01592,0.01592,0.0,0.01215,0.628,0.628,0.628,,0.67,,False,0.0,0.0,0.0,0.0,0.0,0.2518,10.2593,0.0013,True,False,Mode(963497464),0.7395,44,0.6273
2.412,THRUST_SEARCH,OPEN_LOOP,0.01,0.00998,0.01663,0.01663,0.0,0.01478,0.6282,0.6282,0.6282,,0.67,,False,0.0,0.0,0.0,0.0,0.0,0.2518,10.1491,0.006,True,False,Mode(963497464),0.7505,44,0.6273
2.422,THRUST_SEARCH,OPEN_LOOP,0.0107,0.01068,0.01636,0.01636,0.0,0.01702,0.6284,0.6284,0.6284,,0.67,,False,0.0,0.0,0.0,0.0,0.0,0.2518,10.1486,0.0075,True,True,Mode(963497464),0.761,44,0.6273
2.433,THRUST_SEARCH,OPEN_LOOP,0.0114,0.01143,0.01736,0.01736,0.0,0.01935,0.6287,0.6287,0.6287,,0.67,,False,0.0,0.0,0.0,0.0,0.0,0.2518,10.482,0.001,True,False,Mode(963497464),0.772,45,0.6284
2.444,THRUST_SEARCH,OPEN_LOOP,0.0122,0.0122,0.01805,0.01805,0.0,0.02166,0.6289,0.6289,0.6289,,0.67,,False,0.0,0.0,0.0,0.0,0.0,0.2518,10.5845,0.003,True,False,Mode(963497464),0.7829,45,0.6284
2.454,THRUST_SEARCH,OPEN_LOOP,0.0129,0.01289,0.0178,0.0178,0.0,0.02359,0.6291,0.6291,0.6291,,0.67,,False,0.0,0.0,0.0,0.0,0.0,0.2518,10.5735,0.0045,True,False,Mode(963497464),0.7934,45,0.6284
2.465,THRUST_SEARCH,OPEN_LOOP,0.0136,0.01359,0.01838,0.01838,0.0,0.02546,0.6293,0.6293,0.6293,,0.67,,False,0.0,0.0,0.0,0.0,0.0,0.2518,10.2513,0.0005,True,False,Mode(963497464),0.8039,45,0.6284
2.476,THRUST_SEARCH,OPEN_LOOP,0.0143,0.01426,0.01846,0.01846,0.0,0.0271,0.6295,0.6295,0.6295,,0.67,,False,0.0,0.0,0.0,0.0,0.0,0.2518,9.9892,0.003,True,True,Mode(963497464),0.8149,45,0.6284
2.487,THRUST_SEARCH,OPEN_LOOP,0.0149,0.01492,0.01873,0.01873,0.0,0.02859,0.6297,0.6297,0.6297,,0.67,,False,0.0,0.0,0.0,0.0,0.0,0.2518,9.7216,0.005,True,False,Mode(963497464),0.8259,46,0.6295
2.498,THRUST_SEARCH,OPEN_LOOP,0.0155,0.01548,0.0182,0.0182,0.0,0.02965,0.63,0.63,0.63,,0.67,,False,0.0,0.0,0.0,0.0,0.0,0.2518,9.5979,0.0067,True,False,Mode(963497464),0.8366,46,0.6295
2.51,THRUST_SEARCH,OPEN_LOOP,0.0161,0.01608,0.01893,0.01893,0.0,0.03077,0.6302,0.6302,0.6302,,0.67,,False,0.0,0.0,0.0,0.0,0.0,0.2518,9.7264,0.0008,True,False,Mode(963497464),0.8483,46,0.6295
2.52,THRUST_SEARCH,OPEN_LOOP,0.0165,0.01654,0.0178,0.0178,0.0,0.03126,0.6304,0.6304,0.6304,,0.67,,False,0.0,0.0,0.0,0.0,0.0,0.2518,9.821,0.0051,True,False,Mode(963497464),0.8586,46,0.6295
2.53,THRUST_SEARCH,OPEN_LOOP,0.0169,0.01691,0.01735,0.01735,0.0,0.03144,0.6306,0.6306,0.6306,,0.67,,False,0.0,0.0,0.0,0.0,0.0,0.2518,9.8957,0.007,True,True,Mode(963497464),0.8691,46,0.6295
2.542,THRUST_SEARCH,OPEN_LOOP,0.0172,0.01718,0.01619,0.01718,0.0,0.03105,0.6308,0.6308,0.6308,,0.67,,False,0.0,0.0,0.0,0.0,0.0,0.2518,9.8074,0.001,True,False,Mode(963497464),0.8806,47,0.6306
2.553,THRUST_SEARCH,OPEN_LOOP,0.0174,0.0174,0.0161,0.0174,0.0,0.03054,0.6311,0.6311,0.6311,,0.67,,False,0.0,0.0,0.0,0.0,0.0,0.2518,9.5808,0.003,True,False,Mode(963497464),0.8916,47,0.6306
2.564,THRUST_SEARCH,OPEN_LOOP,0.0175,0.01749,0.01495,0.01749,0.0,0.02954,0.6313,0.6313,0.6313,,0.67,,False,0.0,0.0,0.0,0.0,0.0,0.2518,9.4027,0.005,True,False,Mode(963497464),0.9026,47,0.6306
2.574,THRUST_SEARCH,OPEN_LOOP,0.0175,0.01754,0.01474,0.01754,0.0,0.02845,0.6315,0.6315,0.6315,,0.67,,False,0.0,0.0,0.0,0.0,0.0,0.2518,9.583,0.0006,True,False,Mode(963497464),0.9131,47,0.6306
2.585,THRUST_SEARCH,OPEN_LOOP,0.0175,0.01747,0.01352,0.01747,0.0,0.0269,0.6317,0.6317,0.6317,,0.67,,False,0.0,0.0,0.0,0.0,0.0,0.2518,9.803,0.003,True,True,Mode(963497464),0.9241,47,0.6306
2.596,THRUST_SEARCH,OPEN_LOOP,0.0174,0.01736,0.01311,0.01736,0.0,0.02524,0.6319,0.6319,0.6319,,0.67,,False,0.0,0.0,0.0,0.0,0.0,0.2518,10.0193,0.0045,True,False,Mode(963497464),0.9346,48,0.6317
2.607,THRUST_SEARCH,OPEN_LOOP,0.0171,0.01705,0.0109,0.01705,0.0,0.02284,0.6321,0.6321,0.6321,,0.67,,False,0.0,0.0,0.0,0.0,0.0,0.2518,10.3679,0.001,True,False,Mode(963497464),0.9455,48,0.6317
2.618,THRUST_SEARCH,OPEN_LOOP,0.0167,0.01668,0.01004,0.01668,0.0,0.02025,0.6324,0.6324,0.6324,,0.67,,False,0.0,0.0,0.0,0.0,0.0,0.2518,10.2788,0.003,True,False,Mode(963497464),0.9565,48,0.6317
2.629,THRUST_SEARCH,OPEN_LOOP,0.0162,0.01622,0.00899,0.01622,0.0,0.01742,0.6326,0.6326,0.6326,,0.67,,False,0.0,0.0,0.0,0.0,0.0,0.2518,10.0043,0.005,True,False,Mode(963497464),0.9675,48,0.6317
2.639,THRUST_SEARCH,OPEN_LOOP,0.0157,0.01568,0.00804,0.01568,0.0,0.01444,0.6328,0.6328,0.6328,,0.67,,False,0.0,0.0,0.0,0.0,0.0,0.2518,9.8326,0.007,True,True,Mode(963497464),0.9783,48,0.6317
2.651,THRUST_SEARCH,OPEN_LOOP,0.0151,0.01506,0.0067,0.01506,0.0,0.01116,0.633,0.633,0.633,,0.67,,False,0.0,0.0,0.0,0.0,0.0,0.2518,9.7197,0.001,True,False,Mode(963497464),0.9898,49,0.6328
2.662,THRUST_SEARCH,OPEN_LOOP,0.0144,0.01444,0.0066,0.01444,0.0,0.00808,0.6332,0.6332,0.6332,,0.67,,False,0.0,0.0,0.0,0.0,0.0,0.2518,9.7589,0.006,True,False,Mode(963497464),1.0007,49,0.6328
2.673,THRUST_SEARCH,OPEN_LOOP,0.0137,0.01368,0.00472,0.01368,0.0,0.00456,0.6335,0.6335,0.6335,,0.67,,False,0.0,0.0,0.0,0.0,0.0,0.2518,9.7898,0.008,True,False,Mode(963497464),0.0,49,0.6328
2.684,THRUST_SEARCH,OPEN_LOOP,0.0129,0.01295,0.00473,0.01295,0.0,0.00134,0.6337,0.6337,0.6337,,0.67,,False,0.0,0.0,0.0,0.0,0.0,0.2518,9.5248,0.001,True,False,Mode(963497464),0.011,49,0.6328
2.695,THRUST_SEARCH,OPEN_LOOP,0.0123,0.01234,0.00578,0.01234,0.0,-0.00124,0.6339,0.6339,0.6339,,0.67,,False,0.0,0.0,0.0,0.0,0.0,0.2518,9.2158,0.003,True,True,Mode(963497464),0.0219,49,0.6328
2.706,THRUST_SEARCH,OPEN_LOOP,0.0119,0.01191,0.00754,0.01191,0.0,-0.00296,0.6341,0.6341,0.6341,,0.67,,False,0.0,0.0,0.0,0.0,0.0,0.2518,8.9022,0.008,True,False,Mode(963497464),0.0329,50,0.6339
2.717,THRUST_SEARCH,OPEN_LOOP,0.0116,0.01162,0.00896,0.01162,0.0,-0.00401,0.6343,0.6343,0.6343,,0.67,,False,0.0,0.0,0.0,0.0,0.0,0.2518,8.8717,0.001,True,False,Mode(963497464),0.0439,50,0.6339
2.728,THRUST_SEARCH,OPEN_LOOP,0.0114,0.01143,0.00982,0.01143,0.0,-0.00464,0.6346,0.6346,0.6346,,0.67,,False,0.0,0.0,0.0,0.0,0.0,0.2518,9.1208,0.003,True,False,Mode(963497464),0.0549,50,0.6339
2.739,THRUST_SEARCH,OPEN_LOOP,0.0113,0.01131,0.01058,0.01131,0.0,-0.00493,0.6348,0.6348,0.6348,,0.67,,False,0.0,0.0,0.0,0.0,0.0,0.2518,9.3535,0.005,True,False,Mode(963497464),0.0658,50,0.6339
2.751,THRUST_SEARCH,OPEN_LOOP,0.0112,0.01121,0.0108,0.01121,0.0,-0.00509,0.635,0.635,0.635,,0.67,,False,0.0,0.0,0.0,0.0,0.0,0.2518,9.6423,0.0,True,True,Mode(963497464),0.0768,50,0.6339
2.761,THRUST_SEARCH,OPEN_LOOP,0.0111,0.01112,0.01074,0.01112,0.0,-0.00524,0.6352,0.6352,0.6352,,0.67,,False,0.0,0.0,0.0,0.0,0.0,0.2518,9.5056,0.001,True,False,Mode(963497464),0.0878,51,0.635
2.771,THRUST_SEARCH,OPEN_LOOP,0.0111,0.01112,0.01167,0.01167,0.0,-0.00502,0.6354,0.6354,0.6354,,0.67,,False,0.0,0.0,0.0,0.0,0.0,0.2518,9.2709,0.006,True,False,Mode(963497464),0.0988,51,0.635
2.782,THRUST_SEARCH,OPEN_LOOP,0.0112,0.01119,0.01254,0.01254,0.0,-0.00449,0.6356,0.6356,0.6356,,0.67,,False,0.0,0.0,0.0,0.0,0.0,0.2518,8.9621,0.006,True,False,Mode(963497464),0.1097,51,0.635
2.793,THRUST_SEARCH,OPEN_LOOP,0.0113,0.01128,0.01277,0.01277,0.0,-0.00391,0.6359,0.6359,0.6359,,0.67,,False,0.0,0.0,0.0,0.0,0.0,0.2518,8.591,0.002,True,False,Mode(963497464),0.1207,51,0.635
2.804,THRUST_SEARCH,OPEN_LOOP,0.0114,0.01137,0.01275,0.01275,0.0,-0.00337,0.6361,0.6361,0.6361,,0.67,,False,0.0,0.0,0.0,0.0,0.0,0.2518,8.6329,0.007,True,True,Mode(963497464),0.1317,51,0.635
2.816,THRUST_SEARCH,OPEN_LOOP,0.0115,0.01153,0.01362,0.01362,0.0,-0.00254,0.6363,0.6363,0.6363,,0.67,,False,0.0,0.0,0.0,0.0,0.0,0.2518,8.7807,0.001,True,False,Mode(963497464),0.1431,52,0.6361
2.827,THRUST_SEARCH,OPEN_LOOP,0.0116,0.01157,0.01232,0.01232,0.0,-0.00224,0.6365,0.6365,0.6365,,0.67,,False,0.0,0.0,0.0,0.0,0.0,0.2518,8.7827,0.003,True,False,Mode(963497464),0.1541,52,0.6361
2.837,THRUST_SEARCH,OPEN_LOOP,0.0116,0.01163,0.01243,0.01243,0.0,-0.00193,0.6367,0.6367,0.6367,,0.67,,False,0.0,0.0,0.0,0.0,0.0,0.2518,8.6295,0.0045,True,False,Mode(963497464),0.1646,52,0.6361
2.849,THRUST_SEARCH,OPEN_LOOP,0.0117,0.01174,0.01312,0.01312,0.0,-0.00138,0.637,0.637,0.637,,0.67,,False,0.0,0.0,0.0,0.0,0.0,0.2518,8.3624,0.0074,True,False,Mode(963497464),0.176,52,0.6361
2.86,THRUST_SEARCH,OPEN_LOOP,0.0118,0.01176,0.01221,0.01221,0.0,-0.0012,0.6372,0.6372,0.6372,,0.67,,False,0.0,0.0,0.0,0.0,0.0,0.2518,7.7707,0.001,True,True,Mode(963497464),0.187,52,0.6361
2.871,THRUST_SEARCH,OPEN_LOOP,0.0117,0.01174,0.01167,0.01174,0.0,-0.00123,0.6374,0.6374,0.6374,,0.67,,False,0.0,0.0,0.0,0.0,0.0,0.2518,7.5515,0.006,True,False,Mode(963497464),0.1979,53,0.6372
2.882,THRUST_SEARCH,OPEN_LOOP,0.0117,0.01167,0.01102,0.01167,0.0,-0.00149,0.6376,0.6376,0.6376,,0.67,,False,0.0,0.0,0.0,0.0,0.0,0.2518,7.4877,0.008,True,False,Mode(963497464),0.2089,53,0.6372
2.893,THRUST_SEARCH,OPEN_LOOP,0.0116,0.01155,0.01053,0.01155,0.0,-0.0019,0.6379,0.6379,0.6379,,0.67,,False,0.0,0.0,0.0,0.0,0.0,0.2518,7.2928,0.0011,True,False,Mode(963497464),0.2199,53,0.6372
2.904,THRUST_SEARCH,OPEN_LOOP,0.0114,0.01145,0.01053,0.01145,0.0,-0.00226,0.6381,0.6381,0.6381,,0.67,,False,0.0,0.0,0.0,0.0,0.0,0.2518,7.2928,0.012,True,False,Mode(963497464),0.2309,53,0.6372
2.915,THRUST_SEARCH,OPEN_LOOP,0.0112,0.01119,0.00878,0.01119,0.0,-0.00321,0.6383,0.6383,0.6383,,0.67,,False,0.0,0.0,0.0,0.0,0.0,0.2518,6.8863,0.003,True,True,Mode(963497464),0.2418,53,0.6372
2.926,THRUST_SEARCH,OPEN_LOOP,0.011,0.01097,0.00906,0.01097,0.0,-0.00396,0.6385,0.6385,0.6385,,0.67,,False,0.0,0.0,0.0,0.0,0.0,0.2518,6.6206,0.0,True,False,Mode(963497464),0.2528,54,0.6383
2.937,THRUST_SEARCH,OPEN_LOOP,0.0108,0.01075,0.00888,0.01075,0.0,-0.0047,0.6387,0.6387,0.6387,,0.67,,False,0.0,0.0,0.0,0.0,0.0,0.2518,6.3899,0.007,True,False,Mode(963497464),0.2638,54,0.6383
2.947,THRUST_SEARCH,OPEN_LOOP,0.0104,0.01039,0.00711,0.01039,0.0,-0.00599,0.6389,0.6389,0.6389,,0.67,,False,0.0,0.0,0.0,0.0,0.0,0.2518,6.273,0.003,True,False,Mode(963497464),0.2747,54,0.6383
2.958,THRUST_SEARCH,OPEN_LOOP,0.01,0.00999,0.00653,0.00999,0.0,-0.00736,0.6392,0.6392,0.6392,,0.67,,False,0.0,0.0,0.0,0.0,0.0,0.2518,6.4392,0.003,True,False,Mode(963497464),0.2857,54,0.6383
2.97,THRUST_SEARCH,OPEN_LOOP,0.0096,0.00963,0.00665,0.00963,0.0,-0.00853,0.6394,0.6394,0.6394,,0.67,,False,0.0,0.0,0.0,0.0,0.0,0.2518,6.6025,0.01,True,True,Mode(963497464),0.2967,54,0.6383
2.98,THRUST_SEARCH,OPEN_LOOP,0.0091,0.0091,0.00456,0.0091,0.0,-0.01032,0.6396,0.6396,0.6396,,0.67,,False,0.0,0.0,0.0,0.0,0.0,0.2518,6.5937,0.001,True,False,Mode(963497464),0.3077,55,0.6394
2.992,THRUST_SEARCH,OPEN_LOOP,0.0087,0.0087,0.00568,0.0087,0.0,-0.01151,0.6398,0.6398,0.6398,,0.67,,False,0.0,0.0,0.0,0.0,0.0,0.2518,6.4964,0.001,True,False,Mode(963497464),0.3191,55,0.6394
3.003,THRUST_SEARCH,OPEN_LOOP,0.0085,0.00846,0.00733,0.00846,0.0,-0.01196,0.6401,0.6401,0.6401,,0.67,,False,0.0,0.0,0.0,0.0,0.0,0.2518,6.7031,0.003,True,False,Mode(963497464),0.3301,55,0.6394
3.014,THRUST_SEARCH,OPEN_LOOP,0.0083,0.00833,0.00829,0.00833,0.0,-0.01198,0.6403,0.6403,0.6403,,0.67,,False,0.0,0.0,0.0,0.0,0.0,0.2518,6.9298,0.008,True,False,Mode(963497464),0.3411,55,0.6394
3.025,THRUST_SEARCH,OPEN_LOOP,0.0084,0.00835,0.00997,0.00997,0.0,-0.01134,0.6405,0.6405,0.6405,,0.67,,False,0.0,0.0,0.0,0.0,0.0,0.2518,7.5799,0.001,True,True,Mode(963497464),0.3521,55,0.6394
3.036,THRUST_SEARCH,OPEN_LOOP,0.0084,0.00845,0.01074,0.01074,0.0,-0.01043,0.6407,0.6407,0.6407,,0.67,,False,0.0,0.0,0.0,0.0,0.0,0.2518,7.6935,0.003,True,False,Mode(963497464),0.363,56,0.6405
3.047,THRUST_SEARCH,OPEN_LOOP,0.0086,0.0086,0.01146,0.01146,0.0,-0.0093,0.6409,0.6409,0.6409,,0.67,,False,0.0,0.0,0.0,0.0,0.0,0.2518,7.6534,0.005,True,False,Mode(963497464),0.374,56,0.6405
3.057,THRUST_SEARCH,OPEN_LOOP,0.0088,0.00881,0.01205,0.01205,0.0,-0.00803,0.6411,0.6411,0.6411,,0.67,,False,0.0,0.0,0.0,0.0,0.0,0.2518,7.4368,0.0007,True,False,Mode(963497464),0.3847,56,0.6405
3.068,THRUST_SEARCH,OPEN_LOOP,0.0091,0.00907,0.01268,0.01268,0.0,-0.0066,0.6414,0.6414,0.6414,,0.67,,False,0.0,0.0,0.0,0.0,0.0,0.2518,7.3292,0.003,True,False,Mode(963497464),0.3957,56,0.6405
3.079,THRUST_SEARCH,OPEN_LOOP,0.0094,0.00937,0.01333,0.01333,0.0,-0.00504,0.6416,0.6416,0.6416,,0.67,,False,0.0,0.0,0.0,0.0,0.0,0.2518,7.2713,0.005,True,True,Mode(963497464),0.4066,56,0.6405
3.091,THRUST_SEARCH,OPEN_LOOP,0.0097,0.00969,0.01357,0.01357,0.0,-0.00351,0.6418,0.6418,0.6418,,0.67,,False,0.0,0.0,0.0,0.0,0.0,0.2518,7.5895,0.001,True,False,Mode(963497464),0.4178,57,0.6416
3.102,THRUST_SEARCH,OPEN_LOOP,0.0101,0.01008,0.01462,0.01462,0.0,-0.00172,0.642,0.642,0.642,,0.67,,False,0.0,0.0,0.0,0.0,0.0,0.2518,7.8464,0.003,True,False,Mode(963497464),0.4288,57,0.6416
3.112,THRUST_SEARCH,OPEN_LOOP,0.0105,0.01047,0.01481,0.01481,0.0,-1e-05,0.6422,0.6422,0.6422,,0.67,,False,0.0,0.0,0.0,0.0,0.0,0.2518,7.9481,0.005,True,False,Mode(963497464),0.4398,57,0.6416
3.125,THRUST_SEARCH,OPEN_LOOP,0.0108,0.01084,0.01458,0.01458,0.0,0.00149,0.6425,0.6425,0.6425,,0.67,,False,0.0,0.0,0.0,0.0,0.0,0.2518,7.8552,0.0083,True,False,Mode(963497464),0.4521,57,0.6416
3.135,THRUST_SEARCH,OPEN_LOOP,0.0111,0.01114,0.01416,0.01416,0.0,0.00269,0.6427,0.6427,0.6427,,0.67,,False,0.0,0.0,0.0,0.0,0.0,0.2518,7.2125,0.002,True,True,Mode(963497464),0.4627,57,0.6416
3.148,THRUST_SEARCH,OPEN_LOOP,0.0115,0.01151,0.01491,0.01491,0.0,0.00406,0.643,0.643,0.643,,0.67,,False,0.0,0.0,0.0,0.0,0.0,0.2518,6.7262,0.009,True,False,Mode(963497464),0.4757,58,0.6427
3.159,THRUST_SEARCH,OPEN_LOOP,0.0118,0.01176,0.01388,0.01388,0.0,0.00491,0.6432,0.6432,0.6432,,0.67,,False,0.0,0.0,0.0,0.0,0.0,0.2518,5.9248,0.002,True,False,Mode(963497464),0.4866,58,0.6427
3.17,THRUST_SEARCH,OPEN_LOOP,0.012,0.01203,0.01431,0.01431,0.0,0.00582,0.6434,0.6434,0.6434,,0.67,,False,0.0,0.0,0.0,0.0,0.0,0.2518,5.874,0.004,True,False,Mode(963497464),0.4976,58,0.6427
3.186,THRUST_SEARCH,OPEN_LOOP,0.0123,0.01227,0.01382,0.01382,0.0,0.00646,0.6437,0.6437,0.6437,,0.67,,False,0.0,0.0,0.0,0.0,0.0,0.2518,6.1315,0.003,True,False,Mode(963497464),0.5121,58,0.6427
3.197,THRUST_SEARCH,OPEN_LOOP,0.0125,0.01248,0.01382,0.01382,0.0,0.00702,0.6439,0.6439,0.6439,,0.67,,False,0.0,0.0,0.0,0.0,0.0,0.2518,6.1315,0.013,True,True,Mode(963497464),0.523,58,0.6427
3.207,THRUST_SEARCH,OPEN_LOOP,0.0125,0.01253,0.01226,0.01253,0.0,0.00691,0.6441,0.6441,0.6441,,0.67,,False,0.0,0.0,0.0,0.0,0.0,0.2518,6.0757,0.006,True,False,Mode(963497464),0.534,59,0.6439
3.218,THRUST_SEARCH,OPEN_LOOP,0.0126,0.01264,0.01299,0.01299,0.0,0.00705,0.6444,0.6444,0.6444,,0.67,,False,0.0,0.0,0.0,0.0,0.0,0.2518,5.6274,0.002,True,False,Mode(963497464),0.545,59,0.6439
3.229,THRUST_SEARCH,OPEN_LOOP,0.0127,0.0127,0.01255,0.0127,0.0,0.00699,0.6446,0.6446,0.6446,,0.67,,False,0.0,0.0,0.0,0.0,0.0,0.2518,5.5488,0.004,True,False,Mode(963497464),0.556,59,0.6439
3.241,THRUST_SEARCH,OPEN_LOOP,0.0127,0.01269,0.01179,0.01269,0.0,0.00663,0.6448,0.6448,0.6448,,0.67,,False,0.0,0.0,0.0,0.0,0.0,0.2518,5.5233,0.009,True,False,Mode(963497464),0.5669,59,0.6439
3.25,THRUST_SEARCH,OPEN_LOOP,0.0126,0.0126,0.01103,0.0126,0.0,0.00599,0.645,0.645,0.645,,0.67,,False,0.0,0.0,0.0,0.0,0.0,0.2518,5.7699,0.0015,True,True,Mode(963497464),0.5774,59,0.6439
3.261,THRUST_SEARCH,OPEN_LOOP,0.0126,0.01256,0.01138,0.01256,0.0,0.00552,0.6452,0.6452,0.6452,,0.67,,False,0.0,0.0,0.0,0.0,0.0,0.2518,5.7576,0.003,True,False,Mode(963497464),0.5884,60,0.645
3.272,THRUST_SEARCH,OPEN_LOOP,0.0124,0.0124,0.0102,0.0124,0.0,0.00463,0.6454,0.6454,0.6454,,0.67,,False,0.0,0.0,0.0,0.0,0.0,0.2518,5.5664,0.008,True,False,Mode(963497464),0.5994,60,0.645
3.283,THRUST_SEARCH,OPEN_LOOP,0.0122,0.01222,0.00975,0.01222,0.0,0.00364,0.6457,0.6457,0.6457,,0.67,,False,0.0,0.0,0.0,0.0,0.0,0.2518,4.9309,0.001,True,False,Mode(963497464),0.6103,60,0.645
3.294,THRUST_SEARCH,OPEN_LOOP,0.0121,0.01206,0.01001,0.01206,0.0,0.00282,0.6459,0.6459,0.6459,,0.67,,False,0.0,0.0,0.0,0.0,0.0,0.2518,4.5328,0.003,True,False,Mode(963497464),0.6213,60,0.645
3.305,THRUST_SEARCH,OPEN_LOOP,0.0119,0.01191,0.01009,0.01191,0.0,0.00209,0.6461,0.6461,0.6461,,0.67,,False,0.0,0.0,0.0,0.0,0.0,0.2518,4.202,0.005,True,True,Mode(963497464),0.6323,60,0.645
3.316,THRUST_SEARCH,OPEN_LOOP,0.0117,0.01172,0.00947,0.01172,0.0,0.00119,0.6463,0.6463,0.6463,,0.67,,False,0.0,0.0,0.0,0.0,0.0,0.2518,4.1113,0.001,True,False,Mode(963497464),0.6435,61,0.6461
3.327,THRUST_SEARCH,OPEN_LOOP,0.0115,0.01152,0.00929,0.01152,0.0,0.0003,0.6465,0.6465,0.6465,,0.67,,False,0.0,0.0,0.0,0.0,0.0,0.2518,4.2619,0.0015,True,False,Mode(963497464),0.654,61,0.6461
3.338,THRUST_SEARCH,OPEN_LOOP,0.0113,0.01133,0.0094,0.01133,0.0,-0.00046,0.6468,0.6468,0.6468,,0.67,,False,0.0,0.0,0.0,0.0,0.0,0.2518,4.3604,0.005,True,False,Mode(963497464),0.6649,61,0.6461
3.351,THRUST_SEARCH,OPEN_LOOP,0.011,0.01104,0.00805,0.01104,0.0,-0.00167,0.647,0.647,0.647,,0.67,,False,0.0,0.0,0.0,0.0,0.0,0.2518,4.3853,0.011,True,False,Mode(963497464),0.6779,61,0.6461
3.363,THRUST_SEARCH,OPEN_LOOP,0.0108,0.01078,0.00833,0.01078,0.0,-0.00267,0.6472,0.6472,0.6472,,0.67,,False,0.0,0.0,0.0,0.0,0.0,0.2518,4.0884,0.002,True,True,Mode(963497464),0.6889,61,0.6461
3.374,THRUST_SEARCH,OPEN_LOOP,0.0105,0.01054,0.00841,0.01054,0.0,-0.00352,0.6475,0.6475,0.6475,,0.67,,False,0.0,0.0,0.0,0.0,0.0,0.2518,4.1387,0.006,True,False,Mode(963497464),0.6998,62,0.6472
3.383,THRUST_SEARCH,OPEN_LOOP,0.0104,0.01036,0.00882,0.01036,0.0,-0.00414,0.6477,0.6477,0.6477,,0.67,,False,0.0,0.0,0.0,0.0,0.0,0.2518,4.2564,0.0105,True,False,Mode(963497464),0.7103,62,0.6472
3.394,THRUST_SEARCH,OPEN_LOOP,0.0101,0.01012,0.00811,0.01012,0.0,-0.00494,0.6479,0.6479,0.6479,,0.67,,False,0.0,0.0,0.0,0.0,0.0,0.2518,4.4144,0.002,True,False,Mode(963497464),0.7213,62,0.6472
3.405,THRUST_SEARCH,OPEN_LOOP,0.0099,0.00993,0.0085,0.00993,0.0,-0.00551,0.6481,0.6481,0.6481,,0.67,,False,0.0,0.0,0.0,0.0,0.0,0.2518,4.4617,0.0042,True,False,Mode(963497464),0.7325,62,0.6472
3.416,THRUST_SEARCH,OPEN_LOOP,0.0097,0.00971,0.0081,0.00971,0.0,-0.00615,0.6483,0.6483,0.6483,,0.67,,False,0.0,0.0,0.0,0.0,0.0,0.2518,4.3636,0.001,True,True,Mode(963497464),0.7435,62,0.6472
3.427,THRUST_SEARCH,OPEN_LOOP,0.0095,0.00949,0.00792,0.00949,0.0,-0.00678,0.6485,0.6485,0.6485,,0.67,,False,0.0,0.0,0.0,0.0,0.0,0.2518,4.2142,0.003,True,False,Mode(963497464),0.7544,63,0.6483
