time,state,controller_mode,target_z,curr_z,raw_z,height_for_safety,target_vz,curr_vz,thrust,raw_thrust,search_thrust,liftoff_thrust,hover_thrust_est,thrust_no_floor,floor_applied,a_cmd_z,v_cmd_z,z_integral,roll_cmd_deg,pitch_cmd_deg,yaw_cmd_deg,yaw_mocap_deg,mocap_age,kf_used_measurement,mavlink_sent,mav_mode,mav_heartbeat_age,mav_send_count,mav_last_thrust
0.002,THRUST_SEARCH,OPEN_LOOP,-0.0004,-0.00039,-0.00049,-0.00039,0.0,-5e-05,0.58,0.58,0.58,,0.67,,False,0.0,0.0,0.0,0.0,0.0,-172.0623,-171.9631,0.001,True,True,Mode(963497464),0.001,0,
0.012,THRUST_SEARCH,OPEN_LOOP,-0.0003,-0.00028,-0.00014,-0.00014,0.0,0.00032,0.5805,0.5805,0.5805,,0.67,,False,0.0,0.0,0.0,0.0,0.0,-172.0623,-171.997,0.0061,True,False,Mode(963497464),0.0121,1,0.58
0.023,THRUST_SEARCH,OPEN_LOOP,-0.0002,-0.00021,-0.0001,-0.0001,0.0,0.0008,0.5809,0.5809,0.5809,,0.67,,False,0.0,0.0,0.0,0.0,0.0,-172.0623,-172.0251,0.008,True,False,Mode(963497464),0.0229,1,0.58
0.034,THRUST_SEARCH,OPEN_LOOP,-0.0002,-0.00022,-0.00027,-0.00022,0.0,0.00057,0.5814,0.5814,0.5814,,0.67,,False,0.0,0.0,0.0,0.0,0.0,-172.0623,-172.0819,0.004,True,False,Mode(963497464),0.0339,1,0.58
0.044,THRUST_SEARCH,OPEN_LOOP,-0.0002,-0.00019,-0.00013,-0.00013,0.0,0.00092,0.5818,0.5818,0.5818,,0.67,,False,0.0,0.0,0.0,0.0,0.0,-172.0623,-172.0991,0.006,True,False,Mode(963497464),0.0444,1,0.58
0.055,THRUST_SEARCH,OPEN_LOOP,-0.0001,-0.00013,1e-05,1e-05,0.0,0.00177,0.5822,0.5822,0.5822,,0.67,,False,0.0,0.0,0.0,0.0,0.0,-172.0623,-172.1082,0.008,True,True,Mode(963497464),0.0554,1,0.58
0.066,THRUST_SEARCH,OPEN_LOOP,-0.0001,-8e-05,0.0,0.0,0.0,0.00225,0.5827,0.5827,0.5827,,0.67,,False,0.0,0.0,0.0,0.0,0.0,-172.0623,-172.1302,0.001,True,False,Mode(963497464),0.0664,2,0.5822
0.077,THRUST_SEARCH,OPEN_LOOP,-0.0,-3e-05,2e-05,2e-05,0.0,0.00255,0.5831,0.5831,0.5831,,0.67,,False,0.0,0.0,0.0,0.0,0.0,-172.0623,-172.115,0.006,True,False,Mode(963497464),0.0774,2,0.5822
0.088,THRUST_SEARCH,OPEN_LOOP,0.0,1e-05,6e-05,6e-05,0.0,0.00279,0.5835,0.5835,0.5835,,0.67,,False,0.0,0.0,0.0,0.0,0.0,-172.0623,-172.1042,0.0075,True,False,Mode(963497464),0.0879,2,0.5822
0.099,THRUST_SEARCH,OPEN_LOOP,-0.0,-3e-05,-0.00023,-3e-05,0.0,0.00183,0.584,0.584,0.584,,0.67,,False,0.0,0.0,0.0,0.0,0.0,-172.0623,-172.1323,0.001,True,False,Mode(963497464),0.0989,2,0.5822
0.11,THRUST_SEARCH,OPEN_LOOP,-0.0,-5e-05,-0.00015,-5e-05,0.0,0.0014,0.5844,0.5844,0.5844,,0.67,,False,0.0,0.0,0.0,0.0,0.0,-172.0623,-172.1029,0.003,True,True,Mode(963497464),0.1098,2,0.5822
0.121,THRUST_SEARCH,OPEN_LOOP,-0.0001,-0.00011,-0.00033,-0.00011,0.0,0.00057,0.5848,0.5848,0.5848,,0.67,,False,0.0,0.0,0.0,0.0,0.0,-172.0623,-172.0577,0.008,True,False,Mode(963497464),0.1208,3,0.5844
0.132,THRUST_SEARCH,OPEN_LOOP,-0.0,-1e-05,0.00028,0.00028,0.0,0.00152,0.5853,0.5853,0.5853,,0.67,,False,0.0,0.0,0.0,0.0,0.0,-172.0623,-172.0279,0.0013,True,False,Mode(963497464),0.1319,3,0.5844
0.143,THRUST_SEARCH,OPEN_LOOP,0.0003,0.00025,0.00107,0.00107,0.0,0.00392,0.5857,0.5857,0.5857,,0.67,,False,0.0,0.0,0.0,0.0,0.0,-172.0623,-172.039,0.0031,True,False,Mode(963497464),0.1429,3,0.5844
0.153,THRUST_SEARCH,OPEN_LOOP,0.0005,0.00055,0.00143,0.00143,0.0,0.0062,0.5861,0.5861,0.5861,,0.67,,False,0.0,0.0,0.0,0.0,0.0,-172.0623,-172.0283,0.0045,True,False,Mode(963497464),0.1533,3,0.5844
0.164,THRUST_SEARCH,OPEN_LOOP,0.0009,0.00087,0.00183,0.00183,0.0,0.00841,0.5866,0.5866,0.5866,,0.67,,False,0.0,0.0,0.0,0.0,0.0,-172.0623,-172.0109,0.0006,True,True,Mode(963497464),0.1638,3,0.5844
0.175,THRUST_SEARCH,OPEN_LOOP,0.0012,0.00124,0.00234,0.00234,0.0,0.01068,0.587,0.587,0.587,,0.67,,False,0.0,0.0,0.0,0.0,0.0,-172.0623,-172.0366,0.003,True,False,Mode(963497464),0.1748,4,0.5866
0.186,THRUST_SEARCH,OPEN_LOOP,0.0016,0.00165,0.00287,0.00287,0.0,0.01294,0.5874,0.5874,0.5874,,0.67,,False,0.0,0.0,0.0,0.0,0.0,-172.0623,-172.0574,0.005,True,False,Mode(963497464),0.1858,4,0.5866
0.197,THRUST_SEARCH,OPEN_LOOP,0.0022,0.00222,0.0041,0.0041,0.0,0.01611,0.5879,0.5879,0.5879,,0.67,,False,0.0,0.0,0.0,0.0,0.0,-172.0623,-172.1043,0.0069,True,False,Mode(963497464),0.1967,4,0.5866
0.208,THRUST_SEARCH,OPEN_LOOP,0.0029,0.00285,0.00496,0.00496,0.0,0.01933,0.5883,0.5883,0.5883,,0.67,,False,0.0,0.0,0.0,0.0,0.0,-172.0623,-172.2768,0.003,True,False,Mode(963497464),0.2076,4,0.5866
0.219,THRUST_SEARCH,OPEN_LOOP,0.0035,0.00347,0.00543,0.00543,0.0,0.02207,0.5887,0.5887,0.5887,,0.67,,False,0.0,0.0,0.0,0.0,0.0,-172.0623,-172.4394,0.005,True,True,Mode(963497464),0.2186,4,0.5866
0.23,THRUST_SEARCH,OPEN_LOOP,0.004,0.00395,0.00515,0.00515,0.0,0.0236,0.5892,0.5892,0.5892,,0.67,,False,0.0,0.0,0.0,0.0,0.0,-172.0623,-172.7478,0.007,True,False,Mode(963497464),0.2296,5,0.5887
0.241,THRUST_SEARCH,OPEN_LOOP,0.0045,0.00449,0.00588,0.00588,0.0,0.02525,0.5896,0.5896,0.5896,,0.67,,False,0.0,0.0,0.0,0.0,0.0,-172.0623,-173.254,0.001,True,False,Mode(963497464),0.2411,5,0.5887
0.252,THRUST_SEARCH,OPEN_LOOP,0.0051,0.00509,0.00689,0.00689,0.0,0.02722,0.5901,0.5901,0.5901,,0.67,,False,0.0,0.0,0.0,0.0,0.0,-172.0623,-173.3078,0.0045,True,False,Mode(963497464),0.2515,5,0.5887
0.263,THRUST_SEARCH,OPEN_LOOP,0.0057,0.00573,0.00773,0.00773,0.0,0.02924,0.5905,0.5905,0.5905,,0.67,,False,0.0,0.0,0.0,0.0,0.0,-172.0623,-173.2189,0.003,True,False,Mode(963497464),0.2625,5,0.5887
0.273,THRUST_SEARCH,OPEN_LOOP,0.0065,0.00653,0.00937,0.00937,0.0,0.03191,0.5909,0.5909,0.5909,,0.67,,False,0.0,0.0,0.0,0.0,0.0,-172.0623,-172.7513,0.002,True,True,Mode(963497464),0.2735,5,0.5887
0.285,THRUST_SEARCH,OPEN_LOOP,0.0074,0.0074,0.0105,0.0105,0.0,0.03464,0.5914,0.5914,0.5914,,0.67,,False,0.0,0.0,0.0,0.0,0.0,-172.0623,-172.6514,0.004,True,False,Mode(963497464),0.2846,6,0.5909
0.296,THRUST_SEARCH,OPEN_LOOP,0.0083,0.00826,0.01129,0.01129,0.0,0.03716,0.5918,0.5918,0.5918,,0.67,,False,0.0,0.0,0.0,0.0,0.0,-172.0623,-172.6475,0.006,True,False,Mode(963497464),0.2955,6,0.5909
0.307,THRUST_SEARCH,OPEN_LOOP,0.0091,0.00912,0.01214,0.01214,0.0,0.0395,0.5923,0.5923,0.5923,,0.67,,False,0.0,0.0,0.0,0.0,0.0,-172.0623,-173.2292,0.001,True,False,Mode(963497464),0.3065,6,0.5909
0.318,THRUST_SEARCH,OPEN_LOOP,0.0099,0.00989,0.01216,0.01216,0.0,0.04117,0.5927,0.5927,0.5927,,0.67,,False,0.0,0.0,0.0,0.0,0.0,-172.0623,-173.5682,0.003,True,False,Mode(963497464),0.3175,6,0.5909
0.328,THRUST_SEARCH,OPEN_LOOP,0.0106,0.01061,0.01259,0.01259,0.0,0.04255,0.5931,0.5931,0.5931,,0.67,,False,0.0,0.0,0.0,0.0,0.0,-172.0623,-173.8019,0.0045,True,True,Mode(963497464),0.0,6,0.5909
0.339,THRUST_SEARCH,OPEN_LOOP,0.0112,0.01123,0.01232,0.01232,0.0,0.04327,0.5936,0.5936,0.5936,,0.67,,False,0.0,0.0,0.0,0.0,0.0,-172.0623,-173.9393,0.007,True,False,Mode(963497464),0.011,7,0.5931
0.35,THRUST_SEARCH,OPEN_LOOP,0.0117,0.01173,0.01199,0.01199,0.0,0.04344,0.594,0.594,0.594,,0.67,,False,0.0,0.0,0.0,0.0,0.0,-172.0623,-173.5063,0.003,True,False,Mode(963497464),0.0219,7,0.5931
0.36,THRUST_SEARCH,OPEN_LOOP,0.0121,0.01214,0.0118,0.01214,0.0,0.04323,0.5944,0.5944,0.5944,,0.67,,False,0.0,0.0,0.0,0.0,0.0,-172.0623,-173.1189,0.0045,True,False,Mode(963497464),0.0324,7,0.5931
0.371,THRUST_SEARCH,OPEN_LOOP,0.0125,0.01251,0.01174,0.01251,0.0,0.04278,0.5948,0.5948,0.5948,,0.67,,False,0.0,0.0,0.0,0.0,0.0,-172.0623,-172.7819,0.0068,True,False,Mode(963497464),0.0432,7,0.5931
0.383,THRUST_SEARCH,OPEN_LOOP,0.0128,0.01277,0.01107,0.01277,0.0,0.04183,0.5953,0.5953,0.5953,,0.67,,False,0.0,0.0,0.0,0.0,0.0,-172.0623,-172.6838,0.009,True,True,Mode(963497464),0.0542,7,0.5931
0.393,THRUST_SEARCH,OPEN_LOOP,0.0129,0.01293,0.01064,0.01293,0.0,0.0406,0.5957,0.5957,0.5957,,0.67,,False,0.0,0.0,0.0,0.0,0.0,-172.0623,-172.9286,0.0045,True,False,Mode(963497464),0.0647,8,0.5953
0.403,THRUST_SEARCH,OPEN_LOOP,0.013,0.01301,0.01014,0.01301,0.0,0.03911,0.5961,0.5961,0.5961,,0.67,,False,0.0,0.0,0.0,0.0,0.0,-172.0623,-173.2594,0.0066,True,False,Mode(963497464),0.0752,8,0.5953
0.414,THRUST_SEARCH,OPEN_LOOP,0.013,0.01297,0.00897,0.01297,0.0,0.0371,0.5966,0.5966,0.5966,,0.67,,False,0.0,0.0,0.0,0.0,0.0,-172.0623,-173.6073,0.009,True,False,Mode(963497464),0.0862,8,0.5953
0.425,THRUST_SEARCH,OPEN_LOOP,0.0128,0.01283,0.00811,0.01283,0.0,0.03478,0.597,0.597,0.597,,0.67,,False,0.0,0.0,0.0,0.0,0.0,-172.0623,-173.7893,0.01,True,False,Mode(963497464),0.0972,8,0.5953
0.436,THRUST_SEARCH,OPEN_LOOP,0.0124,0.01242,0.00547,0.01242,0.0,0.03146,0.5974,0.5974,0.5974,,0.67,,False,0.0,0.0,0.0,0.0,0.0,-172.0623,-173.398,0.0037,True,True,Mode(963497464),0.1079,8,0.5953
0.447,THRUST_SEARCH,OPEN_LOOP,0.012,0.012,0.00509,0.012,0.0,0.02823,0.5979,0.5979,0.5979,,0.67,,False,0.0,0.0,0.0,0.0,0.0,-172.0623,-173.1002,0.006,True,False,Mode(963497464),0.1188,9,0.5974
0.457,THRUST_SEARCH,OPEN_LOOP,0.0114,0.01144,0.00367,0.01144,0.0,0.02468,0.5983,0.5983,0.5983,,0.67,,False,0.0,0.0,0.0,0.0,0.0,-172.0623,-172.8055,0.0015,True,False,Mode(963497464),0.1293,9,0.5974
0.468,THRUST_SEARCH,OPEN_LOOP,0.0107,0.01071,0.0014,0.01071,0.0,0.02052,0.5987,0.5987,0.5987,,0.67,,False,0.0,0.0,0.0,0.0,0.0,-172.0623,-172.6909,0.003,True,False,Mode(963497464),0.1403,9,0.5974
0.479,THRUST_SEARCH,OPEN_LOOP,0.0101,0.01008,0.00221,0.01008,0.0,0.01706,0.5991,0.5991,0.5991,,0.67,,False,0.0,0.0,0.0,0.0,0.0,-172.0623,-172.7037,0.0075,True,False,Mode(963497464),0.1508,9,0.5974
0.49,THRUST_SEARCH,OPEN_LOOP,0.0094,0.00944,0.00159,0.00944,0.0,0.01366,0.5996,0.5996,0.5996,,0.67,,False,0.0,0.0,0.0,0.0,0.0,-172.0623,-172.7385,0.001,True,True,Mode(963497464),0.1617,9,0.5974
0.501,THRUST_SEARCH,OPEN_LOOP,0.0086,0.00863,-0.00063,0.00863,0.0,0.00971,0.6,0.6,0.6,,0.67,,False,0.0,0.0,0.0,0.0,0.0,-172.0623,-172.4675,0.003,True,False,Mode(963497464),0.1727,10,0.5996
0.511,THRUST_SEARCH,OPEN_LOOP,0.0079,0.00792,9e-05,0.00792,0.0,0.00641,0.6004,0.6004,0.6004,,0.67,,False,0.0,0.0,0.0,0.0,0.0,-172.0623,-172.214,0.0045,True,False,Mode(963497464),0.1832,10,0.5996
0.522,THRUST_SEARCH,OPEN_LOOP,0.0072,0.00719,-0.00067,0.00719,0.0,0.00315,0.6009,0.6009,0.6009,,0.67,,False,0.0,0.0,0.0,0.0,0.0,-172.0623,-171.9797,0.0065,True,False,Mode(963497464),0.1937,10,0.5996
0.533,THRUST_SEARCH,OPEN_LOOP,0.0065,0.00651,-0.00061,0.00651,0.0,0.00022,0.6013,0.6013,0.6013,,0.67,,False,0.0,0.0,0.0,0.0,0.0,-172.0623,-171.989,0.003,True,False,Mode(963497464),0.2047,10,0.5996
0.543,THRUST_SEARCH,OPEN_LOOP,0.0059,0.00586,-0.00066,0.00586,0.0,-0.00243,0.6017,0.6017,0.6017,,0.67,,False,0.0,0.0,0.0,0.0,0.0,-172.0623,-172.1548,0.0045,True,True,Mode(963497464),0.2152,10,0.5996
0.554,THRUST_SEARCH,OPEN_LOOP,0.0053,0.00527,-0.00038,0.00527,0.0,-0.00471,0.6022,0.6022,0.6022,,0.67,,False,0.0,0.0,0.0,0.0,0.0,-172.0623,-172.2387,0.007,True,False,Mode(963497464),0.2261,11,0.6017
0.566,THRUST_SEARCH,OPEN_LOOP,0.0048,0.00477,0.00026,0.00477,0.0,-0.00653,0.6026,0.6026,0.6026,,0.67,,False,0.0,0.0,0.0,0.0,0.0,-172.0623,-172.212,0.009,True,False,Mode(963497464),0.2371,11,0.6017
0.576,THRUST_SEARCH,OPEN_LOOP,0.0044,0.00444,0.00168,0.00444,0.0,-0.00763,0.603,0.603,0.603,,0.67,,False,0.0,0.0,0.0,0.0,0.0,-172.0623,-171.698,0.0015,True,False,Mode(963497464),0.2476,11,0.6017
0.587,THRUST_SEARCH,OPEN_LOOP,0.0041,0.00415,0.00202,0.00415,0.0,-0.00847,0.6035,0.6035,0.6035,,0.67,,False,0.0,0.0,0.0,0.0,0.0,-172.0623,-171.3802,0.006,True,False,Mode(963497464),0.2585,11,0.6017
0.597,THRUST_SEARCH,OPEN_LOOP,0.0039,0.00386,0.00184,0.00386,0.0,-0.00926,0.6039,0.6039,0.6039,,0.67,,False,0.0,0.0,0.0,0.0,0.0,-172.0623,-171.104,0.0075,True,True,Mode(963497464),0.269,11,0.6017
0.608,THRUST_SEARCH,OPEN_LOOP,0.0036,0.00363,0.00234,0.00363,0.0,-0.00978,0.6043,0.6043,0.6043,,0.67,,False,0.0,0.0,0.0,0.0,0.0,-172.0623,-170.9823,0.001,True,False,Mode(963497464),0.28,12,0.6039
0.619,THRUST_SEARCH,OPEN_LOOP,0.0035,0.00345,0.00267,0.00345,0.0,-0.01008,0.6048,0.6048,0.6048,,0.67,,False,0.0,0.0,0.0,0.0,0.0,-172.0623,-171.069,0.006,True,False,Mode(963497464),0.291,12,0.6039
0.63,THRUST_SEARCH,OPEN_LOOP,0.0033,0.00326,0.00236,0.00326,0.0,-0.01043,0.6052,0.6052,0.6052,,0.67,,False,0.0,0.0,0.0,0.0,0.0,-172.0623,-171.1416,0.008,True,False,Mode(963497464),0.3019,12,0.6039
0.641,THRUST_SEARCH,OPEN_LOOP,0.0031,0.00315,0.00317,0.00317,0.0,-0.01042,0.6056,0.6056,0.6056,,0.67,,False,0.0,0.0,0.0,0.0,0.0,-172.0623,-171.1608,0.001,True,False,Mode(963497464),0.3127,12,0.6039
0.652,THRUST_SEARCH,OPEN_LOOP,0.0031,0.00308,0.00363,0.00363,0.0,-0.01021,0.6061,0.6061,0.6061,,0.67,,False,0.0,0.0,0.0,0.0,0.0,-172.0623,-171.0767,0.003,True,True,Mode(963497464),0.3236,12,0.6039
0.663,THRUST_SEARCH,OPEN_LOOP,0.0029,0.00289,0.00207,0.00289,0.0,-0.01053,0.6065,0.6065,0.6065,,0.67,,False,0.0,0.0,0.0,0.0,0.0,-172.0623,-170.8669,0.007,True,False,Mode(963497464),0.3346,13,0.6061
0.674,THRUST_SEARCH,OPEN_LOOP,0.0028,0.00281,0.00312,0.00312,0.0,-0.01041,0.6069,0.6069,0.6069,,0.67,,False,0.0,0.0,0.0,0.0,0.0,-172.0623,-170.5968,0.009,True,False,Mode(963497464),0.3456,13,0.6061
0.684,THRUST_SEARCH,OPEN_LOOP,0.0027,0.00266,0.00226,0.00266,0.0,-0.01056,0.6074,0.6074,0.6074,,0.67,,False,0.0,0.0,0.0,0.0,0.0,-172.0623,-170.1109,0.0015,True,False,Mode(963497464),0.3561,13,0.6061
0.695,THRUST_SEARCH,OPEN_LOOP,0.0025,0.00248,0.00176,0.00248,0.0,-0.01084,0.6078,0.6078,0.6078,,0.67,,False,0.0,0.0,0.0,0.0,0.0,-172.0623,-170.0148,0.006,True,False,Mode(963497464),0.367,13,0.6061
0.706,THRUST_SEARCH,OPEN_LOOP,0.0022,0.0022,0.00051,0.0022,0.0,-0.0115,0.6082,0.6082,0.6082,,0.67,,False,0.0,0.0,0.0,0.0,0.0,-172.0623,-169.9504,0.008,True,True,Mode(963497464),0.378,13,0.6061
0.717,THRUST_SEARCH,OPEN_LOOP,0.002,0.00199,0.00109,0.00199,0.0,-0.01185,0.6087,0.6087,0.6087,,0.67,,False,0.0,0.0,0.0,0.0,0.0,-172.0623,-170.1683,0.004,True,False,Mode(963497464),0.3891,14,0.6082
0.729,THRUST_SEARCH,OPEN_LOOP,0.0017,0.00175,0.00057,0.00175,0.0,-0.01231,0.6092,0.6092,0.6092,,0.67,,False,0.0,0.0,0.0,0.0,0.0,-172.0623,-170.2669,0.0064,True,False,Mode(963497464),0.4004,14,0.6082
0.739,THRUST_SEARCH,OPEN_LOOP,0.0015,0.00148,9e-05,0.00148,0.0,-0.01285,0.6096,0.6096,0.6096,,0.67,,False,0.0,0.0,0.0,0.0,0.0,-172.0623,-170.2445,0.008,True,False,Mode(963497464),0.411,14,0.6082
0.75,THRUST_SEARCH,OPEN_LOOP,0.0012,0.0012,-0.00036,0.0012,0.0,-0.01346,0.61,0.61,0.61,,0.67,,False,0.0,0.0,0.0,0.0,0.0,-172.0623,-169.9706,0.001,True,False,Mode(963497464),0.4216,14,0.6082
0.76,THRUST_SEARCH,OPEN_LOOP,0.0009,0.00091,-0.00056,0.00091,0.0,-0.01403,0.6104,0.6104,0.6104,,0.67,,False,0.0,0.0,0.0,0.0,0.0,-172.0623,-169.9077,0.002,True,True,Mode(963497464),0.4325,14,0.6082
0.771,THRUST_SEARCH,OPEN_LOOP,0.0006,0.00057,-0.00144,0.00057,0.0,-0.01481,0.6109,0.6109,0.6109,,0.67,,False,0.0,0.0,0.0,0.0,0.0,-172.0623,-169.9972,0.007,True,False,Mode(963497464),0.4435,15,0.6104
0.783,THRUST_SEARCH,OPEN_LOOP,0.0002,0.00019,-0.00196,0.00019,0.0,-0.01566,0.6113,0.6113,0.6113,,0.67,,False,0.0,0.0,0.0,0.0,0.0,-172.0623,-170.4049,0.0005,True,False,Mode(963497464),0.4549,15,0.6104
0.793,THRUST_SEARCH,OPEN_LOOP,-0.0002,-0.00017,-0.00228,-0.00017,0.0,-0.01648,0.6117,0.6117,0.6117,,0.67,,False,0.0,0.0,0.0,0.0,0.0,-172.0623,-170.4944,0.005,True,False,Mode(963497464),0.4654,15,0.6104
0.804,THRUST_SEARCH,OPEN_LOOP,-0.0005,-0.0005,-0.00208,-0.0005,0.0,-0.0171,0.6122,0.6122,0.6122,,0.67,,False,0.0,0.0,0.0,0.0,0.0,-172.0623,-170.3323,0.006,True,False,Mode(963497464),0.4764,15,0.6104
0.815,THRUST_SEARCH,OPEN_LOOP,-0.0008,-0.00082,-0.00235,-0.00082,0.0,-0.01769,0.6126,0.6126,0.6126,,0.67,,False,0.0,0.0,0.0,0.0,0.0,-172.0623,-169.9682,0.0005,True,True,Mode(963497464),0.4869,15,0.6104
0.826,THRUST_SEARCH,OPEN_LOOP,-0.0011,-0.00112,-0.00221,-0.00112,0.0,-0.01812,0.613,0.613,0.613,,0.67,,False,0.0,0.0,0.0,0.0,0.0,-172.0623,-169.8007,0.003,True,False,Mode(963497464),0.4978,16,0.6126
0.837,THRUST_SEARCH,OPEN_LOOP,-0.0013,-0.00132,-0.00134,-0.00132,0.0,-0.01812,0.6135,0.6135,0.6135,,0.67,,False,0.0,0.0,0.0,0.0,0.0,-172.0623,-169.5362,0.005,True,False,Mode(963497464),0.5088,16,0.6126
0.848,THRUST_SEARCH,OPEN_LOOP,-0.0015,-0.00147,-0.00087,-0.00087,0.0,-0.01789,0.6139,0.6139,0.6139,,0.67,,False,0.0,0.0,0.0,0.0,0.0,-172.0623,-168.9735,0.001,True,False,Mode(963497464),0.5202,16,0.6126
0.859,THRUST_SEARCH,OPEN_LOOP,-0.0015,-0.00151,0.00011,0.00011,0.0,-0.01725,0.6144,0.6144,0.6144,,0.67,,False,0.0,0.0,0.0,0.0,0.0,-172.0623,-168.8848,0.003,True,False,Mode(963497464),0.5312,16,0.6126
0.87,THRUST_SEARCH,OPEN_LOOP,-0.0015,-0.00148,0.00077,0.00077,0.0,-0.01637,0.6148,0.6148,0.6148,,0.67,,False,0.0,0.0,0.0,0.0,0.0,-172.0623,-168.7409,0.0045,True,True,Mode(963497464),0.5417,16,0.6126
0.881,THRUST_SEARCH,OPEN_LOOP,-0.0014,-0.00142,0.0011,0.0011,0.0,-0.01538,0.6152,0.6152,0.6152,,0.67,,False,0.0,0.0,0.0,0.0,0.0,-172.0623,-168.6086,0.007,True,False,Mode(963497464),0.5527,17,0.6148
0.891,THRUST_SEARCH,OPEN_LOOP,-0.0012,-0.00125,0.00232,0.00232,0.0,-0.01399,0.6156,0.6156,0.6156,,0.67,,False,0.0,0.0,0.0,0.0,0.0,-172.0623,-167.9603,0.003,True,False,Mode(963497464),0.5631,17,0.6148
0.902,THRUST_SEARCH,OPEN_LOOP,-0.001,-0.00103,0.00289,0.00289,0.0,-0.01246,0.6161,0.6161,0.6161,,0.67,,False,0.0,0.0,0.0,0.0,0.0,-172.0623,-167.5029,0.005,True,False,Mode(963497464),0.5741,17,0.6148
0.913,THRUST_SEARCH,OPEN_LOOP,-0.0008,-0.00079,0.00317,0.00317,0.0,-0.01091,0.6165,0.6165,0.6165,,0.67,,False,0.0,0.0,0.0,0.0,0.0,-172.0623,-167.1294,0.0068,True,False,Mode(963497464),0.5849,17,0.6148
0.925,THRUST_SEARCH,OPEN_LOOP,-0.0005,-0.00055,0.00335,0.00335,0.0,-0.00939,0.617,0.617,0.617,,0.67,,False,0.0,0.0,0.0,0.0,0.0,-172.0623,-166.8947,0.009,True,True,Mode(963497464),0.5959,17,0.6148
0.935,THRUST_SEARCH,OPEN_LOOP,-0.0002,-0.00025,0.00401,0.00401,0.0,-0.00772,0.6174,0.6174,0.6174,,0.67,,False,0.0,0.0,0.0,0.0,0.0,-172.0623,-166.8475,0.005,True,False,Mode(963497464),0.6069,18,0.617
0.946,THRUST_SEARCH,OPEN_LOOP,0.0001,7e-05,0.00435,0.00435,0.0,-0.00605,0.6178,0.6178,0.6178,,0.67,,False,0.0,0.0,0.0,0.0,0.0,-172.0623,-166.9906,0.007,True,False,Mode(963497464),0.6179,18,0.617
0.957,THRUST_SEARCH,OPEN_LOOP,0.0003,0.00033,0.00377,0.00377,0.0,-0.0047,0.6183,0.6183,0.6183,,0.67,,False,0.0,0.0,0.0,0.0,0.0,-172.0623,-167.2218,0.009,True,False,Mode(963497464),0.6288,18,0.617
0.968,THRUST_SEARCH,OPEN_LOOP,0.0006,0.00061,0.00411,0.00411,0.0,-0.00333,0.6187,0.6187,0.6187,,0.67,,False,0.0,0.0,0.0,0.0,0.0,-172.0623,-167.6591,0.002,True,False,Mode(963497464),0.6398,18,0.617
0.979,THRUST_SEARCH,OPEN_LOOP,0.0008,0.00078,0.00294,0.00294,0.0,-0.00248,0.6192,0.6192,0.6192,,0.67,,False,0.0,0.0,0.0,0.0,0.0,-172.0623,-167.6441,0.007,True,True,Mode(963497464),0.6508,18,0.617
0.99,THRUST_SEARCH,OPEN_LOOP,0.0009,0.00089,0.00241,0.00241,0.0,-0.00189,0.6196,0.6196,0.6196,,0.67,,False,0.0,0.0,0.0,0.0,0.0,-172.0623,-167.3843,0.001,True,False,Mode(963497464),0.6622,19,0.6192
1.001,THRUST_SEARCH,OPEN_LOOP,0.0011,0.00111,0.00365,0.00365,0.0,-0.00089,0.62,0.62,0.62,,0.67,,False,0.0,0.0,0.0,0.0,0.0,-172.0623,-167.3464,0.003,True,False,Mode(963497464),0.6731,19,0.6192
1.012,THRUST_SEARCH,OPEN_LOOP,0.0013,0.0013,0.00331,0.00331,0.0,-0.0001,0.6205,0.6205,0.6205,,0.67,,False,0.0,0.0,0.0,0.0,0.0,-172.0623,-167.4162,0.005,True,False,Mode(963497464),0.6841,19,0.6192
1.023,THRUST_SEARCH,OPEN_LOOP,0.0015,0.00154,0.00412,0.00412,0.0,0.00092,0.6209,0.6209,0.6209,,0.67,,False,0.0,0.0,0.0,0.0,0.0,-172.0623,-167.7869,0.001,True,False,Mode(963497464),0.6951,19,0.6192
1.034,THRUST_SEARCH,OPEN_LOOP,0.0016,0.00164,0.00263,0.00263,0.0,0.00131,0.6214,0.6214,0.6214,,0.67,,False,0.0,0.0,0.0,0.0,0.0,-172.0623,-167.9014,0.003,True,True,Mode(963497464),0.706,19,0.6192
1.046,THRUST_SEARCH,OPEN_LOOP,0.0019,0.00187,0.00404,0.00404,0.0,0.00217,0.6218,0.6218,0.6218,,0.67,,False,0.0,0.0,0.0,0.0,0.0,-172.0623,-168.0863,0.006,True,False,Mode(963497464),0.718,20,0.6214
1.057,THRUST_SEARCH,OPEN_LOOP,0.0019,0.00194,0.00246,0.00246,0.0,0.00237,0.6223,0.6223,0.6223,,0.67,,False,0.0,0.0,0.0,0.0,0.0,-172.0623,-168.1995,0.002,True,False,Mode(963497464),0.729,20,0.6214
1.068,THRUST_SEARCH,OPEN_LOOP,0.002,0.00198,0.00217,0.00217,0.0,0.00245,0.6227,0.6227,0.6227,,0.67,,False,0.0,0.0,0.0,0.0,0.0,-172.0623,-168.1018,0.003,True,False,Mode(963497464),0.7399,20,0.6214
1.078,THRUST_SEARCH,OPEN_LOOP,0.002,0.00201,0.00196,0.00201,0.0,0.00243,0.6231,0.6231,0.6231,,0.67,,False,0.0,0.0,0.0,0.0,0.0,-172.0623,-168.0113,0.0045,True,False,Mode(963497464),0.7504,20,0.6214
1.089,THRUST_SEARCH,OPEN_LOOP,0.002,0.00203,0.00203,0.00203,0.0,0.00243,0.6236,0.6236,0.6236,,0.67,,False,0.0,0.0,0.0,0.0,0.0,-172.0623,-167.9029,0.0006,True,True,Mode(963497464),0.761,20,0.6214
1.1,THRUST_SEARCH,OPEN_LOOP,0.0021,0.00206,0.00203,0.00206,0.0,0.00242,0.624,0.624,0.624,,0.67,,False,0.0,0.0,0.0,0.0,0.0,-172.0623,-167.9029,0.0116,True,False,Mode(963497464),0.772,21,0.6236
1.111,THRUST_SEARCH,OPEN_LOOP,0.002,0.00204,0.00156,0.00204,0.0,0.00223,0.6244,0.6244,0.6244,,0.67,,False,0.0,0.0,0.0,0.0,0.0,-172.0623,-167.9451,0.0041,True,False,Mode(963497464),0.783,21,0.6236
1.122,THRUST_SEARCH,OPEN_LOOP,0.002,0.00205,0.00191,0.00205,0.0,0.00218,0.6249,0.6249,0.6249,,0.67,,False,0.0,0.0,0.0,0.0,0.0,-172.0623,-168.0309,0.006,True,False,Mode(963497464),0.794,21,0.6236
1.132,THRUST_SEARCH,OPEN_LOOP,0.0019,0.00192,0.00032,0.00192,0.0,0.00155,0.6253,0.6253,0.6253,,0.67,,False,0.0,0.0,0.0,0.0,0.0,-172.0623,-168.1502,0.0015,True,False,Mode(963497464),0.8045,21,0.6236
1.143,THRUST_SEARCH,OPEN_LOOP,0.0018,0.00181,0.00048,0.00181,0.0,0.00103,0.6257,0.6257,0.6257,,0.67,,False,0.0,0.0,0.0,0.0,0.0,-172.0623,-168.2682,0.003,True,True,Mode(963497464),0.8154,21,0.6236
1.154,THRUST_SEARCH,OPEN_LOOP,0.0017,0.00169,0.00033,0.00169,0.0,0.00049,0.6262,0.6262,0.6262,,0.67,,False,0.0,0.0,0.0,0.0,0.0,-172.0623,-168.4484,0.008,True,False,Mode(963497464),0.8264,22,0.6257
1.165,THRUST_SEARCH,OPEN_LOOP,0.0016,0.00163,0.00087,0.00163,0.0,0.0002,0.6266,0.6266,0.6266,,0.67,,False,0.0,0.0,0.0,0.0,0.0,-172.0623,-168.5881,0.0015,True,False,Mode(963497464),0.8371,22,0.6257
1.176,THRUST_SEARCH,OPEN_LOOP,0.0015,0.00154,0.00063,0.00154,0.0,-0.00016,0.627,0.627,0.627,,0.67,,False,0.0,0.0,0.0,0.0,0.0,-172.0623,-168.5087,0.003,True,False,Mode(963497464),0.8481,22,0.6257
1.187,THRUST_SEARCH,OPEN_LOOP,0.0014,0.00142,0.00017,0.00142,0.0,-0.00065,0.6275,0.6275,0.6275,,0.67,,False,0.0,0.0,0.0,0.0,0.0,-172.0623,-168.3906,0.0045,True,False,Mode(963497464),0.8586,22,0.6257
1.198,THRUST_SEARCH,OPEN_LOOP,0.0014,0.00143,0.00159,0.00159,0.0,-0.00059,0.6279,0.6279,0.6279,,0.67,,False,0.0,0.0,0.0,0.0,0.0,-172.0623,-168.2884,0.007,True,True,Mode(963497464),0.8695,22,0.6257
1.208,THRUST_SEARCH,OPEN_LOOP,0.0013,0.00126,-0.00046,0.00126,0.0,-0.00126,0.6283,0.6283,0.6283,,0.67,,False,0.0,0.0,0.0,0.0,0.0,-172.0623,-168.2961,0.003,True,False,Mode(963497464),0.8805,23,0.6279
1.219,THRUST_SEARCH,OPEN_LOOP,0.0011,0.00112,-0.0002,0.00112,0.0,-0.00178,0.6288,0.6288,0.6288,,0.67,,False,0.0,0.0,0.0,0.0,0.0,-172.0623,-168.4093,0.0045,True,False,Mode(963497464),0.891,23,0.6279
1.23,THRUST_SEARCH,OPEN_LOOP,0.001,0.00102,0.00015,0.00102,0.0,-0.00212,0.6292,0.6292,0.6292,,0.67,,False,0.0,0.0,0.0,0.0,0.0,-172.0623,-168.5742,0.0071,True,False,Mode(963497464),0.9021,23,0.6279
1.241,THRUST_SEARCH,OPEN_LOOP,0.0009,0.00094,0.00026,0.00094,0.0,-0.00238,0.6296,0.6296,0.6296,,0.67,,False,0.0,0.0,0.0,0.0,0.0,-172.0623,-168.8066,0.003,True,False,Mode(963497464),0.913,23,0.6279
1.253,THRUST_SEARCH,OPEN_LOOP,0.0009,0.00093,0.00114,0.00114,0.0,-0.0023,0.6301,0.6301,0.6301,,0.67,,False,0.0,0.0,0.0,0.0,0.0,-172.0623,-168.6798,0.005,True,True,Mode(963497464),0.924,23,0.6279
1.264,THRUST_SEARCH,OPEN_LOOP,0.0008,0.00082,-6e-05,0.00082,0.0,-0.00264,0.6305,0.6305,0.6305,,0.67,,False,0.0,0.0,0.0,0.0,0.0,-172.0623,-168.3563,0.006,True,False,Mode(963497464),0.9347,24,0.6301
1.273,THRUST_SEARCH,OPEN_LOOP,0.0008,0.00075,0.00033,0.00075,0.0,-0.0028,0.6309,0.6309,0.6309,,0.67,,False,0.0,0.0,0.0,0.0,0.0,-172.0623,-167.5205,0.0015,True,False,Mode(963497464),0.9452,24,0.6301
1.284,THRUST_SEARCH,OPEN_LOOP,0.0004,0.00042,-0.00282,0.00042,0.0,-0.00407,0.6314,0.6314,0.6314,,0.67,,False,0.0,0.0,0.0,0.0,0.0,-172.0623,-167.1012,0.003,True,False,Mode(963497464),0.9561,24,0.6301
1.295,THRUST_SEARCH,OPEN_LOOP,0.0003,0.0003,-0.00056,0.0003,0.0,-0.0044,0.6318,0.6318,0.6318,,0.67,,False,0.0,0.0,0.0,0.0,0.0,-172.0623,-167.1968,0.0045,True,False,Mode(963497464),0.9666,24,0.6301
1.306,THRUST_SEARCH,OPEN_LOOP,0.0002,0.00023,0.0001,0.00023,0.0,-0.00445,0.6322,0.6322,0.6322,,0.67,,False,0.0,0.0,0.0,0.0,0.0,-172.0623,-167.7596,0.0072,True,True,Mode(963497464),0.9778,24,0.6301
1.317,THRUST_SEARCH,OPEN_LOOP,0.0003,0.00026,0.00103,0.00103,0.0,-0.00415,0.6327,0.6327,0.6327,,0.67,,False,0.0,0.0,0.0,0.0,0.0,-172.0623,-168.7996,0.0013,True,False,Mode(963497464),0.989,25,0.6322
1.328,THRUST_SEARCH,OPEN_LOOP,0.0003,0.00026,0.00075,0.00075,0.0,-0.00396,0.6331,0.6331,0.6331,,0.67,,False,0.0,0.0,0.0,0.0,0.0,-172.0623,-169.1326,0.006,True,False,Mode(963497464),1.0,25,0.6322
1.339,THRUST_SEARCH,OPEN_LOOP,0.0002,0.00017,-0.00026,0.00017,0.0,-0.00413,0.6336,0.6336,0.6336,,0.67,,False,0.0,0.0,0.0,0.0,0.0,-172.0623,-169.138,0.008,True,False,Mode(963497464),1.011,25,0.6322
1.35,THRUST_SEARCH,OPEN_LOOP,0.0,2e-05,-0.00113,2e-05,0.0,-0.00457,0.634,0.634,0.634,,0.67,,False,0.0,0.0,0.0,0.0,0.0,-172.0623,-168.7728,0.0007,True,False,Mode(963497464),1.0216,25,0.6322
1.361,THRUST_SEARCH,OPEN_LOOP,-0.0001,-0.00013,-0.00122,-0.00013,0.0,-0.005,0.6344,0.6344,0.6344,,0.67,,False,0.0,0.0,0.0,0.0,0.0,-172.0623,-168.6159,0.003,True,True,Mode(963497464),0.0,25,0.6322
1.372,THRUST_SEARCH,OPEN_LOOP,-0.0003,-0.00034,-0.00196,-0.00034,0.0,-0.00563,0.6349,0.6349,0.6349,,0.67,,False,0.0,0.0,0.0,0.0,0.0,-172.0623,-168.608,0.008,True,False,Mode(963497464),0.011,26,0.6344
1.383,THRUST_SEARCH,OPEN_LOOP,-0.0004,-0.00038,-0.00021,-0.00021,0.0,-0.00556,0.6353,0.6353,0.6353,,0.67,,False,0.0,0.0,0.0,0.0,0.0,-172.0623,-169.2339,0.001,True,False,Mode(963497464),0.0219,26,0.6344
1.394,THRUST_SEARCH,OPEN_LOOP,-0.0005,-0.00051,-0.00125,-0.00051,0.0,-0.00585,0.6357,0.6357,0.6357,,0.67,,False,0.0,0.0,0.0,0.0,0.0,-172.0623,-169.6519,0.003,True,False,Mode(963497464),0.0329,26,0.6344
1.404,THRUST_SEARCH,OPEN_LOOP,-0.0006,-0.00059,-0.00078,-0.00059,0.0,-0.00592,0.6362,0.6362,0.6362,,0.67,,False,0.0,0.0,0.0,0.0,0.0,-172.0623,-169.9665,0.0045,True,False,Mode(963497464),0.0434,26,0.6344
1.415,THRUST_SEARCH,OPEN_LOOP,-0.0008,-0.00085,-0.00283,-0.00085,0.0,-0.0067,0.6366,0.6366,0.6366,,0.67,,False,0.0,0.0,0.0,0.0,0.0,-172.0623,-170.3288,0.001,True,True,Mode(963497464),0.0544,26,0.6344
1.426,THRUST_SEARCH,OPEN_LOOP,-0.0011,-0.00109,-0.00285,-0.00109,0.0,-0.00739,0.637,0.637,0.637,,0.67,,False,0.0,0.0,0.0,0.0,0.0,-172.0623,-170.2919,0.003,True,False,Mode(963497464),0.0653,27,0.6366
1.437,THRUST_SEARCH,OPEN_LOOP,-0.0014,-0.00144,-0.00432,-0.00144,0.0,-0.00852,0.6375,0.6375,0.6375,,0.67,,False,0.0,0.0,0.0,0.0,0.0,-172.0623,-170.1195,0.005,True,False,Mode(963497464),0.0763,27,0.6366
1.448,THRUST_SEARCH,OPEN_LOOP,-0.0018,-0.00181,-0.00469,-0.00181,0.0,-0.00964,0.6379,0.6379,0.6379,,0.67,,False,0.0,0.0,0.0,0.0,0.0,-172.0623,-169.8983,0.001,True,False,Mode(963497464),0.0873,27,0.6366
1.459,THRUST_SEARCH,OPEN_LOOP,-0.0021,-0.00206,-0.00361,-0.00206,0.0,-0.01025,0.6384,0.6384,0.6384,,0.67,,False,0.0,0.0,0.0,0.0,0.0,-172.0623,-169.8548,0.003,True,False,Mode(963497464),0.0982,27,0.6366
1.474,THRUST_SEARCH,OPEN_LOOP,-0.0024,-0.00239,-0.0043,-0.00239,0.0,-0.01102,0.6389,0.6389,0.6389,,0.67,,False,0.0,0.0,0.0,0.0,0.0,-172.0623,-169.7424,0.008,True,True,Mode(963497464),0.1122,27,0.6366
1.484,THRUST_SEARCH,OPEN_LOOP,-0.0027,-0.00273,-0.00505,-0.00273,0.0,-0.01195,0.6394,0.6394,0.6394,,0.67,,False,0.0,0.0,0.0,0.0,0.0,-172.0623,-169.3998,0.003,True,False,Mode(963497464),0.1232,28,0.6389
1.495,THRUST_SEARCH,OPEN_LOOP,-0.0031,-0.00314,-0.00601,-0.00314,0.0,-0.0131,0.6398,0.6398,0.6398,,0.67,,False,0.0,0.0,0.0,0.0,0.0,-172.0623,-169.2969,0.005,True,False,Mode(963497464),0.1342,28,0.6389
1.505,THRUST_SEARCH,OPEN_LOOP,-0.0035,-0.00354,-0.0062,-0.00354,0.0,-0.01416,0.6402,0.6402,0.6402,,0.67,,False,0.0,0.0,0.0,0.0,0.0,-172.0623,-169.2047,0.006,True,False,Mode(963497464),0.1449,28,0.6389
1.516,THRUST_SEARCH,OPEN_LOOP,-0.0042,-0.0042,-0.00944,-0.0042,0.0,-0.01625,0.6407,0.6407,0.6407,,0.67,,False,0.0,0.0,0.0,0.0,0.0,-172.0623,-169.1926,0.001,True,False,Mode(963497464),0.1558,28,0.6389
1.527,THRUST_SEARCH,OPEN_LOOP,-0.0046,-0.00464,-0.00755,-0.00464,0.0,-0.0174,0.6411,0.6411,0.6411,,0.67,,False,0.0,0.0,0.0,0.0,0.0,-172.0623,-169.187,0.0045,True,True,Mode(963497464),0.1663,28,0.6389
1.538,THRUST_SEARCH,OPEN_LOOP,-0.005,-0.00497,-0.00633,-0.00497,0.0,-0.01794,0.6415,0.6415,0.6415,,0.67,,False,0.0,0.0,0.0,0.0,0.0,-172.0623,-169.0467,0.007,True,False,Mode(963497464),0.1773,29,0.6411
1.548,THRUST_SEARCH,OPEN_LOOP,-0.0052,-0.00517,-0.00537,-0.00517,0.0,-0.01802,0.6419,0.6419,0.6419,,0.67,,False,0.0,0.0,0.0,0.0,0.0,-172.0623,-168.76,0.009,True,False,Mode(963497464),0.1878,29,0.6411
1.559,THRUST_SEARCH,OPEN_LOOP,-0.0053,-0.00533,-0.00492,-0.00492,0.0,-0.01785,0.6424,0.6424,0.6424,,0.67,,False,0.0,0.0,0.0,0.0,0.0,-172.0623,-167.8279,0.002,True,False,Mode(963497464),0.1987,29,0.6411
1.57,THRUST_SEARCH,OPEN_LOOP,-0.0055,-0.00548,-0.00505,-0.00505,0.0,-0.01769,0.6428,0.6428,0.6428,,0.67,,False,0.0,0.0,0.0,0.0,0.0,-172.0623,-167.3462,0.006,True,False,Mode(963497464),0.2092,29,0.6411
1.581,THRUST_SEARCH,OPEN_LOOP,-0.0056,-0.00559,-0.00472,-0.00472,0.0,-0.01734,0.6432,0.6432,0.6432,,0.67,,False,0.0,0.0,0.0,0.0,0.0,-172.0623,-166.934,0.008,True,True,Mode(963497464),0.2202,29,0.6411
1.592,THRUST_SEARCH,OPEN_LOOP,-0.0057,-0.00566,-0.00444,-0.00444,0.0,-0.01686,0.6437,0.6437,0.6437,,0.67,,False,0.0,0.0,0.0,0.0,0.0,-172.0623,-166.3049,0.001,True,False,Mode(963497464),0.2311,30,0.6432
1.603,THRUST_SEARCH,OPEN_LOOP,-0.0056,-0.00564,-0.0034,-0.0034,0.0,-0.01598,0.6441,0.6441,0.6441,,0.67,,False,0.0,0.0,0.0,0.0,0.0,-172.0623,-166.0194,0.006,True,False,Mode(963497464),0.2421,30,0.6432
1.614,THRUST_SEARCH,OPEN_LOOP,-0.0056,-0.00561,-0.0035,-0.0035,0.0,-0.01515,0.6445,0.6445,0.6445,,0.67,,False,0.0,0.0,0.0,0.0,0.0,-172.0623,-165.7531,0.0079,True,False,Mode(963497464),0.2529,30,0.6432
1.625,THRUST_SEARCH,OPEN_LOOP,-0.0055,-0.00552,-0.00285,-0.00285,0.0,-0.0141,0.645,0.645,0.645,,0.67,,False,0.0,0.0,0.0,0.0,0.0,-172.0623,-164.9452,0.001,True,False,Mode(963497464),0.264,30,0.6432
1.636,THRUST_SEARCH,OPEN_LOOP,-0.0055,-0.00547,-0.00332,-0.00332,0.0,-0.01325,0.6454,0.6454,0.6454,,0.67,,False,0.0,0.0,0.0,0.0,0.0,-172.0623,-164.4026,0.003,True,True,Mode(963497464),0.275,30,0.6432
1.647,THRUST_SEARCH,OPEN_LOOP,-0.0054,-0.0054,-0.00312,-0.00312,0.0,-0.01236,0.6459,0.6459,0.6459,,0.67,,False,0.0,0.0,0.0,0.0,0.0,-172.0623,-163.9128,0.008,True,False,Mode(963497464),0.286,31,0.6454
1.658,THRUST_SEARCH,OPEN_LOOP,-0.0054,-0.00538,-0.00378,-0.00378,0.0,-0.01172,0.6463,0.6463,0.6463,,0.67,,False,0.0,0.0,0.0,0.0,0.0,-172.0623,-163.439,0.001,True,False,Mode(963497464),0.2969,31,0.6454
1.668,THRUST_SEARCH,OPEN_LOOP,-0.0054,-0.00539,-0.00406,-0.00406,0.0,-0.0112,0.6467,0.6467,0.6467,,0.67,,False,0.0,0.0,0.0,0.0,0.0,-172.0623,-163.3607,0.003,True,False,Mode(963497464),0.3079,31,0.6454
1.679,THRUST_SEARCH,OPEN_LOOP,-0.0054,-0.00539,-0.00411,-0.00411,0.0,-0.0107,0.6472,0.6472,0.6472,,0.67,,False,0.0,0.0,0.0,0.0,0.0,-172.0623,-163.2935,0.005,True,False,Mode(963497464),0.3189,31,0.6454
1.69,THRUST_SEARCH,OPEN_LOOP,-0.0053,-0.00529,-0.00308,-0.00308,0.0,-0.00983,0.6476,0.6476,0.6476,,0.67,,False,0.0,0.0,0.0,0.0,0.0,-172.0623,-163.0166,0.001,True,True,Mode(963497464),0.3295,31,0.6454
1.701,THRUST_SEARCH,OPEN_LOOP,-0.0053,-0.00527,-0.00392,-0.00392,0.0,-0.0093,0.648,0.648,0.648,,0.67,,False,0.0,0.0,0.0,0.0,0.0,-172.0623,-162.6702,0.003,True,False,Mode(963497464),0.3405,32,0.6476
1.712,THRUST_SEARCH,OPEN_LOOP,-0.0052,-0.00525,-0.00394,-0.00394,0.0,-0.00879,0.6485,0.6485,0.6485,,0.67,,False,0.0,0.0,0.0,0.0,0.0,-172.0623,-162.2961,0.0045,True,False,Mode(963497464),0.351,32,0.6476
1.723,THRUST_SEARCH,OPEN_LOOP,-0.0052,-0.00516,-0.00313,-0.00313,0.0,-0.00799,0.6489,0.6489,0.6489,,0.67,,False,0.0,0.0,0.0,0.0,0.0,-172.0623,-161.5144,0.001,True,False,Mode(963497464),0.3624,32,0.6476
1.734,THRUST_SEARCH,OPEN_LOOP,-0.005,-0.00499,-0.00238,-0.00238,0.0,-0.00697,0.6494,0.6494,0.6494,,0.67,,False,0.0,0.0,0.0,0.0,0.0,-172.0623,-161.1845,0.003,True,False,Mode(963497464),0.3734,32,0.6476
1.745,THRUST_SEARCH,OPEN_LOOP,-0.0048,-0.00477,-0.0016,-0.0016,0.0,-0.00572,0.6498,0.6498,0.6498,,0.67,,False,0.0,0.0,0.0,0.0,0.0,-172.0623,-160.8873,0.005,True,True,Mode(963497464),0.3844,32,0.6476
1.756,THRUST_SEARCH,OPEN_LOOP,-0.0044,-0.0044,0.00011,0.00011,0.0,-0.00395,0.6502,0.6502,0.6502,,0.67,,False,0.0,0.0,0.0,0.0,0.0,-172.0623,-160.3624,0.0008,True,False,Mode(963497464),0.3953,33,0.6498
1.767,THRUST_SEARCH,OPEN_LOOP,-0.0039,-0.00389,0.00203,0.00203,0.0,-0.00162,0.6507,0.6507,0.6507,,0.67,,False,0.0,0.0,0.0,0.0,0.0,-172.0623,-160.1234,0.003,True,False,Mode(963497464),0.4062,33,0.6498
1.778,THRUST_SEARCH,OPEN_LOOP,-0.0036,-0.00363,-0.00074,-0.00074,0.0,-0.00048,0.6511,0.6511,0.6511,,0.67,,False,0.0,0.0,0.0,0.0,0.0,-172.0623,-159.7302,0.005,True,False,Mode(963497464),0.4172,33,0.6498
1.789,THRUST_SEARCH,OPEN_LOOP,-0.0033,-0.00325,0.00079,0.00079,0.0,0.0011,0.6516,0.6516,0.6516,,0.67,,False,0.0,0.0,0.0,0.0,0.0,-172.0623,-159.2243,0.007,True,False,Mode(963497464),0.4282,33,0.6498
1.8,THRUST_SEARCH,OPEN_LOOP,-0.0029,-0.00291,0.00063,0.00063,0.0,0.00249,0.652,0.652,0.652,,0.67,,False,0.0,0.0,0.0,0.0,0.0,-172.0623,-159.3079,0.009,True,True,Mode(963497464),0.4387,33,0.6498
1.809,THRUST_SEARCH,OPEN_LOOP,-0.0024,-0.00239,0.00281,0.00281,0.0,0.00451,0.6524,0.6524,0.6524,,0.67,,False,0.0,0.0,0.0,0.0,0.0,-172.0623,-159.7475,0.002,True,False,Mode(963497464),0.4488,34,0.652
1.82,THRUST_SEARCH,OPEN_LOOP,-0.0019,-0.00185,0.00337,0.00337,0.0,0.00654,0.6528,0.6528,0.6528,,0.67,,False,0.0,0.0,0.0,0.0,0.0,-172.0623,-159.6039,0.007,True,False,Mode(963497464),0.4597,34,0.652
1.831,THRUST_SEARCH,OPEN_LOOP,-0.0013,-0.00129,0.00394,0.00394,0.0,0.00858,0.6533,0.6533,0.6533,,0.67,,False,0.0,0.0,0.0,0.0,0.0,-172.0623,-159.3691,0.009,True,False,Mode(963497464),0.4707,34,0.652
1.842,THRUST_SEARCH,OPEN_LOOP,-0.0006,-0.00063,0.00546,0.00546,0.0,0.01095,0.6537,0.6537,0.6537,,0.67,,False,0.0,0.0,0.0,0.0,0.0,-172.0623,-158.8004,0.0015,True,False,Mode(963497464),0.4812,34,0.652
1.853,THRUST_SEARCH,OPEN_LOOP,0.0,3e-05,0.0057,0.0057,0.0,0.01315,0.6541,0.6541,0.6541,,0.67,,False,0.0,0.0,0.0,0.0,0.0,-172.0623,-158.5549,0.004,True,True,Mode(963497464),0.4922,34,0.652
1.864,THRUST_SEARCH,OPEN_LOOP,0.0006,0.00056,0.00471,0.00471,0.0,0.01477,0.6545,0.6545,0.6545,,0.67,,False,0.0,0.0,0.0,0.0,0.0,-172.0623,-158.4959,0.009,True,False,Mode(963497464),0.5031,35,0.6541
1.875,THRUST_SEARCH,OPEN_LOOP,0.0011,0.00111,0.00522,0.00522,0.0,0.01637,0.655,0.655,0.655,,0.67,,False,0.0,0.0,0.0,0.0,0.0,-172.0623,-158.9705,0.001,True,False,Mode(963497464),0.5141,35,0.6541
1.886,THRUST_SEARCH,OPEN_LOOP,0.0016,0.00161,0.005,0.005,0.0,0.01769,0.6554,0.6554,0.6554,,0.67,,False,0.0,0.0,0.0,0.0,0.0,-172.0623,-159.3761,0.002,True,False,Mode(963497464),0.5251,35,0.6541
1.897,THRUST_SEARCH,OPEN_LOOP,0.0021,0.00211,0.00532,0.00532,0.0,0.01894,0.6559,0.6559,0.6559,,0.67,,False,0.0,0.0,0.0,0.0,0.0,-172.0623,-159.7182,0.006,True,False,Mode(963497464),0.536,35,0.6541
1.909,THRUST_SEARCH,OPEN_LOOP,0.0025,0.00249,0.00438,0.00438,0.0,0.01968,0.6563,0.6563,0.6563,,0.67,,False,0.0,0.0,0.0,0.0,0.0,-172.0623,-159.8659,0.009,True,True,Mode(963497464),0.547,35,0.6541
1.919,THRUST_SEARCH,OPEN_LOOP,0.0029,0.0029,0.00497,0.00497,0.0,0.02049,0.6567,0.6567,0.6567,,0.67,,False,0.0,0.0,0.0,0.0,0.0,-172.0623,-159.8456,0.005,True,False,Mode(963497464),0.558,36,0.6563
1.93,THRUST_SEARCH,OPEN_LOOP,0.0032,0.00321,0.00411,0.00411,0.0,0.02084,0.6572,0.6572,0.6572,,0.67,,False,0.0,0.0,0.0,0.0,0.0,-172.0623,-159.7947,0.007,True,False,Mode(963497464),0.569,36,0.6563
1.941,THRUST_SEARCH,OPEN_LOOP,0.0034,0.00345,0.0035,0.0035,0.0,0.02086,0.6576,0.6576,0.6576,,0.67,,False,0.0,0.0,0.0,0.0,0.0,-172.0623,-159.7938,0.009,True,False,Mode(963497464),0.5799,36,0.6563
1.951,THRUST_SEARCH,OPEN_LOOP,0.0036,0.00364,0.00339,0.00364,0.0,0.02077,0.658,0.658,0.658,,0.67,,False,0.0,0.0,0.0,0.0,0.0,-172.0623,-160.0717,0.0045,True,False,Mode(963497464),0.5904,36,0.6563
1.962,THRUST_SEARCH,OPEN_LOOP,0.0038,0.00377,0.00269,0.00377,0.0,0.02034,0.6585,0.6585,0.6585,,0.67,,False,0.0,0.0,0.0,0.0,0.0,-172.0623,-160.2696,0.007,True,True,Mode(963497464),0.6014,36,0.6563
1.973,THRUST_SEARCH,OPEN_LOOP,0.0038,0.0038,0.0019,0.0038,0.0,0.0196,0.6589,0.6589,0.6589,,0.67,,False,0.0,0.0,0.0,0.0,0.0,-172.0623,-160.3758,0.006,True,False,Mode(963497464),0.6119,37,0.6585
1.983,THRUST_SEARCH,OPEN_LOOP,0.0038,0.00377,0.00129,0.00377,0.0,0.01864,0.6593,0.6593,0.6593,,0.67,,False,0.0,0.0,0.0,0.0,0.0,-172.0623,-160.0828,0.0015,True,False,Mode(963497464),0.6223,37,0.6585
1.994,THRUST_SEARCH,OPEN_LOOP,0.0037,0.00374,0.00116,0.00374,0.0,0.01764,0.6598,0.6598,0.6598,,0.67,,False,0.0,0.0,0.0,0.0,0.0,-172.0623,-159.8635,0.0061,True,False,Mode(963497464),0.6334,37,0.6585
2.005,THRUST_SEARCH,OPEN_LOOP,0.0036,0.00359,-4e-05,0.00359,0.0,0.01623,0.6602,0.6602,0.6602,,0.67,,False,0.0,0.0,0.0,0.0,0.0,-172.0623,-159.5855,0.008,True,False,Mode(963497464),0.6443,37,0.6585
2.015,THRUST_SEARCH,OPEN_LOOP,0.0033,0.00331,-0.00146,0.00331,0.0,0.01438,0.6606,0.6606,0.6606,,0.67,,False,0.0,0.0,0.0,0.0,0.0,-172.0623,-159.1871,0.001,True,True,Mode(963497464),0.6548,37,0.6585
2.026,THRUST_SEARCH,OPEN_LOOP,0.003,0.00301,-0.00186,0.00301,0.0,0.01248,0.6611,0.6611,0.6611,,0.67,,False,0.0,0.0,0.0,0.0,0.0,-172.0623,-159.1813,0.003,True,False,Mode(963497464),0.6658,38,0.6606
2.037,THRUST_SEARCH,OPEN_LOOP,0.0027,0.00266,-0.00251,0.00266,0.0,0.01048,0.6615,0.6615,0.6615,,0.67,,False,0.0,0.0,0.0,0.0,0.0,-172.0623,-159.1258,0.0045,True,False,Mode(963497464),0.6763,38,0.6606
2.048,THRUST_SEARCH,OPEN_LOOP,0.0023,0.00225,-0.00336,0.00225,0.0,0.00831,0.6619,0.6619,0.6619,,0.67,,False,0.0,0.0,0.0,0.0,0.0,-172.0623,-158.6529,0.001,True,False,Mode(963497464),0.6872,38,0.6606
2.059,THRUST_SEARCH,OPEN_LOOP,0.0018,0.00178,-0.00424,0.00178,0.0,0.00597,0.6624,0.6624,0.6624,,0.67,,False,0.0,0.0,0.0,0.0,0.0,-172.0623,-158.3101,0.003,True,False,Mode(963497464),0.6982,38,0.6606
2.07,THRUST_SEARCH,OPEN_LOOP,0.0012,0.00123,-0.00527,0.00123,0.0,0.00344,0.6628,0.6628,0.6628,,0.67,,False,0.0,0.0,0.0,0.0,0.0,-172.0623,-157.8631,0.005,True,True,Mode(963497464),0.7092,38,0.6606
2.081,THRUST_SEARCH,OPEN_LOOP,0.0005,0.00053,-0.0073,0.00053,0.0,0.00038,0.6632,0.6632,0.6632,,0.67,,False,0.0,0.0,0.0,0.0,0.0,-172.0623,-157.013,0.0009,True,False,Mode(963497464),0.7205,39,0.6628
2.092,THRUST_SEARCH,OPEN_LOOP,-0.0002,-0.00016,-0.0075,-0.00016,0.0,-0.00249,0.6637,0.6637,0.6637,,0.67,,False,0.0,0.0,0.0,0.0,0.0,-172.0623,-156.7608,0.003,True,False,Mode(963497464),0.7315,39,0.6628
2.103,THRUST_SEARCH,OPEN_LOOP,-0.0009,-0.00086,-0.00808,-0.00086,0.0,-0.00531,0.6641,0.6641,0.6641,,0.67,,False,0.0,0.0,0.0,0.0,0.0,-172.0623,-156.5634,0.005,True,False,Mode(963497464),0.7424,39,0.6628
2.114,THRUST_SEARCH,OPEN_LOOP,-0.0016,-0.00158,-0.00857,-0.00158,0.0,-0.00804,0.6646,0.6646,0.6646,,0.67,,False,0.0,0.0,0.0,0.0,0.0,-172.0623,-156.2246,0.007,True,False,Mode(963497464),0.7534,39,0.6628
2.125,THRUST_SEARCH,OPEN_LOOP,-0.0023,-0.00233,-0.00936,-0.00233,0.0,-0.01078,0.665,0.665,0.665,,0.67,,False,0.0,0.0,0.0,0.0,0.0,-172.0623,-155.2578,0.003,True,True,Mode(963497464),0.7639,39,0.6628
2.135,THRUST_SEARCH,OPEN_LOOP,-0.003,-0.00301,-0.00901,-0.00301,0.0,-0.01312,0.6654,0.6654,0.6654,,0.67,,False,0.0,0.0,0.0,0.0,0.0,-172.0623,-154.7243,0.005,True,False,Mode(963497464),0.7749,40,0.665
2.147,THRUST_SEARCH,OPEN_LOOP,-0.0036,-0.00361,-0.00837,-0.00361,0.0,-0.01498,0.6659,0.6659,0.6659,,0.67,,False,0.0,0.0,0.0,0.0,0.0,-172.0623,-154.2698,0.006,True,False,Mode(963497464),0.7862,40,0.665
2.158,THRUST_SEARCH,OPEN_LOOP,-0.004,-0.00404,-0.00682,-0.00404,0.0,-0.01607,0.6663,0.6663,0.6663,,0.67,,False,0.0,0.0,0.0,0.0,0.0,-172.0623,-154.0205,0.002,True,False,Mode(963497464),0.7972,40,0.665
2.169,THRUST_SEARCH,OPEN_LOOP,-0.0043,-0.00426,-0.00474,-0.00426,0.0,-0.01626,0.6668,0.6668,0.6668,,0.67,,False,0.0,0.0,0.0,0.0,0.0,-172.0623,-153.8675,0.004,True,False,Mode(963497464),0.8082,40,0.665
2.179,THRUST_SEARCH,OPEN_LOOP,-0.0044,-0.00437,-0.00366,-0.00366,0.0,-0.01599,0.6672,0.6672,0.6672,,0.67,,False,0.0,0.0,0.0,0.0,0.0,-172.0623,-153.6085,0.006,True,True,Mode(963497464),0.8187,40,0.665
2.191,THRUST_SEARCH,OPEN_LOOP,-0.0042,-0.0042,-0.00061,-0.00061,0.0,-0.01458,0.6676,0.6676,0.6676,,0.67,,False,0.0,0.0,0.0,0.0,0.0,-172.0623,-152.7358,0.002,True,False,Mode(963497464),0.8296,41,0.6672
2.201,THRUST_SEARCH,OPEN_LOOP,-0.0039,-0.00391,0.00085,0.00085,0.0,-0.01272,0.668,0.668,0.668,,0.67,,False,0.0,0.0,0.0,0.0,0.0,-172.0623,-152.319,0.004,True,False,Mode(963497464),0.8406,41,0.6672
2.212,THRUST_SEARCH,OPEN_LOOP,-0.0034,-0.00343,0.00312,0.00312,0.0,-0.01017,0.6685,0.6685,0.6685,,0.67,,False,0.0,0.0,0.0,0.0,0.0,-172.0623,-151.9791,0.006,True,False,Mode(963497464),0.851,41,0.6672
2.222,THRUST_SEARCH,OPEN_LOOP,-0.003,-0.003,0.00273,0.00273,0.0,-0.00794,0.6689,0.6689,0.6689,,0.67,,False,0.0,0.0,0.0,0.0,0.0,-172.0623,-151.7204,0.0075,True,False,Mode(963497464),0.8615,41,0.6672
2.233,THRUST_SEARCH,OPEN_LOOP,-0.0023,-0.00235,0.00547,0.00547,0.0,-0.00491,0.6693,0.6693,0.6693,,0.67,,False,0.0,0.0,0.0,0.0,0.0,-172.0623,-151.7763,0.0016,True,True,Mode(963497464),0.8721,41,0.6672
2.244,THRUST_SEARCH,OPEN_LOOP,-0.0017,-0.00171,0.00565,0.00565,0.0,-0.00205,0.6698,0.6698,0.6698,,0.67,,False,0.0,0.0,0.0,0.0,0.0,-172.0623,-151.8939,0.005,True,False,Mode(963497464),0.8832,42,0.6693
2.255,THRUST_SEARCH,OPEN_LOOP,-0.0009,-0.00092,0.00773,0.00773,0.0,0.00132,0.6702,0.6702,0.6702,,0.67,,False,0.0,0.0,0.0,0.0,0.0,-172.0623,-151.863,0.0074,True,False,Mode(963497464),0.8946,42,0.6693
2.266,THRUST_SEARCH,OPEN_LOOP,-0.0,-3e-05,0.00932,0.00932,0.0,0.00497,0.6706,0.6706,0.6706,,0.67,,False,0.0,0.0,0.0,0.0,0.0,-172.0623,-151.3311,0.001,True,False,Mode(963497464),0.9055,42,0.6693
2.277,THRUST_SEARCH,OPEN_LOOP,0.001,0.00097,0.01094,0.01094,0.0,0.00887,0.6711,0.6711,0.6711,,0.67,,False,0.0,0.0,0.0,0.0,0.0,-172.0623,-150.9997,0.003,True,False,Mode(963497464),0.9165,42,0.6693
2.289,THRUST_SEARCH,OPEN_LOOP,0.0019,0.00192,0.01096,0.01096,0.0,0.0124,0.6715,0.6715,0.6715,,0.67,,False,0.0,0.0,0.0,0.0,0.0,-172.0623,-150.7364,0.008,True,True,Mode(963497464),0.9275,42,0.6693
2.3,THRUST_SEARCH,OPEN_LOOP,0.0029,0.0029,0.01178,0.01178,0.0,0.01588,0.672,0.672,0.672,,0.67,,False,0.0,0.0,0.0,0.0,0.0,-172.0623,-150.6133,0.011,True,False,Mode(963497464),0.9394,43,0.6715
2.31,THRUST_SEARCH,OPEN_LOOP,0.0037,0.0037,0.01037,0.01037,0.0,0.01849,0.6724,0.6724,0.6724,,0.67,,False,0.0,0.0,0.0,0.0,0.0,-172.0623,-150.7736,0.003,True,False,Mode(963497464),0.9494,43,0.6715
2.321,THRUST_SEARCH,OPEN_LOOP,0.0045,0.00445,0.01038,0.01038,0.0,0.0208,0.6728,0.6728,0.6728,,0.67,,False,0.0,0.0,0.0,0.0,0.0,-172.0623,-151.2186,0.0045,True,False,Mode(963497464),0.9599,43,0.6715
2.331,THRUST_SEARCH,OPEN_LOOP,0.0053,0.0053,0.01186,0.01186,0.0,0.02336,0.6733,0.6733,0.6733,,0.67,,False,0.0,0.0,0.0,0.0,0.0,-172.0623,-151.1763,0.007,True,False,Mode(963497464),0.9709,43,0.6715
2.343,THRUST_SEARCH,OPEN_LOOP,0.0062,0.00621,0.01297,0.01297,0.0,0.02601,0.6737,0.6737,0.6737,,0.67,,False,0.0,0.0,0.0,0.0,0.0,-172.0623,-151.5118,0.004,True,True,Mode(963497464),0.9823,43,0.6715
2.354,THRUST_SEARCH,OPEN_LOOP,0.0071,0.00708,0.01322,0.01322,0.0,0.02843,0.6742,0.6742,0.6742,,0.67,,False,0.0,0.0,0.0,0.0,0.0,-172.0623,-151.46,0.005,True,False,Mode(963497464),0.9933,44,0.6737
2.365,THRUST_SEARCH,OPEN_LOOP,0.0079,0.00795,0.01384,0.01384,0.0,0.03074,0.6746,0.6746,0.6746,,0.67,,False,0.0,0.0,0.0,0.0,0.0,-172.0623,-151.793,0.001,True,False,Mode(963497464),1.0043,44,0.6737
2.376,THRUST_SEARCH,OPEN_LOOP,0.0088,0.00885,0.01476,0.01476,0.0,0.03306,0.675,0.675,0.675,,0.67,,False,0.0,0.0,0.0,0.0,0.0,-172.0623,-152.2629,0.003,True,False,Mode(963497464),1.0153,44,0.6737
2.386,THRUST_SEARCH,OPEN_LOOP,0.0097,0.00971,0.01519,0.01519,0.0,0.03521,0.6755,0.6755,0.6755,,0.67,,False,0.0,0.0,0.0,0.0,0.0,-172.0623,-152.7506,0.0045,True,False,Mode(963497464),1.0257,44,0.6737
2.397,THRUST_SEARCH,OPEN_LOOP,0.0107,0.01069,0.0169,0.0169,0.0,0.03764,0.6759,0.6759,0.6759,,0.67,,False,0.0,0.0,0.0,0.0,0.0,-172.0623,-153.203,0.007,True,True,Mode(963497464),1.0367,44,0.6737
2.408,THRUST_SEARCH,OPEN_LOOP,0.0116,0.01157,0.01644,0.01644,0.0,0.03955,0.6763,0.6763,0.6763,,0.67,,False,0.0,0.0,0.0,0.0,0.0,-172.0623,-153.7597,0.001,True,False,Mode(963497464),1.0478,45,0.6759
2.42,THRUST_SEARCH,OPEN_LOOP,0.0124,0.01242,0.01688,0.01688,0.0,0.0413,0.6768,0.6768,0.6768,,0.67,,False,0.0,0.0,0.0,0.0,0.0,-172.0623,-153.9506,0.0061,True,False,Mode(963497464),1.0589,45,0.6759
2.43,THRUST_SEARCH,OPEN_LOOP,0.0131,0.01307,0.01536,0.01536,0.0,0.04219,0.6772,0.6772,0.6772,,0.67,,False,0.0,0.0,0.0,0.0,0.0,-172.0623,-154.0588,0.0075,True,False,Mode(963497464),1.0693,45,0.6759
2.441,THRUST_SEARCH,OPEN_LOOP,0.0137,0.01371,0.01555,0.01555,0.0,0.04291,0.6776,0.6776,0.6776,,0.67,,False,0.0,0.0,0.0,0.0,0.0,-172.0623,-154.1925,0.009,True,False,Mode(963497464),1.0803,45,0.6759
2.452,THRUST_SEARCH,OPEN_LOOP,0.0142,0.01421,0.01457,0.01457,0.0,0.04305,0.6781,0.6781,0.6781,,0.67,,False,0.0,0.0,0.0,0.0,0.0,-172.0623,-154.8717,0.005,True,True,Mode(963497464),1.0912,45,0.6759
2.462,THRUST_SEARCH,OPEN_LOOP,0.0147,0.0147,0.01503,0.01503,0.0,0.04318,0.6785,0.6785,0.6785,,0.67,,False,0.0,0.0,0.0,0.0,0.0,-172.0623,-155.3907,0.007,True,False,Mode(963497464),1.1018,46,0.6781
2.474,THRUST_SEARCH,OPEN_LOOP,0.0151,0.01509,0.01392,0.01509,0.0,0.04272,0.679,0.679,0.679,,0.67,,False,0.0,0.0,0.0,0.0,0.0,-172.0623,-156.0758,0.001,True,False,Mode(963497464),0.0,46,0.6781
2.485,THRUST_SEARCH,OPEN_LOOP,0.0155,0.01546,0.01445,0.01546,0.0,0.04233,0.6794,0.6794,0.6794,,0.67,,False,0.0,0.0,0.0,0.0,0.0,-172.0623,-156.1615,0.0032,True,False,Mode(963497464),0.0111,46,0.6781
2.495,THRUST_SEARCH,OPEN_LOOP,0.0157,0.01572,0.01379,0.01572,0.0,0.04158,0.6798,0.6798,0.6798,,0.67,,False,0.0,0.0,0.0,0.0,0.0,-172.0623,-156.2312,0.0074,True,False,Mode(963497464),0.0214,46,0.6781
2.507,THRUST_SEARCH,OPEN_LOOP,0.0158,0.0158,0.01181,0.0158,0.0,0.04002,0.6803,0.6803,0.6803,,0.67,,False,0.0,0.0,0.0,0.0,0.0,-172.0623,-156.3398,0.0008,True,True,Mode(963497464),0.0332,46,0.6781
2.517,THRUST_SEARCH,OPEN_LOOP,0.0158,0.01579,0.01109,0.01579,0.0,0.03818,0.6807,0.6807,0.6807,,0.67,,False,0.0,0.0,0.0,0.0,0.0,-172.0623,-156.5543,0.002,True,False,Mode(963497464),0.0433,47,0.6803
2.528,THRUST_SEARCH,OPEN_LOOP,0.0157,0.01567,0.00998,0.01567,0.0,0.03595,0.6811,0.6811,0.6811,,0.67,,False,0.0,0.0,0.0,0.0,0.0,-172.0623,-156.9087,0.004,True,False,Mode(963497464),0.0543,47,0.6803
2.539,THRUST_SEARCH,OPEN_LOOP,0.0155,0.01553,0.00985,0.01553,0.0,0.03372,0.6816,0.6816,0.6816,,0.67,,False,0.0,0.0,0.0,0.0,0.0,-172.0623,-157.3709,0.009,True,False,Mode(963497464),0.0653,47,0.6803
2.551,THRUST_SEARCH,OPEN_LOOP,0.0153,0.01532,0.00884,0.01532,0.0,0.03117,0.6821,0.6821,0.6821,,0.67,,False,0.0,0.0,0.0,0.0,0.0,-172.0623,-157.8089,0.0031,True,False,Mode(963497464),0.0774,47,0.6803
2.562,THRUST_SEARCH,OPEN_LOOP,0.015,0.01502,0.00849,0.01502,0.0,0.0286,0.6825,0.6825,0.6825,,0.67,,False,0.0,0.0,0.0,0.0,0.0,-172.0623,-157.8712,0.0045,True,True,Mode(963497464),0.0877,47,0.6803
2.573,THRUST_SEARCH,OPEN_LOOP,0.0145,0.01455,0.00623,0.01455,0.0,0.02532,0.6829,0.6829,0.6829,,0.67,,False,0.0,0.0,0.0,0.0,0.0,-172.0623,-157.916,0.001,True,False,Mode(963497464),0.0987,48,0.6825
2.584,THRUST_SEARCH,OPEN_LOOP,0.014,0.01397,0.00505,0.01397,0.0,0.02181,0.6833,0.6833,0.6833,,0.67,,False,0.0,0.0,0.0,0.0,0.0,-172.0623,-158.0352,0.003,True,False,Mode(963497464),0.1097,48,0.6825
2.594,THRUST_SEARCH,OPEN_LOOP,0.0133,0.01333,0.00414,0.01333,0.0,0.01821,0.6838,0.6838,0.6838,,0.67,,False,0.0,0.0,0.0,0.0,0.0,-172.0623,-158.3171,0.0045,True,False,Mode(963497464),0.1202,48,0.6825
2.605,THRUST_SEARCH,OPEN_LOOP,0.0127,0.01268,0.00372,0.01268,0.0,0.0147,0.6842,0.6842,0.6842,,0.67,,False,0.0,0.0,0.0,0.0,0.0,-172.0623,-158.7491,0.0069,True,False,Mode(963497464),0.131,48,0.6825
2.616,THRUST_SEARCH,OPEN_LOOP,0.012,0.01197,0.00271,0.01197,0.0,0.01107,0.6846,0.6846,0.6846,,0.67,,False,0.0,0.0,0.0,0.0,0.0,-172.0623,-159.1126,0.009,True,True,Mode(963497464),0.142,48,0.6825
2.628,THRUST_SEARCH,OPEN_LOOP,0.0112,0.01116,0.00132,0.01116,0.0,0.00718,0.6851,0.6851,0.6851,,0.67,,False,0.0,0.0,0.0,0.0,0.0,-172.0623,-159.5018,0.006,True,False,Mode(963497464),0.1539,49,0.6846
2.638,THRUST_SEARCH,OPEN_LOOP,0.0102,0.01024,-0.00019,0.01024,0.0,0.00307,0.6855,0.6855,0.6855,,0.67,,False,0.0,0.0,0.0,0.0,0.0,-172.0623,-159.5346,0.0075,True,False,Mode(963497464),0.1644,49,0.6846
2.649,THRUST_SEARCH,OPEN_LOOP,0.0092,0.00921,-0.00201,0.00921,0.0,-0.00133,0.686,0.686,0.686,,0.67,,False,0.0,0.0,0.0,0.0,0.0,-172.0623,-159.6798,0.0,True,False,Mode(963497464),0.175,49,0.6846
2.659,THRUST_SEARCH,OPEN_LOOP,0.0081,0.00809,-0.00372,0.00809,0.0,-0.00594,0.6864,0.6864,0.6864,,0.67,,False,0.0,0.0,0.0,0.0,0.0,-172.0623,-159.8004,0.0045,True,False,Mode(963497464),0.1854,49,0.6846
2.671,THRUST_SEARCH,OPEN_LOOP,0.0069,0.00694,-0.00448,0.00694,0.0,-0.01042,0.6868,0.6868,0.6868,,0.67,,False,0.0,0.0,0.0,0.0,0.0,-172.0623,-160.0883,0.0073,True,True,Mode(963497464),0.1967,49,0.6846
2.682,THRUST_SEARCH,OPEN_LOOP,0.0056,0.00564,-0.00689,0.00564,0.0,-0.01533,0.6873,0.6873,0.6873,,0.67,,False,0.0,0.0,0.0,0.0,0.0,-172.0623,-160.6141,0.001,True,False,Mode(963497464),0.2077,50,0.6868
2.693,THRUST_SEARCH,OPEN_LOOP,0.0043,0.00431,-0.00794,0.00431,0.0,-0.02014,0.6877,0.6877,0.6877,,0.67,,False,0.0,0.0,0.0,0.0,0.0,-172.0623,-160.697,0.003,True,False,Mode(963497464),0.2187,50,0.6868
2.704,THRUST_SEARCH,OPEN_LOOP,0.0031,0.00305,-0.00788,0.00305,0.0,-0.02443,0.6881,0.6881,0.6881,,0.67,,False,0.0,0.0,0.0,0.0,0.0,-172.0623,-160.7088,0.005,True,False,Mode(963497464),0.2296,50,0.6868
2.714,THRUST_SEARCH,OPEN_LOOP,0.0017,0.00166,-0.01029,0.00166,0.0,-0.02911,0.6886,0.6886,0.6886,,0.67,,False,0.0,0.0,0.0,0.0,0.0,-172.0623,-160.6153,0.0,True,False,Mode(963497464),0.2404,50,0.6868
2.726,THRUST_SEARCH,OPEN_LOOP,0.0003,0.00028,-0.01067,0.00028,0.0,-0.03342,0.689,0.689,0.689,,0.67,,False,0.0,0.0,0.0,0.0,0.0,-172.0623,-160.782,0.003,True,True,Mode(963497464),0.2518,50,0.6868
2.737,THRUST_SEARCH,OPEN_LOOP,-0.0008,-0.00083,-0.00862,-0.00083,0.0,-0.03649,0.6895,0.6895,0.6895,,0.67,,False,0.0,0.0,0.0,0.0,0.0,-172.0623,-161.1221,0.003,True,False,Mode(963497464),0.2628,51,0.689
2.748,THRUST_SEARCH,OPEN_LOOP,-0.0017,-0.0017,-0.00664,-0.0017,0.0,-0.03844,0.6899,0.6899,0.6899,,0.67,,False,0.0,0.0,0.0,0.0,0.0,-172.0623,-161.5089,0.008,True,False,Mode(963497464),0.2738,51,0.689
2.758,THRUST_SEARCH,OPEN_LOOP,-0.0022,-0.00221,-0.0033,-0.00221,0.0,-0.03886,0.6903,0.6903,0.6903,,0.67,,False,0.0,0.0,0.0,0.0,0.0,-172.0623,-161.7952,0.0008,True,False,Mode(963497464),0.2845,51,0.689
2.77,THRUST_SEARCH,OPEN_LOOP,-0.0026,-0.00264,-0.00269,-0.00264,0.0,-0.03888,0.6908,0.6908,0.6908,,0.67,,False,0.0,0.0,0.0,0.0,0.0,-172.0623,-161.7163,0.0031,True,False,Mode(963497464),0.2956,51,0.689
2.78,THRUST_SEARCH,OPEN_LOOP,-0.0029,-0.00286,-0.00064,-0.00064,0.0,-0.03801,0.6912,0.6912,0.6912,,0.67,,False,0.0,0.0,0.0,0.0,0.0,-172.0623,-161.542,0.008,True,True,Mode(963497464),0.3065,51,0.689
2.791,THRUST_SEARCH,OPEN_LOOP,-0.0029,-0.00288,0.00126,0.00126,0.0,-0.03638,0.6917,0.6917,0.6917,,0.67,,False,0.0,0.0,0.0,0.0,0.0,-172.0623,-161.4149,0.001,True,False,Mode(963497464),0.3175,52,0.6912
2.802,THRUST_SEARCH,OPEN_LOOP,-0.0027,-0.00272,0.00316,0.00316,0.0,-0.03407,0.6921,0.6921,0.6921,,0.67,,False,0.0,0.0,0.0,0.0,0.0,-172.0623,-161.7657,0.0031,True,False,Mode(963497464),0.3286,52,0.6912
2.813,THRUST_SEARCH,OPEN_LOOP,-0.0024,-0.00242,0.00467,0.00467,0.0,-0.03128,0.6925,0.6925,0.6925,,0.67,,False,0.0,0.0,0.0,0.0,0.0,-172.0623,-162.1924,0.008,True,False,Mode(963497464),0.3394,52,0.6912
2.824,THRUST_SEARCH,OPEN_LOOP,-0.0019,-0.00188,0.0073,0.0073,0.0,-0.02767,0.693,0.693,0.693,,0.67,,False,0.0,0.0,0.0,0.0,0.0,-172.0623,-162.4591,0.001,True,False,Mode(963497464),0.35,52,0.6912
2.835,THRUST_SEARCH,OPEN_LOOP,-0.0012,-0.00123,0.00885,0.00885,0.0,-0.02372,0.6934,0.6934,0.6934,,0.67,,False,0.0,0.0,0.0,0.0,0.0,-172.0623,-162.3897,0.003,True,True,Mode(963497464),0.361,52,0.6912
2.845,THRUST_SEARCH,OPEN_LOOP,-0.0005,-0.00048,0.0101,0.0101,0.0,-0.01958,0.6938,0.6938,0.6938,,0.67,,False,0.0,0.0,0.0,0.0,0.0,-172.0623,-162.2836,0.0045,True,False,Mode(963497464),0.3715,53,0.6934
2.856,THRUST_SEARCH,OPEN_LOOP,0.0004,0.00042,0.01229,0.01229,0.0,-0.01494,0.6943,0.6943,0.6943,,0.67,,False,0.0,0.0,0.0,0.0,0.0,-172.0623,-162.2561,0.001,True,False,Mode(963497464),0.3824,53,0.6934
2.867,THRUST_SEARCH,OPEN_LOOP,0.0014,0.00141,0.01354,0.01354,0.0,-0.01019,0.6947,0.6947,0.6947,,0.67,,False,0.0,0.0,0.0,0.0,0.0,-172.0623,-162.4531,0.003,True,False,Mode(963497464),0.3934,53,0.6934
2.878,THRUST_SEARCH,OPEN_LOOP,0.0025,0.00246,0.01482,0.01482,0.0,-0.00536,0.6951,0.6951,0.6951,,0.67,,False,0.0,0.0,0.0,0.0,0.0,-172.0623,-162.7179,0.005,True,False,Mode(963497464),0.4044,53,0.6934
2.889,THRUST_SEARCH,OPEN_LOOP,0.0035,0.00348,0.01483,0.01483,0.0,-0.00092,0.6956,0.6956,0.6956,,0.67,,False,0.0,0.0,0.0,0.0,0.0,-172.0623,-162.9938,0.007,True,True,Mode(963497464),0.4151,53,0.6934
2.9,THRUST_SEARCH,OPEN_LOOP,0.0046,0.00462,0.01678,0.01678,0.0,0.00384,0.696,0.696,0.696,,0.67,,False,0.0,0.0,0.0,0.0,0.0,-172.0623,-163.6635,0.003,True,False,Mode(963497464),0.4261,54,0.6956
2.911,THRUST_SEARCH,OPEN_LOOP,0.0058,0.00577,0.01754,0.01754,0.0,0.00845,0.6964,0.6964,0.6964,,0.67,,False,0.0,0.0,0.0,0.0,0.0,-172.0623,-164.1231,0.005,True,False,Mode(963497464),0.4371,54,0.6956
2.922,THRUST_SEARCH,OPEN_LOOP,0.007,0.00696,0.01851,0.01851,0.0,0.01298,0.6969,0.6969,0.6969,,0.67,,False,0.0,0.0,0.0,0.0,0.0,-172.0623,-164.6935,0.007,True,False,Mode(963497464),0.4481,54,0.6956
2.932,THRUST_SEARCH,OPEN_LOOP,0.0081,0.00814,0.01927,0.01927,0.0,0.01732,0.6973,0.6973,0.6973,,0.67,,False,0.0,0.0,0.0,0.0,0.0,-172.0623,-165.3027,0.009,True,False,Mode(963497464),0.4585,54,0.6956
2.943,THRUST_SEARCH,OPEN_LOOP,0.0094,0.00937,0.02045,0.02045,0.0,0.02163,0.6977,0.6977,0.6977,,0.67,,False,0.0,0.0,0.0,0.0,0.0,-172.0623,-166.4182,0.0045,True,True,Mode(963497464),0.469,54,0.6956
2.954,THRUST_SEARCH,OPEN_LOOP,0.0106,0.01057,0.02089,0.02089,0.0,0.02565,0.6982,0.6982,0.6982,,0.67,,False,0.0,0.0,0.0,0.0,0.0,-172.0623,-166.8503,0.007,True,False,Mode(963497464),0.48,55,0.6977
2.965,THRUST_SEARCH,OPEN_LOOP,0.0117,0.01171,0.02093,0.02093,0.0,0.02923,0.6986,0.6986,0.6986,,0.67,,False,0.0,0.0,0.0,0.0,0.0,-172.0623,-167.1809,0.009,True,False,Mode(963497464),0.4905,55,0.6977
2.975,THRUST_SEARCH,OPEN_LOOP,0.0129,0.01291,0.02249,0.02249,0.0,0.03293,0.699,0.699,0.699,,0.67,,False,0.0,0.0,0.0,0.0,0.0,-172.0623,-167.6139,0.0015,True,False,Mode(963497464),0.501,55,0.6977
2.986,THRUST_SEARCH,OPEN_LOOP,0.0141,0.01408,0.02276,0.02276,0.0,0.0363,0.6994,0.6994,0.6994,,0.67,,False,0.0,0.0,0.0,0.0,0.0,-172.0623,-167.8476,0.006,True,False,Mode(963497464),0.5119,55,0.6977
2.998,THRUST_SEARCH,OPEN_LOOP,0.0153,0.01526,0.02354,0.02354,0.0,0.03951,0.6999,0.6999,0.6999,,0.67,,False,0.0,0.0,0.0,0.0,0.0,-172.0623,-168.116,0.008,True,True,Mode(963497464),0.5229,55,0.6977
3.007,THRUST_SEARCH,OPEN_LOOP,0.0164,0.0164,0.02412,0.02412,0.0,0.0425,0.7003,0.7003,0.7003,,0.67,,False,0.0,0.0,0.0,0.0,0.0,-172.0623,-168.7086,0.001,True,False,Mode(963497464),0.5334,56,0.6999
3.018,THRUST_SEARCH,OPEN_LOOP,0.0176,0.01757,0.02508,0.02508,0.0,0.04542,0.7007,0.7007,0.7007,,0.67,,False,0.0,0.0,0.0,0.0,0.0,-172.0623,-168.9951,0.003,True,False,Mode(963497464),0.5444,56,0.6999
3.029,THRUST_SEARCH,OPEN_LOOP,0.0186,0.0186,0.02457,0.02457,0.0,0.04773,0.7012,0.7012,0.7012,,0.67,,False,0.0,0.0,0.0,0.0,0.0,-172.0623,-169.1436,0.0045,True,False,Mode(963497464),0.5549,56,0.6999
3.04,THRUST_SEARCH,OPEN_LOOP,0.0197,0.0197,0.02583,0.02583,0.0,0.0501,0.7016,0.7016,0.7016,,0.67,,False,0.0,0.0,0.0,0.0,0.0,-172.0623,-169.079,0.001,True,False,Mode(963497464),0.5658,56,0.6999
3.051,THRUST_SEARCH,OPEN_LOOP,0.0207,0.02074,0.026,0.026,0.0,0.05214,0.702,0.702,0.702,,0.67,,False,0.0,0.0,0.0,0.0,0.0,-172.0623,-168.9572,0.003,True,True,Mode(963497464),0.5768,56,0.6999
3.062,THRUST_SEARCH,OPEN_LOOP,0.0218,0.02176,0.02656,0.02656,0.0,0.054,0.7025,0.7025,0.7025,,0.67,,False,0.0,0.0,0.0,0.0,0.0,-172.0623,-168.9445,0.005,True,False,Mode(963497464),0.5878,57,0.702
3.073,THRUST_SEARCH,OPEN_LOOP,0.0228,0.02279,0.02737,0.02737,0.0,0.05579,0.7029,0.7029,0.7029,,0.67,,False,0.0,0.0,0.0,0.0,0.0,-172.0623,-169.251,0.001,True,False,Mode(963497464),0.5988,57,0.702
3.084,THRUST_SEARCH,OPEN_LOOP,0.0237,0.02371,0.02709,0.02709,0.0,0.0571,0.7033,0.7033,0.7033,,0.67,,False,0.0,0.0,0.0,0.0,0.0,-172.0623,-169.4921,0.003,True,False,Mode(963497464),0.6097,57,0.702
3.094,THRUST_SEARCH,OPEN_LOOP,0.0245,0.02453,0.02684,0.02684,0.0,0.058,0.7038,0.7038,0.7038,,0.67,,False,0.0,0.0,0.0,0.0,0.0,-172.0623,-169.6664,0.0045,True,False,Mode(963497464),0.6202,57,0.702
3.105,THRUST_SEARCH,OPEN_LOOP,0.0253,0.02534,0.02708,0.02708,0.0,0.05867,0.7042,0.7042,0.7042,,0.67,,False,0.0,0.0,0.0,0.0,0.0,-172.0623,-169.7415,0.0073,True,True,Mode(963497464),0.6314,57,0.702
3.116,THRUST_SEARCH,OPEN_LOOP,0.0262,0.02616,0.02796,0.02796,0.0,0.05937,0.7047,0.7047,0.7047,,0.67,,False,0.0,0.0,0.0,0.0,0.0,-172.0623,-169.8664,0.001,True,False,Mode(963497464),0.6424,58,0.7042
3.127,THRUST_SEARCH,OPEN_LOOP,0.0269,0.02689,0.02772,0.02772,0.0,0.0597,0.7051,0.7051,0.7051,,0.67,,False,0.0,0.0,0.0,0.0,0.0,-172.0623,-169.8859,0.003,True,False,Mode(963497464),0.6534,58,0.7042
3.138,THRUST_SEARCH,OPEN_LOOP,0.0276,0.02761,0.02831,0.02831,0.0,0.05997,0.7055,0.7055,0.7055,,0.67,,False,0.0,0.0,0.0,0.0,0.0,-172.0623,-169.9756,0.008,True,False,Mode(963497464),0.6644,58,0.7042
3.149,THRUST_SEARCH,OPEN_LOOP,0.0283,0.02826,0.02814,0.02826,0.0,0.05993,0.706,0.706,0.706,,0.67,,False,0.0,0.0,0.0,0.0,0.0,-172.0623,-170.501,0.001,True,False,Mode(963497464),0.6753,58,0.7042
3.161,THRUST_SEARCH,OPEN_LOOP,0.0288,0.02885,0.02813,0.02885,0.0,0.05965,0.7064,0.7064,0.7064,,0.67,,False,0.0,0.0,0.0,0.0,0.0,-172.0623,-170.6893,0.003,True,True,Mode(963497464),0.6863,58,0.7042
3.171,THRUST_SEARCH,OPEN_LOOP,0.0294,0.02938,0.02812,0.02938,0.0,0.05916,0.7068,0.7068,0.7068,,0.67,,False,0.0,0.0,0.0,0.0,0.0,-172.0623,-170.7465,0.005,True,False,Mode(963497464),0.6973,59,0.7064
3.182,THRUST_SEARCH,OPEN_LOOP,0.03,0.02996,0.02918,0.02996,0.0,0.05885,0.7073,0.7073,0.7073,,0.67,,False,0.0,0.0,0.0,0.0,0.0,-172.0623,-171.0086,0.001,True,False,Mode(963497464),0.7083,59,0.7064
3.193,THRUST_SEARCH,OPEN_LOOP,0.0304,0.03043,0.02855,0.03043,0.0,0.05812,0.7077,0.7077,0.7077,,0.67,,False,0.0,0.0,0.0,0.0,0.0,-172.0623,-171.1335,0.0031,True,False,Mode(963497464),0.7193,59,0.7064
3.204,THRUST_SEARCH,OPEN_LOOP,0.0308,0.03083,0.0284,0.03083,0.0,0.05716,0.7082,0.7082,0.7082,,0.67,,False,0.0,0.0,0.0,0.0,0.0,-172.0623,-171.3441,0.005,True,False,Mode(963497464),0.7302,59,0.7064
3.215,THRUST_SEARCH,OPEN_LOOP,0.0312,0.03118,0.02828,0.03118,0.0,0.05602,0.7086,0.7086,0.7086,,0.67,,False,0.0,0.0,0.0,0.0,0.0,-172.0623,-172.0222,0.001,True,True,Mode(963497464),0.7412,59,0.7064
3.226,THRUST_SEARCH,OPEN_LOOP,0.0315,0.03153,0.02864,0.03153,0.0,0.05489,0.709,0.709,0.709,,0.67,,False,0.0,0.0,0.0,0.0,0.0,-172.0623,-172.2883,0.003,True,False,Mode(963497464),0.7521,60,0.7086
3.237,THRUST_SEARCH,OPEN_LOOP,0.0318,0.03181,0.02841,0.03181,0.0,0.05356,0.7095,0.7095,0.7095,,0.67,,False,0.0,0.0,0.0,0.0,0.0,-172.0623,-172.4689,0.005,True,False,Mode(963497464),0.7631,60,0.7086
3.248,THRUST_SEARCH,OPEN_LOOP,0.032,0.03204,0.02809,0.03204,0.0,0.05201,0.7099,0.7099,0.7099,,0.67,,False,0.0,0.0,0.0,0.0,0.0,-172.0623,-172.8882,0.001,True,False,Mode(963497464),0.7745,60,0.7086
3.259,THRUST_SEARCH,OPEN_LOOP,0.0322,0.0322,0.02782,0.0322,0.0,0.05028,0.7104,0.7104,0.7104,,0.67,,False,0.0,0.0,0.0,0.0,0.0,-172.0623,-173.1703,0.003,True,False,Mode(963497464),0.7855,60,0.7086
3.271,THRUST_SEARCH,OPEN_LOOP,0.0323,0.03226,0.02714,0.03226,0.0,0.04826,0.7108,0.7108,0.7108,,0.67,,False,0.0,0.0,0.0,0.0,0.0,-172.0623,-173.4662,0.005,True,True,Mode(963497464),0.7965,60,0.7086
