time,state,controller_mode,target_z,curr_z,raw_z,height_for_safety,target_vz,curr_vz,thrust,raw_thrust,search_thrust,liftoff_thrust,hover_thrust_est,thrust_no_floor,floor_applied,a_cmd_z,v_cmd_z,z_integral,roll_cmd_deg,pitch_cmd_deg,yaw_cmd_deg,yaw_mocap_deg,mocap_age,kf_used_measurement,mavlink_sent,mav_mode,mav_heartbeat_age,mav_send_count,mav_last_thrust
0.001,THRUST_SEARCH,OPEN_LOOP,0.0,0.0,1e-05,1e-05,0.0,0.0,0.58,0.58,0.58,,0.67,,False,0.0,0.0,0.0,0.0,0.0,-3.8401,-3.8447,0.002,True,True,Mode(963497464),0.001,0,
0.011,THRUST_SEARCH,OPEN_LOOP,0.0,0.0,1e-05,1e-05,0.0,1e-05,0.5802,0.5802,0.5802,,0.67,,False,0.0,0.0,0.0,0.0,0.0,-3.8401,-3.8472,0.004,True,False,Mode(963497464),0.012,1,0.58
0.022,THRUST_SEARCH,OPEN_LOOP,0.0,1e-05,2e-05,2e-05,0.0,6e-05,0.5804,0.5804,0.5804,,0.67,,False,0.0,0.0,0.0,0.0,0.0,-3.8401,-3.8464,0.009,True,False,Mode(963497464),0.023,1,0.58
0.032,THRUST_SEARCH,OPEN_LOOP,0.0,1e-05,1e-05,1e-05,0.0,7e-05,0.5806,0.5806,0.5806,,0.67,,False,0.0,0.0,0.0,0.0,0.0,-3.8401,-3.849,0.0015,True,False,Mode(963497464),0.0335,1,0.58
0.043,THRUST_SEARCH,OPEN_LOOP,0.0,0.0,-3e-05,0.0,0.0,-0.0001,0.5809,0.5809,0.5809,,0.67,,False,0.0,0.0,0.0,0.0,0.0,-3.8401,-3.8465,0.0036,True,False,Mode(963497464),0.0441,1,0.58
0.055,THRUST_SEARCH,OPEN_LOOP,0.0,2e-05,6e-05,6e-05,0.0,0.00017,0.5811,0.5811,0.5811,,0.67,,False,0.0,0.0,0.0,0.0,0.0,-3.8401,-3.8444,0.006,True,True,Mode(963497464),0.055,1,0.58
0.065,THRUST_SEARCH,OPEN_LOOP,0.0,1e-05,-3e-05,1e-05,0.0,-3e-05,0.5813,0.5813,0.5813,,0.67,,False,0.0,0.0,0.0,0.0,0.0,-3.8401,-3.8517,0.001,True,False,Mode(963497464),0.066,2,0.5811
0.076,THRUST_SEARCH,OPEN_LOOP,0.0,1e-05,3e-05,3e-05,0.0,6e-05,0.5815,0.5815,0.5815,,0.67,,False,0.0,0.0,0.0,0.0,0.0,-3.8401,-3.8499,0.003,True,False,Mode(963497464),0.077,2,0.5811
0.087,THRUST_SEARCH,OPEN_LOOP,0.0,1e-05,1e-05,1e-05,0.0,3e-05,0.5817,0.5817,0.5817,,0.67,,False,0.0,0.0,0.0,0.0,0.0,-3.8401,-3.8477,0.0045,True,False,Mode(963497464),0.0875,2,0.5811
0.098,THRUST_SEARCH,OPEN_LOOP,0.0,0.0,-2e-05,0.0,0.0,-6e-05,0.582,0.582,0.582,,0.67,,False,0.0,0.0,0.0,0.0,0.0,-3.8401,-3.8507,0.001,True,False,Mode(963497464),0.0985,2,0.5811
0.109,THRUST_SEARCH,OPEN_LOOP,-0.0,-0.0,-2e-05,-0.0,0.0,-0.00012,0.5822,0.5822,0.5822,,0.67,,False,0.0,0.0,0.0,0.0,0.0,-3.8401,-3.852,0.0032,True,True,Mode(963497464),0.1097,2,0.5811
0.119,THRUST_SEARCH,OPEN_LOOP,-0.0,-1e-05,-1e-05,-1e-05,0.0,-0.00015,0.5824,0.5824,0.5824,,0.67,,False,0.0,0.0,0.0,0.0,0.0,-3.8401,-3.8516,0.005,True,False,Mode(963497464),0.1205,3,0.5822
0.13,THRUST_SEARCH,OPEN_LOOP,-0.0,-0.0,2e-05,2e-05,0.0,-9e-05,0.5826,0.5826,0.5826,,0.67,,False,0.0,0.0,0.0,0.0,0.0,-3.8401,-3.8511,0.001,True,False,Mode(963497464),0.1314,3,0.5822
0.141,THRUST_SEARCH,OPEN_LOOP,-0.0,-0.0,-0.0,-0.0,0.0,-9e-05,0.5828,0.5828,0.5828,,0.67,,False,0.0,0.0,0.0,0.0,0.0,-3.8401,-3.8489,0.003,True,False,Mode(963497464),0.142,3,0.5822
0.152,THRUST_SEARCH,OPEN_LOOP,0.0,0.0,1e-05,1e-05,0.0,-6e-05,0.583,0.583,0.583,,0.67,,False,0.0,0.0,0.0,0.0,0.0,-3.8401,-3.8504,0.0045,True,False,Mode(963497464),0.1525,3,0.5822
0.162,THRUST_SEARCH,OPEN_LOOP,0.0,1e-05,3e-05,3e-05,0.0,-0.0,0.5832,0.5832,0.5832,,0.67,,False,0.0,0.0,0.0,0.0,0.0,-3.8401,-3.8484,0.007,True,True,Mode(963497464),0.1635,3,0.5822
0.174,THRUST_SEARCH,OPEN_LOOP,-0.0,-1e-05,-6e-05,-1e-05,0.0,-0.00011,0.5835,0.5835,0.5835,,0.67,,False,0.0,0.0,0.0,0.0,0.0,-3.8401,-3.8522,0.001,True,False,Mode(963497464),0.175,4,0.5832
0.185,THRUST_SEARCH,OPEN_LOOP,-0.0,-0.0,3e-05,3e-05,0.0,-5e-05,0.5837,0.5837,0.5837,,0.67,,False,0.0,0.0,0.0,0.0,0.0,-3.8401,-3.848,0.003,True,False,Mode(963497464),0.186,4,0.5832
0.195,THRUST_SEARCH,OPEN_LOOP,0.0,0.0,1e-05,1e-05,0.0,-4e-05,0.5839,0.5839,0.5839,,0.67,,False,0.0,0.0,0.0,0.0,0.0,-3.8401,-3.8463,0.0075,True,False,Mode(963497464),0.1964,4,0.5832
0.206,THRUST_SEARCH,OPEN_LOOP,-0.0,-0.0,-2e-05,-0.0,0.0,-7e-05,0.5841,0.5841,0.5841,,0.67,,False,0.0,0.0,0.0,0.0,0.0,-3.8401,-3.8478,0.0006,True,False,Mode(963497464),0.207,4,0.5832
0.217,THRUST_SEARCH,OPEN_LOOP,0.0,0.0,3e-05,3e-05,0.0,-3e-05,0.5843,0.5843,0.5843,,0.67,,False,0.0,0.0,0.0,0.0,0.0,-3.8401,-3.8462,0.003,True,True,Mode(963497464),0.218,4,0.5832
0.228,THRUST_SEARCH,OPEN_LOOP,-0.0,-0.0,-1e-05,-0.0,0.0,-4e-05,0.5846,0.5846,0.5846,,0.67,,False,0.0,0.0,0.0,0.0,0.0,-3.8401,-3.8512,0.005,True,False,Mode(963497464),0.229,5,0.5843
0.239,THRUST_SEARCH,OPEN_LOOP,0.0,0.0,2e-05,2e-05,0.0,-2e-05,0.5848,0.5848,0.5848,,0.67,,False,0.0,0.0,0.0,0.0,0.0,-3.8401,-3.8539,0.001,True,False,Mode(963497464),0.2399,5,0.5843
0.25,THRUST_SEARCH,OPEN_LOOP,0.0,0.0,-0.0,0.0,0.0,-2e-05,0.585,0.585,0.585,,0.67,,False,0.0,0.0,0.0,0.0,0.0,-3.8401,-3.8553,0.003,True,False,Mode(963497464),0.2509,5,0.5843
0.26,THRUST_SEARCH,OPEN_LOOP,-0.0,-0.0,-3e-05,-0.0,0.0,-5e-05,0.5852,0.5852,0.5852,,0.67,,False,0.0,0.0,0.0,0.0,0.0,-3.8401,-3.8539,0.0045,True,False,Mode(963497464),0.2614,5,0.5843
0.272,THRUST_SEARCH,OPEN_LOOP,-0.0,-1e-05,-4e-05,-1e-05,0.0,-8e-05,0.5854,0.5854,0.5854,,0.67,,False,0.0,0.0,0.0,0.0,0.0,-3.8401,-3.8541,0.005,True,True,Mode(963497464),0.2724,5,0.5843
0.282,THRUST_SEARCH,OPEN_LOOP,-0.0,-1e-05,2e-05,2e-05,0.0,-6e-05,0.5856,0.5856,0.5856,,0.67,,False,0.0,0.0,0.0,0.0,0.0,-3.8401,-3.8501,0.001,True,False,Mode(963497464),0.283,6,0.5854
0.293,THRUST_SEARCH,OPEN_LOOP,-0.0,-0.0,4e-05,4e-05,0.0,-3e-05,0.5859,0.5859,0.5859,,0.67,,False,0.0,0.0,0.0,0.0,0.0,-3.8401,-3.8477,0.003,True,False,Mode(963497464),0.2939,6,0.5854
0.304,THRUST_SEARCH,OPEN_LOOP,0.0,0.0,2e-05,2e-05,0.0,-1e-05,0.5861,0.5861,0.5861,,0.67,,False,0.0,0.0,0.0,0.0,0.0,-3.8401,-3.8466,0.008,True,False,Mode(963497464),0.3049,6,0.5854
0.315,THRUST_SEARCH,OPEN_LOOP,-0.0,-0.0,-1e-05,-0.0,0.0,-2e-05,0.5863,0.5863,0.5863,,0.67,,False,0.0,0.0,0.0,0.0,0.0,-3.8401,-3.8485,0.001,True,False,Mode(963497464),0.3156,6,0.5854
0.326,THRUST_SEARCH,OPEN_LOOP,0.0,0.0,1e-05,1e-05,0.0,-1e-05,0.5865,0.5865,0.5865,,0.67,,False,0.0,0.0,0.0,0.0,0.0,-3.8401,-3.848,0.003,True,True,Mode(963497464),0.3266,6,0.5854
0.337,THRUST_SEARCH,OPEN_LOOP,0.0,0.0,2e-05,2e-05,0.0,-0.0,0.5867,0.5867,0.5867,,0.67,,False,0.0,0.0,0.0,0.0,0.0,-3.8401,-3.8484,0.005,True,False,Mode(963497464),0.3376,7,0.5865
0.348,THRUST_SEARCH,OPEN_LOOP,0.0,0.0,-2e-05,0.0,0.0,-1e-05,0.587,0.587,0.587,,0.67,,False,0.0,0.0,0.0,0.0,0.0,-3.8401,-3.8464,0.001,True,False,Mode(963497464),0.3485,7,0.5865
0.359,THRUST_SEARCH,OPEN_LOOP,0.0,0.0,1e-05,1e-05,0.0,-1e-05,0.5872,0.5872,0.5872,,0.67,,False,0.0,0.0,0.0,0.0,0.0,-3.8401,-3.8452,0.0031,True,False,Mode(963497464),0.3596,7,0.5865
0.369,THRUST_SEARCH,OPEN_LOOP,0.0,0.0,1e-05,1e-05,0.0,-0.0,0.5874,0.5874,0.5874,,0.67,,False,0.0,0.0,0.0,0.0,0.0,-3.8401,-3.8442,0.0045,True,False,Mode(963497464),0.37,7,0.5865
0.38,THRUST_SEARCH,OPEN_LOOP,0.0,0.0,2e-05,2e-05,0.0,0.0,0.5876,0.5876,0.5876,,0.67,,False,0.0,0.0,0.0,0.0,0.0,-3.8401,-3.8457,0.007,True,True,Mode(963497464),0.3809,7,0.5865
0.392,THRUST_SEARCH,OPEN_LOOP,0.0,0.0,-2e-05,0.0,0.0,-1e-05,0.5878,0.5878,0.5878,,0.67,,False,0.0,0.0,0.0,0.0,0.0,-3.8401,-3.8501,0.0013,True,False,Mode(963497464),0.3927,8,0.5876
0.403,THRUST_SEARCH,OPEN_LOOP,0.0,0.0,0.0,0.0,0.0,-0.0,0.5881,0.5881,0.5881,,0.67,,False,0.0,0.0,0.0,0.0,0.0,-3.8401,-3.849,0.006,True,False,Mode(963497464),0.4037,8,0.5876
0.413,THRUST_SEARCH,OPEN_LOOP,0.0,0.0,0.0,0.0,0.0,-0.0,0.5883,0.5883,0.5883,,0.67,,False,0.0,0.0,0.0,0.0,0.0,-3.8401,-3.8481,0.0075,True,False,Mode(963497464),0.4142,8,0.5876
0.424,THRUST_SEARCH,OPEN_LOOP,0.0,0.0,3e-05,3e-05,0.0,1e-05,0.5885,0.5885,0.5885,,0.67,,False,0.0,0.0,0.0,0.0,0.0,-3.8401,-3.8487,0.01,True,False,Mode(963497464),0.4252,8,0.5876
0.435,THRUST_SEARCH,OPEN_LOOP,0.0,1e-05,1e-05,1e-05,0.0,1e-05,0.5887,0.5887,0.5887,,0.67,,False,0.0,0.0,0.0,0.0,0.0,-3.8401,-3.8508,0.005,True,True,Mode(963497464),0.4361,8,0.5876
0.446,THRUST_SEARCH,OPEN_LOOP,0.0,0.0,-4e-05,0.0,0.0,-1e-05,0.5889,0.5889,0.5889,,0.67,,False,0.0,0.0,0.0,0.0,0.0,-3.8401,-3.8526,0.0068,True,False,Mode(963497464),0.447,9,0.5887
0.457,THRUST_SEARCH,OPEN_LOOP,-0.0,-0.0,-3e-05,-0.0,0.0,-2e-05,0.5891,0.5891,0.5891,,0.67,,False,0.0,0.0,0.0,0.0,0.0,-3.8401,-3.8529,0.009,True,False,Mode(963497464),0.458,9,0.5887
0.468,THRUST_SEARCH,OPEN_LOOP,-0.0,-1e-05,-3e-05,-1e-05,0.0,-3e-05,0.5894,0.5894,0.5894,,0.67,,False,0.0,0.0,0.0,0.0,0.0,-3.8401,-3.8522,0.005,True,False,Mode(963497464),0.4689,9,0.5887
0.479,THRUST_SEARCH,OPEN_LOOP,-0.0,-0.0,3e-05,3e-05,0.0,-2e-05,0.5896,0.5896,0.5896,,0.67,,False,0.0,0.0,0.0,0.0,0.0,-3.8401,-3.8544,0.0066,True,False,Mode(963497464),0.4796,9,0.5887
0.49,THRUST_SEARCH,OPEN_LOOP,-0.0,-1e-05,-4e-05,-1e-05,0.0,-3e-05,0.5898,0.5898,0.5898,,0.67,,False,0.0,0.0,0.0,0.0,0.0,-3.8401,-3.853,0.009,True,True,Mode(963497464),0.4905,9,0.5887
0.5,THRUST_SEARCH,OPEN_LOOP,-0.0,-1e-05,-4e-05,-1e-05,0.0,-5e-05,0.59,0.59,0.59,,0.67,,False,0.0,0.0,0.0,0.0,0.0,-3.8401,-3.85,0.0015,True,False,Mode(963497464),0.501,10,0.5898
0.511,THRUST_SEARCH,OPEN_LOOP,-0.0,-1e-05,-0.0,-0.0,0.0,-4e-05,0.5902,0.5902,0.5902,,0.67,,False,0.0,0.0,0.0,0.0,0.0,-3.8401,-3.8456,0.006,True,False,Mode(963497464),0.512,10,0.5898
0.522,THRUST_SEARCH,OPEN_LOOP,-0.0,-1e-05,0.0,0.0,0.0,-4e-05,0.5904,0.5904,0.5904,,0.67,,False,0.0,0.0,0.0,0.0,0.0,-3.8401,-3.8472,0.008,True,False,Mode(963497464),0.5229,10,0.5898
0.532,THRUST_SEARCH,OPEN_LOOP,-0.0,-1e-05,0.0,0.0,0.0,-3e-05,0.5906,0.5906,0.5906,,0.67,,False,0.0,0.0,0.0,0.0,0.0,-3.8401,-3.8444,0.0006,True,False,Mode(963497464),0.5335,10,0.5898
0.543,THRUST_SEARCH,OPEN_LOOP,-0.0,-1e-05,-3e-05,-1e-05,0.0,-4e-05,0.5909,0.5909,0.5909,,0.67,,False,0.0,0.0,0.0,0.0,0.0,-3.8401,-3.8416,0.006,True,True,Mode(963497464),0.5444,10,0.5898
0.554,THRUST_SEARCH,OPEN_LOOP,-0.0,-1e-05,-4e-05,-1e-05,0.0,-5e-05,0.5911,0.5911,0.5911,,0.67,,False,0.0,0.0,0.0,0.0,0.0,-3.8401,-3.8397,0.008,True,False,Mode(963497464),0.0,11,0.5909
0.565,THRUST_SEARCH,OPEN_LOOP,-0.0,-1e-05,0.0,0.0,0.0,-5e-05,0.5913,0.5913,0.5913,,0.67,,False,0.0,0.0,0.0,0.0,0.0,-3.8401,-3.8418,0.001,True,False,Mode(963497464),0.011,11,0.5909
0.576,THRUST_SEARCH,OPEN_LOOP,-0.0,-1e-05,0.0,0.0,0.0,-4e-05,0.5915,0.5915,0.5915,,0.67,,False,0.0,0.0,0.0,0.0,0.0,-3.8401,-3.8421,0.003,True,False,Mode(963497464),0.0219,11,0.5909
0.587,THRUST_SEARCH,OPEN_LOOP,-0.0,-1e-05,2e-05,2e-05,0.0,-3e-05,0.5917,0.5917,0.5917,,0.67,,False,0.0,0.0,0.0,0.0,0.0,-3.8401,-3.8444,0.008,True,False,Mode(963497464),0.0329,11,0.5909
0.598,THRUST_SEARCH,OPEN_LOOP,0.0,0.0,0.0001,0.0001,0.0,1e-05,0.592,0.592,0.592,,0.67,,False,0.0,0.0,0.0,0.0,0.0,-3.8401,-3.8414,0.001,True,True,Mode(963497464),0.0439,11,0.5909
0.609,THRUST_SEARCH,OPEN_LOOP,0.0,2e-05,0.00021,0.00021,0.0,8e-05,0.5922,0.5922,0.5922,,0.67,,False,0.0,0.0,0.0,0.0,0.0,-3.8401,-3.8555,0.003,True,False,Mode(963497464),0.0549,12,0.592
0.62,THRUST_SEARCH,OPEN_LOOP,0.0,5e-05,0.00033,0.00033,0.0,0.0002,0.5924,0.5924,0.5924,,0.67,,False,0.0,0.0,0.0,0.0,0.0,-3.8401,-3.8662,0.0045,True,False,Mode(963497464),0.0654,12,0.592
0.631,THRUST_SEARCH,OPEN_LOOP,0.0001,7e-05,0.00032,0.00032,0.0,0.0003,0.5926,0.5926,0.5926,,0.67,,False,0.0,0.0,0.0,0.0,0.0,-3.8401,-3.8748,0.001,True,False,Mode(963497464),0.0763,12,0.592
0.642,THRUST_SEARCH,OPEN_LOOP,0.0001,0.00011,0.00044,0.00044,0.0,0.00043,0.5928,0.5928,0.5928,,0.67,,False,0.0,0.0,0.0,0.0,0.0,-3.8401,-3.8321,0.003,True,False,Mode(963497464),0.0873,12,0.592
0.653,THRUST_SEARCH,OPEN_LOOP,0.0002,0.00019,0.00097,0.00097,0.0,0.00073,0.5931,0.5931,0.5931,,0.67,,False,0.0,0.0,0.0,0.0,0.0,-3.8401,-3.7764,0.004,True,True,Mode(963497464),0.0983,12,0.592
0.664,THRUST_SEARCH,OPEN_LOOP,0.0004,0.0004,0.00247,0.00247,0.0,0.00155,0.5933,0.5933,0.5933,,0.67,,False,0.0,0.0,0.0,0.0,0.0,-3.8401,-3.9645,0.0,True,False,Mode(963497464),0.1097,13,0.5931
0.675,THRUST_SEARCH,OPEN_LOOP,0.0007,0.0007,0.00368,0.00368,0.0,0.00272,0.5935,0.5935,0.5935,,0.67,,False,0.0,0.0,0.0,0.0,0.0,-3.8401,-4.0235,0.002,True,False,Mode(963497464),0.1207,13,0.5931
0.686,THRUST_SEARCH,OPEN_LOOP,0.0011,0.00107,0.00459,0.00459,0.0,0.00411,0.5937,0.5937,0.5937,,0.67,,False,0.0,0.0,0.0,0.0,0.0,-3.8401,-4.0689,0.0038,True,False,Mode(963497464),0.1312,13,0.5931
0.697,THRUST_SEARCH,OPEN_LOOP,0.0015,0.00149,0.00552,0.00552,0.0,0.00568,0.5939,0.5939,0.5939,,0.67,,False,0.0,0.0,0.0,0.0,0.0,-3.8401,-4.1615,0.009,True,False,Mode(963497464),0.1422,13,0.5931
0.708,THRUST_SEARCH,OPEN_LOOP,0.0021,0.00213,0.00812,0.00812,0.0,0.00803,0.5942,0.5942,0.5942,,0.67,,False,0.0,0.0,0.0,0.0,0.0,-3.8401,-4.4186,0.002,True,True,Mode(963497464),0.1532,13,0.5931
0.719,THRUST_SEARCH,OPEN_LOOP,0.0027,0.00273,0.00815,0.00815,0.0,0.01016,0.5944,0.5944,0.5944,,0.67,,False,0.0,0.0,0.0,0.0,0.0,-3.8401,-4.5515,0.004,True,False,Mode(963497464),0.1641,14,0.5942
0.729,THRUST_SEARCH,OPEN_LOOP,0.0033,0.00334,0.00862,0.00862,0.0,0.01222,0.5946,0.5946,0.5946,,0.67,,False,0.0,0.0,0.0,0.0,0.0,-3.8401,-4.7301,0.0062,True,False,Mode(963497464),0.1748,14,0.5942
0.739,THRUST_SEARCH,OPEN_LOOP,0.004,0.00404,0.0101,0.0101,0.0,0.01458,0.5948,0.5948,0.5948,,0.67,,False,0.0,0.0,0.0,0.0,0.0,-3.8401,-5.2069,0.0015,True,False,Mode(963497464),0.1851,14,0.5942
0.75,THRUST_SEARCH,OPEN_LOOP,0.0048,0.00481,0.01129,0.01129,0.0,0.0171,0.595,0.595,0.595,,0.67,,False,0.0,0.0,0.0,0.0,0.0,-3.8401,-5.4428,0.004,True,False,Mode(963497464),0.196,14,0.5942
0.762,THRUST_SEARCH,OPEN_LOOP,0.0055,0.00555,0.01136,0.01136,0.0,0.01937,0.5952,0.5952,0.5952,,0.67,,False,0.0,0.0,0.0,0.0,0.0,-3.8401,-5.6117,0.006,True,True,Mode(963497464),0.207,14,0.5942
0.772,THRUST_SEARCH,OPEN_LOOP,0.0063,0.0063,0.01207,0.01207,0.0,0.02161,0.5954,0.5954,0.5954,,0.67,,False,0.0,0.0,0.0,0.0,0.0,-3.8401,-5.7813,0.0075,True,False,Mode(963497464),0.2175,15,0.5952
0.783,THRUST_SEARCH,OPEN_LOOP,0.0072,0.00723,0.01465,0.01465,0.0,0.0245,0.5957,0.5957,0.5957,,0.67,,False,0.0,0.0,0.0,0.0,0.0,-3.8401,-6.0728,0.001,True,False,Mode(963497464),0.2285,15,0.5952
0.794,THRUST_SEARCH,OPEN_LOOP,0.0081,0.00808,0.01429,0.01429,0.0,0.02692,0.5959,0.5959,0.5959,,0.67,,False,0.0,0.0,0.0,0.0,0.0,-3.8401,-6.2302,0.006,True,False,Mode(963497464),0.2394,15,0.5952
0.805,THRUST_SEARCH,OPEN_LOOP,0.0089,0.00886,0.01399,0.01399,0.0,0.02892,0.5961,0.5961,0.5961,,0.67,,False,0.0,0.0,0.0,0.0,0.0,-3.8401,-6.4204,0.008,True,False,Mode(963497464),0.2504,15,0.5952
0.815,THRUST_SEARCH,OPEN_LOOP,0.0098,0.00983,0.01692,0.01692,0.0,0.03167,0.5963,0.5963,0.5963,,0.67,,False,0.0,0.0,0.0,0.0,0.0,-3.8401,-6.7678,0.001,True,True,Mode(963497464),0.2609,15,0.5952
0.826,THRUST_SEARCH,OPEN_LOOP,0.0109,0.01087,0.01817,0.01817,0.0,0.03452,0.5965,0.5965,0.5965,,0.67,,False,0.0,0.0,0.0,0.0,0.0,-3.8401,-6.7825,0.003,True,False,Mode(963497464),0.2719,16,0.5963
0.837,THRUST_SEARCH,OPEN_LOOP,0.0119,0.0119,0.01888,0.01888,0.0,0.03724,0.5967,0.5967,0.5967,,0.67,,False,0.0,0.0,0.0,0.0,0.0,-3.8401,-6.7871,0.005,True,False,Mode(963497464),0.2828,16,0.5963
0.848,THRUST_SEARCH,OPEN_LOOP,0.013,0.01299,0.02033,0.02033,0.0,0.04009,0.597,0.597,0.597,,0.67,,False,0.0,0.0,0.0,0.0,0.0,-3.8401,-6.9144,0.001,True,False,Mode(963497464),0.2934,16,0.5963
0.859,THRUST_SEARCH,OPEN_LOOP,0.0141,0.01411,0.02142,0.02142,0.0,0.04294,0.5972,0.5972,0.5972,,0.67,,False,0.0,0.0,0.0,0.0,0.0,-3.8401,-7.0474,0.003,True,False,Mode(963497464),0.3043,16,0.5963
0.871,THRUST_SEARCH,OPEN_LOOP,0.0152,0.01525,0.02231,0.02231,0.0,0.04569,0.5974,0.5974,0.5974,,0.67,,False,0.0,0.0,0.0,0.0,0.0,-3.8401,-7.2491,0.005,True,True,Mode(963497464),0.3153,16,0.5963
0.881,THRUST_SEARCH,OPEN_LOOP,0.0163,0.01626,0.02169,0.02169,0.0,0.04781,0.5976,0.5976,0.5976,,0.67,,False,0.0,0.0,0.0,0.0,0.0,-3.8401,-7.7132,0.001,True,False,Mode(963497464),0.3263,17,0.5974
0.892,THRUST_SEARCH,OPEN_LOOP,0.0173,0.01729,0.02258,0.02258,0.0,0.04988,0.5978,0.5978,0.5978,,0.67,,False,0.0,0.0,0.0,0.0,0.0,-3.8401,-7.9704,0.002,True,False,Mode(963497464),0.3373,17,0.5974
0.903,THRUST_SEARCH,OPEN_LOOP,0.0183,0.01831,0.02341,0.02341,0.0,0.05187,0.5981,0.5981,0.5981,,0.67,,False,0.0,0.0,0.0,0.0,0.0,-3.8401,-8.2071,0.004,True,False,Mode(963497464),0.3482,17,0.5974
0.914,THRUST_SEARCH,OPEN_LOOP,0.0194,0.01937,0.02448,0.02448,0.0,0.05387,0.5983,0.5983,0.5983,,0.67,,False,0.0,0.0,0.0,0.0,0.0,-3.8401,-8.523,0.009,True,False,Mode(963497464),0.3592,17,0.5974
0.925,THRUST_SEARCH,OPEN_LOOP,0.0204,0.02042,0.02537,0.02537,0.0,0.05581,0.5985,0.5985,0.5985,,0.67,,False,0.0,0.0,0.0,0.0,0.0,-3.8401,-9.1709,0.002,True,True,Mode(963497464),0.3702,17,0.5974
0.936,THRUST_SEARCH,OPEN_LOOP,0.0215,0.02152,0.02653,0.02653,0.0,0.05777,0.5987,0.5987,0.5987,,0.67,,False,0.0,0.0,0.0,0.0,0.0,-3.8401,-9.5532,0.004,True,False,Mode(963497464),0.3814,18,0.5985
0.947,THRUST_SEARCH,OPEN_LOOP,0.0227,0.02265,0.02788,0.02788,0.0,0.05983,0.5989,0.5989,0.5989,,0.67,,False,0.0,0.0,0.0,0.0,0.0,-3.8401,-9.9192,0.009,True,False,Mode(963497464),0.3924,18,0.5985
0.958,THRUST_SEARCH,OPEN_LOOP,0.0238,0.02375,0.0284,0.0284,0.0,0.06165,0.5992,0.5992,0.5992,,0.67,,False,0.0,0.0,0.0,0.0,0.0,-3.8401,-10.926,0.002,True,False,Mode(963497464),0.4033,18,0.5985
0.968,THRUST_SEARCH,OPEN_LOOP,0.0246,0.02465,0.02721,0.02721,0.0,0.06266,0.5994,0.5994,0.5994,,0.67,,False,0.0,0.0,0.0,0.0,0.0,-3.8401,-11.5048,0.004,True,False,Mode(963497464),0.414,18,0.5985
0.979,THRUST_SEARCH,OPEN_LOOP,0.0253,0.0253,0.02527,0.0253,0.0,0.06264,0.5996,0.5996,0.5996,,0.67,,False,0.0,0.0,0.0,0.0,0.0,-3.8401,-12.1823,0.0061,True,True,Mode(963497464),0.4246,18,0.5985
0.99,THRUST_SEARCH,OPEN_LOOP,0.026,0.02597,0.02578,0.02597,0.0,0.06257,0.5998,0.5998,0.5998,,0.67,,False,0.0,0.0,0.0,0.0,0.0,-3.8401,-13.6653,0.002,True,False,Mode(963497464),0.4354,19,0.5996
1.001,THRUST_SEARCH,OPEN_LOOP,0.0268,0.02676,0.02779,0.02779,0.0,0.06297,0.6,0.6,0.6,,0.67,,False,0.0,0.0,0.0,0.0,0.0,-3.8401,-14.3189,0.004,True,False,Mode(963497464),0.4464,19,0.5996
1.012,THRUST_SEARCH,OPEN_LOOP,0.0277,0.0277,0.0304,0.0304,0.0,0.06403,0.6002,0.6002,0.6002,,0.67,,False,0.0,0.0,0.0,0.0,0.0,-3.8401,-14.7384,0.006,True,False,Mode(963497464),0.4574,19,0.5996
1.023,THRUST_SEARCH,OPEN_LOOP,0.0288,0.0288,0.03302,0.03302,0.0,0.06568,0.6005,0.6005,0.6005,,0.67,,False,0.0,0.0,0.0,0.0,0.0,-3.8401,-14.9314,0.008,True,False,Mode(963497464),0.4683,19,0.5996
1.034,THRUST_SEARCH,OPEN_LOOP,0.0304,0.03041,0.0398,0.0398,0.0,0.06936,0.6007,0.6007,0.6007,,0.67,,False,0.0,0.0,0.0,0.0,0.0,-3.8401,-15.2696,0.004,True,True,Mode(963497464),0.4793,19,0.5996
1.045,THRUST_SEARCH,OPEN_LOOP,0.032,0.03204,0.04119,0.04119,0.0,0.07295,0.6009,0.6009,0.6009,,0.67,,False,0.0,0.0,0.0,0.0,0.0,-3.8401,-15.4517,0.006,True,False,Mode(963497464),0.4903,20,0.6007
1.056,THRUST_SEARCH,OPEN_LOOP,0.0336,0.03363,0.04194,0.04194,0.0,0.07621,0.6011,0.6011,0.6011,,0.67,,False,0.0,0.0,0.0,0.0,0.0,-3.8401,-15.593,0.008,True,False,Mode(963497464),0.5012,20,0.6007
1.066,THRUST_SEARCH,OPEN_LOOP,0.0352,0.03523,0.04354,0.04354,0.0,0.07946,0.6013,0.6013,0.6013,,0.67,,False,0.0,0.0,0.0,0.0,0.0,-3.8401,-15.9769,0.0007,True,False,Mode(963497464),0.5119,20,0.6007
1.077,THRUST_SEARCH,OPEN_LOOP,0.037,0.03697,0.04617,0.04617,0.0,0.08306,0.6015,0.6015,0.6015,,0.67,,False,0.0,0.0,0.0,0.0,0.0,-3.8401,-16.6026,0.006,True,False,Mode(963497464),0.5229,20,0.6007
1.088,THRUST_SEARCH,OPEN_LOOP,0.0388,0.03881,0.04864,0.04864,0.0,0.08691,0.6018,0.6018,0.6018,,0.67,,False,0.0,0.0,0.0,0.0,0.0,-3.8401,-17.7418,0.008,True,True,Mode(963497464),0.5339,20,0.6007
1.099,THRUST_SEARCH,OPEN_LOOP,0.0408,0.04085,0.05221,0.05221,0.0,0.09137,0.602,0.602,0.602,,0.67,,False,0.0,0.0,0.0,0.0,0.0,-3.8401,-21.1332,0.001,True,False,Mode(963497464),0.545,21,0.6018
1.11,THRUST_SEARCH,OPEN_LOOP,0.043,0.043,0.05507,0.05507,0.0,0.09611,0.6022,0.6022,0.6022,,0.67,,False,0.0,0.0,0.0,0.0,0.0,-3.8401,-23.2017,0.006,True,False,Mode(963497464),0.5559,21,0.6018
1.121,THRUST_SEARCH,OPEN_LOOP,0.0452,0.04518,0.05713,0.05713,0.0,0.1008,0.6024,0.6024,0.6024,,0.67,,False,0.0,0.0,0.0,0.0,0.0,-3.8401,-25.3071,0.008,True,False,Mode(963497464),0.5669,21,0.6018
1.132,THRUST_SEARCH,OPEN_LOOP,0.0474,0.04743,0.05951,0.05951,0.0,0.10554,0.6026,0.6026,0.6026,,0.67,,False,0.0,0.0,0.0,0.0,0.0,-3.8401,-28.2842,0.001,True,False,Mode(963497464),0.5779,21,0.6018
1.143,THRUST_SEARCH,OPEN_LOOP,0.0499,0.04985,0.06312,0.06312,0.0,0.11075,0.6029,0.6029,0.6029,,0.67,,False,0.0,0.0,0.0,0.0,0.0,-3.8401,-30.1414,0.003,True,True,Mode(963497464),0.5888,21,0.6018
1.154,THRUST_SEARCH,OPEN_LOOP,0.0525,0.05246,0.06711,0.06711,0.0,0.11651,0.6031,0.6031,0.6031,,0.67,,False,0.0,0.0,0.0,0.0,0.0,-3.8401,-32.9058,0.008,True,False,Mode(963497464),0.5998,22,0.6029
1.165,THRUST_SEARCH,OPEN_LOOP,0.0554,0.05538,0.07272,0.07272,0.0,0.12332,0.6033,0.6033,0.6033,,0.67,,False,0.0,0.0,0.0,0.0,0.0,-3.8401,-40.2903,0.001,True,False,Mode(963497464),0.6108,22,0.6029
1.176,THRUST_SEARCH,OPEN_LOOP,0.0582,0.05824,0.07415,0.07415,0.0,0.12957,0.6035,0.6035,0.6035,,0.67,,False,0.0,0.0,0.0,0.0,0.0,-3.8401,-43.4307,0.003,True,False,Mode(963497464),0.6218,22,0.6029
1.187,THRUST_SEARCH,OPEN_LOOP,0.0612,0.06116,0.07758,0.07758,0.0,0.136,0.6037,0.6037,0.6037,,0.67,,False,0.0,0.0,0.0,0.0,0.0,-3.8401,-46.5019,0.0075,True,False,Mode(963497464),0.6323,22,0.6029
1.198,THRUST_SEARCH,OPEN_LOOP,0.0648,0.06482,0.0878,0.0878,0.0,0.145,0.604,0.604,0.604,,0.67,,False,0.0,0.0,0.0,0.0,0.0,-3.8401,-57.4399,0.001,True,True,Mode(963497464),0.6432,22,0.6029
1.209,THRUST_SEARCH,OPEN_LOOP,0.0685,0.06849,0.0905,0.0905,0.0,0.15362,0.6042,0.6042,0.6042,,0.67,,False,0.0,0.0,0.0,0.0,0.0,-3.8401,-63.7786,0.003,True,False,Mode(963497464),0.6542,23,0.604
1.219,THRUST_SEARCH,OPEN_LOOP,0.072,0.072,0.09198,0.09198,0.0,0.16142,0.6044,0.6044,0.6044,,0.67,,False,0.0,0.0,0.0,0.0,0.0,-3.8401,-69.8471,0.0045,True,False,Mode(963497464),0.6647,23,0.604
1.23,THRUST_SEARCH,OPEN_LOOP,0.0757,0.07567,0.0964,0.0964,0.0,0.1695,0.6046,0.6046,0.6046,,0.67,,False,0.0,0.0,0.0,0.0,0.0,-3.8401,-79.1895,0.0007,True,False,Mode(963497464),0.6754,23,0.604
1.241,THRUST_SEARCH,OPEN_LOOP,0.0795,0.07946,0.09994,0.09994,0.0,0.17749,0.6048,0.6048,0.6048,,0.67,,False,0.0,0.0,0.0,0.0,0.0,-3.8401,-84.3637,0.003,True,False,Mode(963497464),0.6863,23,0.604
1.251,THRUST_SEARCH,OPEN_LOOP,0.083,0.08303,0.10119,0.10119,0.0,0.18456,0.605,0.605,0.605,,0.67,,False,0.0,0.0,0.0,0.0,0.0,-3.8401,-89.0543,0.0045,True,True,Mode(963497464),0.6969,23,0.604
1.263,THRUST_SEARCH,OPEN_LOOP,0.0866,0.08664,0.10317,0.10317,0.0,0.191,0.6053,0.6053,0.6053,,0.67,,False,0.0,0.0,0.0,0.0,0.0,-3.8401,-93.4479,0.0071,True,False,Mode(963497464),0.708,24,0.605
1.273,THRUST_SEARCH,OPEN_LOOP,0.0899,0.08991,0.1038,0.1038,0.0,0.19639,0.6055,0.6055,0.6055,,0.67,,False,0.0,0.0,0.0,0.0,0.0,-3.8401,-101.0088,0.001,True,False,Mode(963497464),0.7183,24,0.605
1.284,THRUST_SEARCH,OPEN_LOOP,0.0932,0.0932,0.10527,0.10527,0.0,0.20108,0.6057,0.6057,0.6057,,0.67,,False,0.0,0.0,0.0,0.0,0.0,-3.8401,-104.1879,0.003,True,False,Mode(963497464),0.7293,24,0.605
1.295,THRUST_SEARCH,OPEN_LOOP,0.0961,0.09614,0.10399,0.10399,0.0,0.20413,0.6059,0.6059,0.6059,,0.67,,False,0.0,0.0,0.0,0.0,0.0,-3.8401,-106.7823,0.005,True,False,Mode(963497464),0.7402,24,0.605
1.306,THRUST_SEARCH,OPEN_LOOP,0.0989,0.09891,0.10463,0.10463,0.0,0.20636,0.6061,0.6061,0.6061,,0.67,,False,0.0,0.0,0.0,0.0,0.0,-3.8401,-111.1759,0.001,True,True,Mode(963497464),0.7512,24,0.605
1.317,THRUST_SEARCH,OPEN_LOOP,0.1013,0.10135,0.10317,0.10317,0.0,0.20707,0.6063,0.6063,0.6063,,0.67,,False,0.0,0.0,0.0,0.0,0.0,-3.8401,-113.0259,0.003,True,False,Mode(963497464),0.7621,25,0.6061
1.328,THRUST_SEARCH,OPEN_LOOP,0.1035,0.10351,0.10232,0.10351,0.0,0.2066,0.6066,0.6066,0.6066,,0.67,,False,0.0,0.0,0.0,0.0,0.0,-3.8401,-115.0075,0.005,True,False,Mode(963497464),0.7731,25,0.6061
1.338,ASCENT,OPEN_LOOP,0.1052,0.10524,0.09962,0.10524,0.0,0.2044,0.6068,0.6068,0.6068,0.6068,0.67,,False,0.0,0.0,0.0,0.0,0.0,-3.8401,-116.938,0.007,True,False,Mode(963497464),0.7841,25,0.6061
1.349,ASCENT,CLOSED_LOOP_ASCENT,0.1063,0.10624,0.094,0.10624,0.1,0.19964,0.67,0.67,,0.6068,0.67,0.6551,True,-0.1992,0.1001,0.0,-4.3757,-1.5905,-3.8401,-120.7811,0.003,True,False,Mode(963497464),0.7946,25,0.6061
1.361,ASCENT,CLOSED_LOOP_ASCENT,0.1074,0.10674,0.08881,0.10674,0.1,0.19266,0.67,0.67,,0.6068,0.67,0.6578,True,-0.1633,0.1006,0.0,-4.5202,-1.78,-3.8401,-122.6151,0.005,True,True,Mode(963497464),0.8055,25,0.6061
1.37,ASCENT,CLOSED_LOOP_ASCENT,0.1084,0.10663,0.08407,0.10663,0.1,0.18391,0.67,0.67,,0.6068,0.67,0.6598,True,-0.1356,0.1018,0.0,-4.6548,-1.9614,-3.8401,-124.2755,0.0067,True,False,Mode(963497464),0.8159,26,0.67
1.382,ASCENT,CLOSED_LOOP_ASCENT,0.1095,0.10605,0.07839,0.10605,0.1,0.17317,0.67,0.67,,0.6068,0.67,0.6621,True,-0.1054,0.1035,0.0,-4.7845,-2.13,-3.8401,-125.7397,0.009,True,False,Mode(963497464),0.8269,26,0.67
1.392,ASCENT,CLOSED_LOOP_ASCENT,0.1106,0.10417,0.0639,0.10417,0.1,0.15752,0.67,0.67,,0.6068,0.67,0.6662,True,-0.0511,0.1065,0.0,-4.8984,-2.3663,-3.8401,-127.8814,0.004,True,False,Mode(963497464),0.8379,26,0.67
1.403,ASCENT,CLOSED_LOOP_ASCENT,0.1117,0.10151,0.05488,0.10151,0.1,0.13936,0.67,0.6701,,0.6068,0.67,0.6701,False,0.0017,0.1102,0.0,-5.0541,-2.4882,-3.8401,-128.6472,0.006,True,False,Mode(963497464),0.8488,26,0.67
1.414,ASCENT,CLOSED_LOOP_ASCENT,0.1128,0.09811,0.04579,0.09811,0.1,0.11898,0.6706,0.6745,,0.6068,0.67,0.6745,False,0.0596,0.1147,0.0,-5.2054,-2.5951,-3.8401,-129.2505,0.008,True,True,Mode(963497464),0.8598,26,0.67
1.425,ASCENT,CLOSED_LOOP_ASCENT,0.1139,0.09299,0.02481,0.09299,0.1,0.0924,0.6718,0.6811,,0.6068,0.67,0.6811,False,0.1476,0.121,0.0,-5.3478,-2.7526,-3.8401,-130.3533,0.0014,True,False,Mode(963497464),0.8707,27,0.6706
1.436,ASCENT,CLOSED_LOOP_ASCENT,0.115,0.08706,0.01332,0.08706,0.1,0.06364,0.6736,0.687,,0.6068,0.67,0.687,False,0.2268,0.128,0.0,-5.5099,-2.8429,-3.8401,-130.7565,0.006,True,False,Mode(963497464),0.8817,27,0.6706
1.447,ASCENT,CLOSED_LOOP_ASCENT,0.1161,0.08087,0.0079,0.08087,0.1,0.03516,0.6759,0.6924,,0.6068,0.67,0.6924,False,0.2983,0.1354,0.0,-5.6614,-2.9292,-3.8401,-131.1363,0.008,True,False,Mode(963497464),0.8926,27,0.6706
1.458,ASCENT,CLOSED_LOOP_ASCENT,0.1172,0.07542,0.01353,0.07542,0.1,0.01098,0.6783,0.696,,0.6068,0.67,0.696,False,0.3461,0.142,0.0,-5.8262,-3.0139,-3.8401,-131.3296,0.001,True,False,Mode(963497464),0.9036,27,0.6706
1.469,ASCENT,CLOSED_LOOP_ASCENT,0.1183,0.07041,0.01611,0.07041,0.1,-0.01025,0.6809,0.6994,,0.6068,0.67,0.6994,False,0.3916,0.1481,0.0,-5.9962,-3.0523,-3.8401,-131.0925,0.006,True,True,Mode(963497464),0.9146,27,0.6706
1.48,ASCENT,CLOSED_LOOP_ASCENT,0.1194,0.06601,0.02065,0.06601,0.1,-0.02799,0.6834,0.702,,0.6068,0.67,0.702,False,0.427,0.1537,0.0,-6.1618,-3.0549,-3.8401,-130.5575,0.008,True,False,Mode(963497464),0.9255,28,0.6809
1.491,ASCENT,CLOSED_LOOP_ASCENT,0.1205,0.06248,0.02839,0.06248,0.1,-0.04134,0.6859,0.7037,,0.6068,0.67,0.7037,False,0.4487,0.1584,0.0,-6.3915,-2.895,-3.8401,-128.5591,0.001,True,False,Mode(963497464),0.9365,28,0.6809
1.502,ASCENT,CLOSED_LOOP_ASCENT,0.1216,0.0595,0.03273,0.0595,0.1,-0.05182,0.6882,0.7051,,0.6068,0.67,0.7051,False,0.4687,0.1625,0.0,-6.5751,-2.7613,-3.8401,-126.9433,0.006,True,False,Mode(963497464),0.9475,28,0.6809
1.513,ASCENT,CLOSED_LOOP_ASCENT,0.1227,0.05721,0.03908,0.05721,0.1,-0.05892,0.6903,0.7059,,0.6068,0.67,0.7059,False,0.4786,0.166,0.0,-6.7335,-2.6115,-3.8401,-125.3023,0.008,True,False,Mode(963497464),0.9585,28,0.6809
1.524,ASCENT,CLOSED_LOOP_ASCENT,0.1238,0.05618,0.05211,0.05618,0.1,-0.06051,0.6921,0.7051,,0.6068,0.67,0.7051,False,0.4677,0.1682,0.0,-6.9238,-2.2848,-3.8401,-122.2268,0.001,True,True,Mode(963497464),0.9695,28,0.6809
1.535,ASCENT,CLOSED_LOOP_ASCENT,0.1249,0.05591,0.0601,0.0601,0.1,-0.05887,0.6936,0.7042,,0.6068,0.67,0.7042,False,0.4564,0.1696,0.0,-7.0098,-2.1622,-3.8401,-120.9415,0.003,True,False,Mode(963497464),0.9805,29,0.6921
1.546,ASCENT,CLOSED_LOOP_ASCENT,0.126,0.05613,0.06521,0.06521,0.1,-0.05531,0.6947,0.7033,,0.6068,0.67,0.7033,False,0.4446,0.1706,0.0,-7.0608,-2.0666,-3.8401,-119.9133,0.008,True,False,Mode(963497464),0.9914,29,0.6921
1.557,ASCENT,CLOSED_LOOP_ASCENT,0.1271,0.05724,0.07549,0.07549,0.1,-0.04813,0.6956,0.7014,,0.6068,0.67,0.7014,False,0.4186,0.1707,0.0,-7.0876,-1.9813,-3.8401,-118.9541,0.001,True,False,Mode(963497464),1.0027,29,0.6921
1.568,ASCENT,CLOSED_LOOP_ASCENT,0.1282,0.05862,0.07874,0.07874,0.1,-0.04022,0.6961,0.6999,,0.6068,0.67,0.6999,False,0.3991,0.1705,0.0,-7.0697,-1.9826,-3.8401,-118.7071,0.003,True,False,Mode(963497464),1.0136,29,0.6921
1.579,ASCENT,CLOSED_LOOP_ASCENT,0.1293,0.06033,0.08295,0.08295,0.1,-0.03132,0.6964,0.6982,,0.6068,0.67,0.6982,False,0.3766,0.1699,0.0,-7.0319,-1.9892,-3.8401,-118.5306,0.005,True,True,Mode(963497464),1.0246,29,0.6921
1.59,ASCENT,CLOSED_LOOP_ASCENT,0.1304,0.06239,0.08761,0.08761,0.1,-0.0214,0.6964,0.6963,,0.6068,0.67,0.6963,False,0.3513,0.169,0.0,-6.9846,-1.937,-3.8401,-117.8804,0.001,True,False,Mode(963497464),1.0355,30,0.6964
1.601,ASCENT,CLOSED_LOOP_ASCENT,0.1315,0.06439,0.08796,0.08796,0.1,-0.01212,0.6962,0.695,,0.6068,0.67,0.695,False,0.3331,0.1682,0.0,-6.914,-1.8801,-3.8401,-117.2361,0.003,True,False,Mode(963497464),0.0,30,0.6964
1.613,ASCENT,CLOSED_LOOP_ASCENT,0.1327,0.06637,0.08859,0.08859,0.1,-0.00331,0.6959,0.6938,,0.6068,0.67,0.6938,False,0.3177,0.1675,0.0,-6.8348,-1.7958,-3.8401,-116.3725,0.006,True,False,Mode(963497464),0.0119,30,0.6964
1.624,ASCENT,CLOSED_LOOP_ASCENT,0.1338,0.06816,0.08719,0.08719,0.1,0.00423,0.6955,0.6927,,0.6068,0.67,0.6927,False,0.303,0.1669,0.0,-6.7815,-1.5671,-3.8401,-114.2297,0.001,True,False,Mode(963497464),0.0229,30,0.6964
1.635,ASCENT,CLOSED_LOOP_ASCENT,0.1349,0.06984,0.08689,0.08689,0.1,0.01099,0.6951,0.6918,,0.6068,0.67,0.6918,False,0.2909,0.1664,0.0,-6.6875,-1.4609,-3.8401,-113.093,0.003,True,True,Mode(963497464),0.0339,30,0.6964
1.646,ASCENT,CLOSED_LOOP_ASCENT,0.136,0.07117,0.08384,0.08384,0.1,0.016,0.6946,0.6915,,0.6068,0.67,0.6915,False,0.2862,0.1662,0.0,-6.5809,-1.3715,-3.8401,-112.0697,0.008,True,False,Mode(963497464),0.0449,31,0.6951
1.657,ASCENT,CLOSED_LOOP_ASCENT,0.1371,0.07191,0.07785,0.07785,0.1,0.01835,0.6943,0.6918,,0.6068,0.67,0.6918,False,0.2913,0.1666,0.0,-6.4831,-1.2062,-3.8401,-110.3228,0.001,True,False,Mode(963497464),0.0558,31,0.6951
1.668,ASCENT,CLOSED_LOOP_ASCENT,0.1382,0.07221,0.07309,0.07309,0.1,0.0187,0.6941,0.6924,,0.6068,0.67,0.6924,False,0.2992,0.1676,0.0,-6.3525,-1.1688,-3.8401,-109.6546,0.004,True,False,Mode(963497464),0.0673,31,0.6951
1.679,ASCENT,CLOSED_LOOP_ASCENT,0.1393,0.07213,0.06912,0.07213,0.1,0.01751,0.694,0.6932,,0.6068,0.67,0.6932,False,0.3093,0.1688,0.0,-6.2139,-1.1426,-3.8401,-109.0857,0.006,True,False,Mode(963497464),0.0783,31,0.6951
1.69,ASCENT,CLOSED_LOOP_ASCENT,0.1404,0.07098,0.05707,0.07098,0.1,0.01199,0.6941,0.6955,,0.6068,0.67,0.6955,False,0.3397,0.1711,0.0,-6.08,-1.0795,-3.8401,-108.1085,0.002,True,True,Mode(963497464),0.0893,31,0.6951
1.701,ASCENT,CLOSED_LOOP_ASCENT,0.1415,0.06924,0.04969,0.06924,0.1,0.00422,0.6946,0.6976,,0.6068,0.67,0.6976,False,0.3684,0.1741,0.0,-5.9313,-1.0757,-3.8401,-107.6884,0.004,True,False,Mode(963497464),0.1004,32,0.6941
1.712,ASCENT,CLOSED_LOOP_ASCENT,0.1426,0.06688,0.04179,0.06688,0.1,-0.00573,0.6953,0.7003,,0.6068,0.67,0.7003,False,0.4036,0.1776,0.0,-5.7797,-1.0764,-3.8401,-107.2988,0.006,True,False,Mode(963497464),0.1114,32,0.6941
1.723,ASCENT,CLOSED_LOOP_ASCENT,0.1437,0.06311,0.02442,0.06311,0.1,-0.02108,0.6964,0.7047,,0.6068,0.67,0.7047,False,0.4628,0.1826,0.0,-5.6336,-1.0439,-3.8401,-106.5291,0.002,True,False,Mode(963497464),0.1224,32,0.6941
1.734,ASCENT,CLOSED_LOOP_ASCENT,0.1448,0.05879,0.016,0.05879,0.1,-0.03804,0.6979,0.7085,,0.6068,0.67,0.7085,False,0.5136,0.1881,0.0,-5.4786,-1.048,-3.8401,-106.1257,0.004,True,False,Mode(963497464),0.1334,32,0.6941
1.745,ASCENT,CLOSED_LOOP_ASCENT,0.1459,0.05376,0.00554,0.05376,0.1,-0.05714,0.6997,0.7129,,0.6068,0.67,0.7129,False,0.5722,0.1943,0.0,-5.3243,-1.0296,-3.8401,-105.4902,0.006,True,True,Mode(963497464),0.1443,32,0.6941
1.756,ASCENT,CLOSED_LOOP_ASCENT,0.147,0.04871,0.00253,0.04871,0.1,-0.07542,0.7017,0.7164,,0.6068,0.67,0.7164,False,0.619,0.2006,0.0,-5.1732,-0.995,-3.8401,-104.6579,0.008,True,False,Mode(963497464),0.1553,33,0.6997
1.767,ASCENT,CLOSED_LOOP_ASCENT,0.1481,0.04468,0.01114,0.04468,0.1,-0.08869,0.7037,0.718,,0.6068,0.67,0.718,False,0.6396,0.2058,0.0,-5.0489,-0.8278,-3.8401,-102.2364,0.004,True,False,Mode(963497464),0.1663,33,0.6997
1.778,ASCENT,CLOSED_LOOP_ASCENT,0.1492,0.04126,0.01593,0.04126,0.1,-0.09873,0.7056,0.7193,,0.6068,0.67,0.7193,False,0.6578,0.2105,0.0,-4.9059,-0.7611,-3.8401,-100.8553,0.007,True,False,Mode(963497464),0.1775,33,0.6997
1.79,ASCENT,CLOSED_LOOP_ASCENT,0.1504,0.03834,0.01972,0.03834,0.1,-0.10613,0.7074,0.7204,,0.6068,0.67,0.7204,False,0.6719,0.2147,0.0,-4.7756,-0.5965,-3.8401,-98.1817,0.001,True,False,Mode(963497464),0.1889,33,0.6997
1.801,ASCENT,CLOSED_LOOP_ASCENT,0.1515,0.03594,0.02311,0.03594,0.1,-0.11123,0.7091,0.7212,,0.6068,0.67,0.7212,False,0.6829,0.2183,0.0,-4.6275,-0.5796,-3.8401,-97.2034,0.003,True,True,Mode(963497464),0.1999,33,0.6997
1.812,ASCENT,CLOSED_LOOP_ASCENT,0.1526,0.0336,0.02191,0.0336,0.1,-0.11588,0.7107,0.7223,,0.6068,0.67,0.7223,False,0.6979,0.2218,0.0,-4.4776,-0.5961,-3.8401,-96.6093,0.005,True,False,Mode(963497464),0.2109,34,0.7091
1.823,ASCENT,CLOSED_LOOP_ASCENT,0.1537,0.03142,0.02214,0.03142,0.1,-0.11956,0.7122,0.7232,,0.6068,0.67,0.7232,False,0.7089,0.2253,0.0,-4.328,-0.6299,-3.8401,-96.1441,0.001,True,False,Mode(963497464),0.222,34,0.7091
1.834,ASCENT,CLOSED_LOOP_ASCENT,0.1548,0.02922,0.01998,0.02922,0.1,-0.12323,0.7137,0.7242,,0.6068,0.67,0.7242,False,0.7233,0.2287,0.0,-4.1806,-0.6751,-3.8401,-95.8513,0.003,True,False,Mode(963497464),0.233,34,0.7091
1.845,ASCENT,CLOSED_LOOP_ASCENT,0.1559,0.0271,0.0191,0.0271,0.1,-0.12641,0.715,0.7251,,0.6068,0.67,0.7251,False,0.7348,0.2321,0.0,-4.0369,-0.7059,-3.8401,-95.3964,0.005,True,False,Mode(963497464),0.2439,34,0.7091
1.856,ASCENT,CLOSED_LOOP_ASCENT,0.157,0.02456,0.01205,0.02456,0.1,-0.13136,0.7164,0.7269,,0.6068,0.67,0.7269,False,0.7588,0.2358,0.0,-3.9093,-0.6807,-3.8401,-94.0369,0.001,True,True,Mode(963497464),0.2546,34,0.7091
1.867,ASCENT,CLOSED_LOOP_ASCENT,0.158,0.02172,0.00706,0.02172,0.1,-0.13715,0.7179,0.7286,,0.6068,0.67,0.7286,False,0.7811,0.2399,0.0,-3.7801,-0.6881,-3.8401,-93.1358,0.003,True,False,Mode(963497464),0.2656,35,0.7164
1.878,ASCENT,CLOSED_LOOP_ASCENT,0.1591,0.01885,0.00455,0.01885,0.1,-0.1428,0.7194,0.73,,0.6068,0.67,0.73,False,0.8004,0.244,0.0,-3.6586,-0.6892,-3.8401,-92.1425,0.005,True,False,Mode(963497464),0.2766,35,0.7164
1.888,ASCENT,CLOSED_LOOP_ASCENT,0.1602,0.01642,0.00664,0.01642,0.1,-0.14665,0.7207,0.7307,,0.6068,0.67,0.7307,False,0.81,0.2477,0.0,-3.5447,-0.6922,-3.8401,-91.1512,0.007,True,False,Mode(963497464),0.2871,35,0.7164
1.9,ASCENT,CLOSED_LOOP_ASCENT,0.1613,0.0141,0.0075,0.0141,0.1,-0.14926,0.722,0.7313,,0.6068,0.67,0.7313,False,0.8174,0.2513,0.0,-3.4497,-0.6579,-3.8401,-89.4798,0.001,True,False,Mode(963497464),0.2986,35,0.7164
1.91,ASCENT,CLOSED_LOOP_ASCENT,0.1624,0.01199,0.00698,0.01199,0.1,-0.15124,0.7232,0.732,,0.6068,0.67,0.732,False,0.8265,0.2547,0.0,-3.3487,-0.6875,-3.8401,-88.9071,0.006,True,True,Mode(963497464),0.3095,35,0.7164
1.921,ASCENT,CLOSED_LOOP_ASCENT,0.1635,0.00998,0.00639,0.00998,0.1,-0.15266,0.7244,0.7326,,0.6068,0.67,0.7326,False,0.834,0.2579,0.0,-3.2522,-0.7201,-3.8401,-88.4794,0.007,True,False,Mode(963497464),0.3205,36,0.7232
1.933,ASCENT,CLOSED_LOOP_ASCENT,0.1647,0.00784,0.00376,0.00784,0.1,-0.15428,0.7255,0.7333,,0.6068,0.67,0.7333,False,0.8447,0.2614,0.0,-3.1639,-0.7514,-3.8401,-88.1318,0.001,True,False,Mode(963497464),0.332,36,0.7232
1.944,ASCENT,CLOSED_LOOP_ASCENT,0.1658,0.00589,0.00316,0.00589,0.1,-0.15536,0.7265,0.7339,,0.6068,0.67,0.7339,False,0.8518,0.2646,0.0,-3.0769,-0.7942,-3.8401,-88.1388,0.006,True,False,Mode(963497464),0.343,36,0.7232
1.955,ASCENT,CLOSED_LOOP_ASCENT,0.1669,0.00383,0.00015,0.00383,0.1,-0.15682,0.7275,0.7347,,0.6068,0.67,0.7347,False,0.8627,0.268,0.0,-2.9938,-0.832,-3.8401,-88.1953,0.008,True,False,Mode(963497464),0.3539,36,0.7232
1.966,ASCENT,CLOSED_LOOP_ASCENT,0.168,0.00185,-0.00088,0.00185,0.1,-0.1579,0.7284,0.7353,,0.6068,0.67,0.7353,False,0.8701,0.2712,0.0,-2.9163,-0.8801,-3.8401,-88.627,0.001,True,True,Mode(963497464),0.3649,36,0.7232
1.977,ASCENT,CLOSED_LOOP_ASCENT,0.1691,-0.00011,-0.00245,-0.00011,0.1,-0.15883,0.7293,0.7358,,0.6068,0.67,0.7358,False,0.878,0.2745,0.0,-2.8477,-0.9086,-3.8401,-88.7898,0.003,True,False,Mode(963497464),0.3759,37,0.7284
1.988,ASCENT,CLOSED_LOOP_ASCENT,0.1702,-0.00188,-0.00223,-0.00188,0.1,-0.15897,0.7301,0.7361,,0.6068,0.67,0.7361,False,0.8817,0.2775,0.0,-2.7856,-0.925,-3.8401,-88.8201,0.008,True,False,Mode(963497464),0.3868,37,0.7284
1.999,ASCENT,CLOSED_LOOP_ASCENT,0.1713,-0.00377,-0.00524,-0.00377,0.1,-0.15955,0.7309,0.7368,,0.6068,0.67,0.7368,False,0.8908,0.2807,0.0,-2.7372,-0.927,-3.8401,-88.5906,0.001,True,False,Mode(963497464),0.3978,37,0.7284
2.01,ASCENT,CLOSED_LOOP_ASCENT,0.1724,-0.00568,-0.00652,-0.00568,0.1,-0.15988,0.7317,0.7373,,0.6068,0.67,0.7373,False,0.8971,0.284,0.0,-2.6936,-0.9259,-3.8401,-88.3481,0.004,True,False,Mode(963497464),0.4093,37,0.7284
2.022,ASCENT,CLOSED_LOOP_ASCENT,0.1736,-0.0076,-0.00847,-0.0076,0.1,-0.16023,0.7325,0.7378,,0.6068,0.67,0.7378,False,0.9044,0.2872,0.0,-2.6536,-0.9173,-3.8401,-88.011,0.007,True,True,Mode(963497464),0.4208,37,0.7284
2.033,ASCENT,CLOSED_LOOP_ASCENT,0.1747,-0.00956,-0.01114,-0.00956,0.1,-0.16086,0.7332,0.7385,,0.6068,0.67,0.7385,False,0.9132,0.2905,0.0,-2.6222,-0.9032,-3.8401,-87.5352,0.001,True,False,Mode(963497464),0.4321,38,0.7325
2.044,ASCENT,CLOSED_LOOP_ASCENT,0.1758,-0.01137,-0.01177,-0.01137,0.1,-0.16102,0.7339,0.7389,,0.6068,0.67,0.7389,False,0.9183,0.2936,0.0,-2.5842,-0.9161,-3.8401,-87.6551,0.006,True,False,Mode(963497464),0.443,38,0.7325
2.056,ASCENT,CLOSED_LOOP_ASCENT,0.1769,-0.01312,-0.01303,-0.01303,0.1,-0.16098,0.7346,0.7393,,0.6068,0.67,0.7393,False,0.9237,0.2967,0.0,-2.5453,-0.9326,-3.8401,-87.9194,0.008,True,False,Mode(963497464),0.454,38,0.7325
2.065,ASCENT,CLOSED_LOOP_ASCENT,0.1779,-0.01486,-0.01532,-0.01486,0.1,-0.16117,0.7352,0.7398,,0.6068,0.67,0.7398,False,0.9308,0.2997,0.0,-2.4999,-0.981,-3.8401,-88.9092,0.001,True,False,Mode(963497464),0.4645,38,0.7325
2.077,ASCENT,CLOSED_LOOP_ASCENT,0.179,-0.01667,-0.01709,-0.01667,0.1,-0.16133,0.7358,0.7403,,0.6068,0.67,0.7403,False,0.9373,0.3028,0.0,-2.4607,-1.0146,-3.8401,-89.627,0.003,True,True,Mode(963497464),0.4755,38,0.7325
2.087,ASCENT,CLOSED_LOOP_ASCENT,0.1801,-0.01823,-0.01686,-0.01686,0.1,-0.16079,0.7363,0.7405,,0.6068,0.67,0.7405,False,0.9394,0.3056,0.0,-2.424,-1.0457,-3.8401,-90.3477,0.0075,True,False,Mode(963497464),0.486,39,0.7358
2.098,ASCENT,CLOSED_LOOP_ASCENT,0.1812,-0.01997,-0.01887,-0.01887,0.1,-0.16036,0.7369,0.7409,,0.6068,0.67,0.7409,False,0.9452,0.3087,0.0,-2.3847,-1.0911,-3.8401,-91.4466,0.0015,True,False,Mode(963497464),0.4974,39,0.7358
2.109,ASCENT,CLOSED_LOOP_ASCENT,0.1823,-0.02146,-0.01869,-0.01869,0.1,-0.15927,0.7374,0.741,,0.6068,0.67,0.741,False,0.9464,0.3116,0.0,-2.3622,-1.1032,-3.8401,-91.7951,0.003,True,False,Mode(963497464),0.5084,39,0.7358
2.121,ASCENT,CLOSED_LOOP_ASCENT,0.1834,-0.02293,-0.02006,-0.02006,0.1,-0.15813,0.7379,0.7412,,0.6068,0.67,0.7412,False,0.9495,0.3144,0.0,-2.3439,-1.1047,-3.8401,-91.9592,0.005,True,False,Mode(963497464),0.5194,39,0.7358
2.131,ASCENT,CLOSED_LOOP_ASCENT,0.1845,-0.02435,-0.02107,-0.02107,0.1,-0.15683,0.7383,0.7414,,0.6068,0.67,0.7414,False,0.9518,0.3171,0.0,-2.3361,-1.0982,-3.8401,-91.9005,0.001,True,True,Mode(963497464),0.5303,39,0.7358
2.142,ASCENT,CLOSED_LOOP_ASCENT,0.1856,-0.02577,-0.02258,-0.02258,0.1,-0.15557,0.7387,0.7416,,0.6068,0.67,0.7416,False,0.9549,0.3199,0.0,-2.3276,-1.09,-3.8401,-91.8648,0.003,True,False,Mode(963497464),0.5413,40,0.7383
2.153,ASCENT,CLOSED_LOOP_ASCENT,0.1867,-0.02711,-0.02329,-0.02329,0.1,-0.15406,0.7389,0.7408,,0.6068,0.67,0.7408,False,0.9444,0.32,0.0,-2.3185,-1.0849,-3.8401,-91.9379,0.005,True,False,Mode(963497464),0.5523,40,0.7383
2.164,ASCENT,CLOSED_LOOP_ASCENT,0.1878,-0.0285,-0.02528,-0.02528,0.1,-0.15279,0.7392,0.7407,,0.6068,0.67,0.7407,False,0.9421,0.32,0.0,-2.3022,-1.1044,-3.8401,-92.5713,0.001,True,False,Mode(963497464),0.5633,40,0.7383
2.175,ASCENT,CLOSED_LOOP_ASCENT,0.1889,-0.02992,-0.02731,-0.02731,0.1,-0.15176,0.7393,0.7406,,0.6068,0.67,0.7406,False,0.9407,0.32,0.0,-2.2854,-1.1238,-3.8401,-93.248,0.003,True,False,Mode(963497464),0.5742,40,0.7383
2.186,ASCENT,CLOSED_LOOP_ASCENT,0.19,-0.03132,-0.02854,-0.02854,0.1,-0.15066,0.7394,0.7404,,0.6068,0.67,0.7404,False,0.9383,0.32,0.0,-2.265,-1.1493,-3.8401,-94.099,0.005,True,True,Mode(963497464),0.5852,40,0.7383
2.197,ASCENT,CLOSED_LOOP_ASCENT,0.1911,-0.03289,-0.03198,-0.03198,0.1,-0.1503,0.7396,0.7405,,0.6068,0.67,0.7405,False,0.9396,0.32,0.0,-2.2242,-1.2199,-3.8401,-96.0976,0.001,True,False,Mode(963497464),0.5962,41,0.7394
2.208,ASCENT,CLOSED_LOOP_ASCENT,0.1922,-0.03437,-0.03257,-0.03257,0.1,-0.14959,0.7397,0.7403,,0.6068,0.67,0.7403,False,0.9373,0.32,0.0,-2.2033,-1.252,-3.8401,-97.1475,0.003,True,False,Mode(963497464),0.6071,41,0.7394
2.219,ASCENT,CLOSED_LOOP_ASCENT,0.1933,-0.03592,-0.03498,-0.03498,0.1,-0.14922,0.7397,0.7403,,0.6068,0.67,0.7403,False,0.9374,0.32,0.0,-2.1802,-1.2847,-3.8401,-98.2808,0.005,True,False,Mode(963497464),0.6181,41,0.7394
2.23,ASCENT,CLOSED_LOOP_ASCENT,0.1944,-0.03744,-0.03627,-0.03627,0.1,-0.14876,0.7398,0.7402,,0.6068,0.67,0.7402,False,0.9363,0.32,0.0,-2.1603,-1.314,-3.8401,-99.3577,0.007,True,False,Mode(963497464),0.6291,41,0.7394
2.242,ASCENT,CLOSED_LOOP_ASCENT,0.1955,-0.03924,-0.04013,-0.03924,0.1,-0.14911,0.7399,0.7404,,0.6068,0.67,0.7404,False,0.9391,0.32,0.0,-2.1145,-1.3918,-3.8401,-101.7494,0.001,True,True,Mode(963497464),0.6406,41,0.7394
2.253,ASCENT,CLOSED_LOOP_ASCENT,0.1967,-0.04104,-0.04186,-0.04104,0.1,-0.14944,0.74,0.7405,,0.6068,0.67,0.7405,False,0.9397,0.32,0.0,-2.0922,-1.433,-3.8401,-103.1895,0.0041,True,False,Mode(963497464),0.6521,42,0.7399
2.264,ASCENT,CLOSED_LOOP_ASCENT,0.1978,-0.04283,-0.04445,-0.04283,0.1,-0.15008,0.74,0.7406,,0.6068,0.67,0.7406,False,0.9419,0.32,0.0,-2.0632,-1.4814,-3.8401,-104.8929,0.009,True,False,Mode(963497464),0.6631,42,0.7399
2.275,ASCENT,CLOSED_LOOP_ASCENT,0.1989,-0.0449,-0.04936,-0.0449,0.1,-0.15185,0.7402,0.7411,,0.6068,0.67,0.7411,False,0.9485,0.32,0.0,-1.9632,-1.6315,-3.8401,-109.3828,0.004,True,False,Mode(963497464),0.674,42,0.7399
2.286,ASCENT,CLOSED_LOOP_ASCENT,0.2,-0.04708,-0.05162,-0.04708,0.1,-0.15366,0.7403,0.7414,,0.6068,0.67,0.7414,False,0.952,0.32,0.0,-1.91,-1.7128,-3.8401,-111.9723,0.007,True,False,Mode(963497464),0.6855,42,0.7399
2.298,ASCENT,CLOSED_LOOP_ASCENT,0.2011,-0.04906,-0.05291,-0.04906,0.1,-0.15519,0.7405,0.7416,,0.6068,0.67,0.7416,False,0.9547,0.32,0.0,-1.8481,-1.7993,-3.8401,-114.7685,0.006,True,True,Mode(963497464),0.696,42,0.7399
2.307,ASCENT,CLOSED_LOOP_ASCENT,0.2021,-0.05076,-0.0515,-0.05076,0.1,-0.15548,0.7406,0.7414,,0.6068,0.67,0.7414,False,0.9518,0.32,0.0,-1.7205,-1.935,-3.8401,-119.4489,0.0015,True,False,Mode(963497464),0.7065,43,0.7405
2.318,ASCENT,CLOSED_LOOP_ASCENT,0.2032,-0.05229,-0.05039,-0.05039,0.1,-0.15473,0.7406,0.7411,,0.6068,0.67,0.7411,False,0.9474,0.32,0.0,-1.6921,-1.9648,-3.8401,-120.9294,0.003,True,False,Mode(963497464),0.7174,43,0.7405
2.329,ASCENT,CLOSED_LOOP_ASCENT,0.2043,-0.05359,-0.04943,-0.04943,0.1,-0.15309,0.7406,0.7406,,0.6068,0.67,0.7406,False,0.9417,0.32,0.0,-1.6831,-1.9715,-3.8401,-121.7641,0.008,True,False,Mode(963497464),0.7284,43,0.7405
2.34,ASCENT,CLOSED_LOOP_ASCENT,0.2054,-0.05466,-0.04824,-0.04824,0.1,-0.15056,0.7406,0.7401,,0.6068,0.67,0.7401,False,0.9342,0.32,0.0,-1.6809,-1.9678,-3.8401,-122.2949,0.001,True,False,Mode(963497464),0.7394,43,0.7405
2.351,ASCENT,CLOSED_LOOP_ASCENT,0.2065,-0.05556,-0.04772,-0.04772,0.1,-0.14747,0.7404,0.7395,,0.6068,0.67,0.7395,False,0.9265,0.32,0.0,-1.703,-1.9398,-3.8401,-122.0391,0.003,True,True,Mode(963497464),0.7504,43,0.7405
2.362,ASCENT,CLOSED_LOOP_ASCENT,0.2076,-0.05631,-0.04791,-0.04791,0.1,-0.14417,0.7403,0.7389,,0.6068,0.67,0.7389,False,0.9189,0.32,0.0,-1.7185,-1.9134,-3.8401,-121.8679,0.0045,True,False,Mode(963497464),0.7608,44,0.7404
2.373,ASCENT,CLOSED_LOOP_ASCENT,0.2087,-0.05705,-0.04818,-0.04818,0.1,-0.14069,0.74,0.7384,,0.6068,0.67,0.7384,False,0.9118,0.32,0.0,-1.73,-1.887,-3.8401,-121.7045,0.001,True,False,Mode(963497464),0.7718,44,0.7404
2.384,ASCENT,CLOSED_LOOP_ASCENT,0.2098,-0.05784,-0.0492,-0.0492,0.1,-0.13728,0.7398,0.7379,,0.6068,0.67,0.7379,False,0.9056,0.32,0.0,-1.7336,-1.8622,-3.8401,-121.6759,0.004,True,False,Mode(963497464),0.7833,44,0.7404
2.395,ASCENT,CLOSED_LOOP_ASCENT,0.2109,-0.0585,-0.04956,-0.04956,0.1,-0.13375,0.7395,0.7373,,0.6068,0.67,0.7373,False,0.8979,0.32,0.0,-1.7332,-1.8385,-3.8401,-121.734,0.006,True,False,Mode(963497464),0.7943,44,0.7404
2.406,ASCENT,CLOSED_LOOP_ASCENT,0.212,-0.05914,-0.05053,-0.05053,0.1,-0.13035,0.7392,0.7369,,0.6068,0.67,0.7369,False,0.8914,0.32,0.0,-1.7307,-1.8117,-3.8401,-121.771,0.008,True,True,Mode(963497464),0.8052,44,0.7404
2.417,ASCENT,CLOSED_LOOP_ASCENT,0.2131,-0.0598,-0.05169,-0.05169,0.1,-0.12715,0.7388,0.7364,,0.6068,0.67,0.7364,False,0.8856,0.32,0.0,-1.7305,-1.779,-3.8401,-121.6832,0.004,True,False,Mode(963497464),0.8162,45,0.7392
2.429,ASCENT,CLOSED_LOOP_ASCENT,0.2142,-0.06045,-0.05234,-0.05234,0.1,-0.12395,0.7385,0.7359,,0.6068,0.67,0.7359,False,0.8793,0.32,0.0,-1.7273,-1.7443,-3.8401,-121.6071,0.0062,True,False,Mode(963497464),0.8274,45,0.7392
2.439,ASCENT,CLOSED_LOOP_ASCENT,0.2153,-0.06098,-0.05225,-0.05225,0.1,-0.1205,0.7381,0.7354,,0.6068,0.67,0.7354,False,0.8716,0.32,0.0,-1.7241,-1.7066,-3.8401,-121.4738,0.008,True,False,Mode(963497464),0.8384,45,0.7392
2.45,ASCENT,CLOSED_LOOP_ASCENT,0.2164,-0.0615,-0.053,-0.053,0.1,-0.11714,0.7377,0.7349,,0.6068,0.67,0.7349,False,0.8651,0.32,0.0,-1.7243,-1.6616,-3.8401,-121.1272,0.004,True,False,Mode(963497464),0.8494,45,0.7392
2.462,ASCENT,CLOSED_LOOP_ASCENT,0.2176,-0.06202,-0.05307,-0.05307,0.1,-0.11358,0.7373,0.7344,,0.6068,0.67,0.7344,False,0.8581,0.32,0.0,-1.7187,-1.6201,-3.8401,-120.9076,0.0073,True,True,Mode(963497464),0.8612,45,0.7392
2.473,ASCENT,CLOSED_LOOP_ASCENT,0.2187,-0.06234,-0.05265,-0.05265,0.1,-0.10973,0.7368,0.7337,,0.6068,0.67,0.7337,False,0.849,0.32,0.0,-1.7192,-1.5702,-3.8401,-120.3934,0.001,True,False,Mode(963497464),0.8723,46,0.7373
2.484,ASCENT,CLOSED_LOOP_ASCENT,0.2198,-0.0626,-0.05269,-0.05269,0.1,-0.10579,0.7364,0.7331,,0.6068,0.67,0.7331,False,0.8408,0.32,0.0,-1.7114,-1.5274,-3.8401,-120.1166,0.003,True,False,Mode(963497464),0.8832,46,0.7373
2.495,ASCENT,CLOSED_LOOP_ASCENT,0.2209,-0.06276,-0.05238,-0.05238,0.1,-0.10167,0.7359,0.7324,,0.6068,0.67,0.7324,False,0.8321,0.32,0.0,-1.7018,-1.4864,-3.8401,-119.8842,0.005,True,False,Mode(963497464),0.8942,46,0.7373
2.507,ASCENT,CLOSED_LOOP_ASCENT,0.2221,-0.06293,-0.05248,-0.05248,0.1,-0.09751,0.7354,0.7318,,0.6068,0.67,0.7318,False,0.8242,0.32,0.0,-1.6929,-1.4437,-3.8401,-119.6016,0.001,True,False,Mode(963497464),0.9057,46,0.7373
2.518,ASCENT,CLOSED_LOOP_ASCENT,0.2232,-0.06295,-0.05214,-0.05214,0.1,-0.09321,0.7349,0.7311,,0.6068,0.67,0.7311,False,0.8146,0.32,0.0,-1.6781,-1.4092,-3.8401,-119.5719,0.003,True,True,Mode(963497464),0.9167,46,0.7373
2.529,ASCENT,CLOSED_LOOP_ASCENT,0.2243,-0.06296,-0.05242,-0.05242,0.1,-0.08902,0.7343,0.7305,,0.6068,0.67,0.7305,False,0.8066,0.32,0.0,-1.6632,-1.3749,-3.8401,-119.5545,0.005,True,False,Mode(963497464),0.9276,47,0.7349
2.54,ASCENT,CLOSED_LOOP_ASCENT,0.2254,-0.06298,-0.05265,-0.05265,0.1,-0.08489,0.7338,0.7299,,0.6068,0.67,0.7299,False,0.799,0.32,0.0,-1.6417,-1.3498,-3.8401,-119.819,0.001,True,False,Mode(963497464),0.9391,47,0.7349
2.551,ASCENT,CLOSED_LOOP_ASCENT,0.2265,-0.06295,-0.05295,-0.05295,0.1,-0.08091,0.7333,0.7293,,0.6068,0.67,0.7293,False,0.7909,0.32,0.0,-1.6225,-1.3229,-3.8401,-120.0111,0.003,True,False,Mode(963497464),0.95,47,0.7349
2.562,ASCENT,CLOSED_LOOP_ASCENT,0.2276,-0.0629,-0.05314,-0.05314,0.1,-0.07702,0.7327,0.7288,,0.6068,0.67,0.7288,False,0.7834,0.32,0.0,-1.603,-1.2979,-3.8401,-120.2407,0.005,True,False,Mode(963497464),0.961,47,0.7349
2.573,ASCENT,CLOSED_LOOP_ASCENT,0.2287,-0.06287,-0.05374,-0.05374,0.1,-0.07339,0.7322,0.7283,,0.6068,0.67,0.7283,False,0.7769,0.32,0.0,-1.5812,-1.2764,-3.8401,-120.5691,0.001,True,True,Mode(963497464),0.972,47,0.7349
2.584,ASCENT,CLOSED_LOOP_ASCENT,0.2298,-0.06287,-0.05445,-0.05445,0.1,-0.07005,0.7316,0.7278,,0.6068,0.67,0.7278,False,0.771,0.32,0.0,-1.5658,-1.2476,-3.8401,-120.6055,0.003,True,False,Mode(963497464),0.9829,48,0.7322
2.595,ASCENT,CLOSED_LOOP_ASCENT,0.2309,-0.06286,-0.05471,-0.05471,0.1,-0.06682,0.7311,0.7274,,0.6068,0.67,0.7274,False,0.7648,0.32,0.0,-1.554,-1.2152,-3.8401,-120.4638,0.005,True,False,Mode(963497464),0.9939,48,0.7322
2.606,ASCENT,CLOSED_LOOP_ASCENT,0.232,-0.063,-0.05695,-0.05695,0.1,-0.06442,0.7307,0.7272,,0.6068,0.67,0.7272,False,0.7622,0.32,0.0,-1.5414,-1.1829,-3.8401,-120.2558,0.001,True,False,Mode(963497464),1.0048,48,0.7322
2.617,ASCENT,CLOSED_LOOP_ASCENT,0.2331,-0.06323,-0.05825,-0.05825,0.1,-0.06245,0.7302,0.727,,0.6068,0.67,0.727,False,0.7595,0.32,0.0,-1.5263,-1.1557,-3.8401,-120.1723,0.003,True,False,Mode(963497464),1.0157,48,0.7322
2.628,ASCENT,CLOSED_LOOP_ASCENT,0.2342,-0.0636,-0.06034,-0.06034,0.1,-0.06115,0.7298,0.7269,,0.6068,0.67,0.7269,False,0.7588,0.32,0.0,-1.5102,-1.1303,-3.8401,-120.1125,0.005,True,True,Mode(963497464),0.0,48,0.7322
2.639,ASCENT,CLOSED_LOOP_ASCENT,0.2353,-0.06411,-0.06235,-0.06235,0.1,-0.06046,0.7295,0.7269,,0.6068,0.67,0.7269,False,0.759,0.32,0.0,-1.4944,-1.1058,-3.8401,-120.0522,0.007,True,False,Mode(963497464),0.011,49,0.7298
2.65,ASCENT,CLOSED_LOOP_ASCENT,0.2364,-0.06493,-0.06659,-0.06493,0.1,-0.06112,0.7292,0.7273,,0.6068,0.67,0.7273,False,0.764,0.32,0.0,-1.4802,-1.079,-3.8401,-119.9043,0.0031,True,False,Mode(963497464),0.022,49,0.7298
2.661,ASCENT,CLOSED_LOOP_ASCENT,0.2374,-0.06575,-0.06738,-0.06575,0.1,-0.06176,0.729,0.7274,,0.6068,0.67,0.7274,False,0.7653,0.32,0.0,-1.4636,-1.0599,-3.8401,-120.0166,0.005,True,False,Mode(963497464),0.0329,49,0.7298
2.672,ASCENT,CLOSED_LOOP_ASCENT,0.2385,-0.06661,-0.06846,-0.06661,0.1,-0.06249,0.7288,0.7275,,0.6068,0.67,0.7275,False,0.767,0.32,0.0,-1.4386,-1.0564,-3.8401,-120.6886,0.007,True,False,Mode(963497464),0.0439,49,0.7298
2.682,ASCENT,CLOSED_LOOP_ASCENT,0.2396,-0.06742,-0.06877,-0.06742,0.1,-0.06302,0.7287,0.7276,,0.6068,0.67,0.7276,False,0.7675,0.32,0.0,-1.3943,-1.0848,-3.8401,-122.666,0.003,True,True,Mode(963497464),0.0548,49,0.7298
2.693,ASCENT,CLOSED_LOOP_ASCENT,0.2407,-0.06819,-0.06895,-0.06819,0.1,-0.06332,0.7285,0.7276,,0.6068,0.67,0.7276,False,0.7675,0.32,0.0,-1.3729,-1.0856,-3.8401,-123.5032,0.005,True,False,Mode(963497464),0.0658,50,0.7287
2.704,ASCENT,CLOSED_LOOP_ASCENT,0.2418,-0.06895,-0.06968,-0.06895,0.1,-0.06361,0.7284,0.7276,,0.6068,0.67,0.7276,False,0.768,0.32,0.0,-1.3574,-1.0833,-3.8401,-124.1458,0.007,True,False,Mode(963497464),0.0768,50,0.7287
2.715,ASCENT,CLOSED_LOOP_ASCENT,0.2429,-0.06974,-0.07067,-0.06974,0.1,-0.06398,0.7283,0.7277,,0.6068,0.67,0.7277,False,0.769,0.32,0.0,-1.3445,-1.0797,-3.8401,-124.7299,0.009,True,False,Mode(963497464),0.0877,50,0.7287
2.726,ASCENT,CLOSED_LOOP_ASCENT,0.244,-0.07063,-0.07264,-0.07063,0.1,-0.06477,0.7283,0.7279,,0.6068,0.67,0.7279,False,0.7717,0.32,0.0,-1.3196,-1.0941,-3.8401,-126.1142,0.004,True,False,Mode(963497464),0.0987,50,0.7287
2.737,ASCENT,CLOSED_LOOP_ASCENT,0.2451,-0.07147,-0.07278,-0.07147,0.1,-0.06529,0.7282,0.7279,,0.6068,0.67,0.7279,False,0.772,0.32,0.0,-1.3088,-1.0919,-3.8401,-126.7951,0.0066,True,True,Mode(963497464),0.1098,50,0.7287
2.748,ASCENT,CLOSED_LOOP_ASCENT,0.2462,-0.07218,-0.07208,-0.07208,0.1,-0.06525,0.7282,0.7278,,0.6068,0.67,0.7278,False,0.7704,0.32,0.0,-1.3009,-1.088,-3.8401,-127.3429,0.009,True,False,Mode(963497464),0.1208,51,0.7282
2.759,ASCENT,CLOSED_LOOP_ASCENT,0.2473,-0.07278,-0.07157,-0.07157,0.1,-0.06477,0.7281,0.7276,,0.6068,0.67,0.7276,False,0.7682,0.32,0.0,-1.2921,-1.0843,-3.8401,-127.9397,0.004,True,False,Mode(963497464),0.1318,51,0.7282
2.771,ASCENT,CLOSED_LOOP_ASCENT,0.2485,-0.07333,-0.07145,-0.07145,0.1,-0.06403,0.728,0.7275,,0.6068,0.67,0.7275,False,0.7661,0.32,0.0,-1.2912,-1.0703,-3.8401,-128.0593,0.0072,True,False,Mode(963497464),0.1429,51,0.7282
2.782,ASCENT,CLOSED_LOOP_ASCENT,0.2495,-0.07387,-0.07222,-0.07222,0.1,-0.06338,0.7279,0.7274,,0.6068,0.67,0.7274,False,0.765,0.32,0.0,-1.2882,-1.0582,-3.8401,-128.2584,0.001,True,False,Mode(963497464),0.1539,51,0.7282
2.792,ASCENT,CLOSED_LOOP_ASCENT,0.2506,-0.07439,-0.07251,-0.07251,0.1,-0.06264,0.7279,0.7272,,0.6068,0.67,0.7272,False,0.7632,0.32,0.0,-1.2868,-1.0443,-3.8401,-128.3321,0.003,True,True,Mode(963497464),0.1648,51,0.7282
2.803,ASCENT,CLOSED_LOOP_ASCENT,0.2517,-0.07482,-0.07214,-0.07214,0.1,-0.06158,0.7278,0.727,,0.6068,0.67,0.727,False,0.7603,0.32,0.0,-1.2853,-1.0309,-3.8401,-128.3848,0.005,True,False,Mode(963497464),0.1758,52,0.7279
2.814,ASCENT,CLOSED_LOOP_ASCENT,0.2528,-0.07521,-0.07226,-0.07226,0.1,-0.06042,0.7276,0.7268,,0.6068,0.67,0.7268,False,0.7577,0.32,0.0,-1.2824,-1.0191,-3.8401,-128.4889,0.001,True,False,Mode(963497464),0.1868,52,0.7279
2.825,ASCENT,CLOSED_LOOP_ASCENT,0.2539,-0.07556,-0.07222,-0.07222,0.1,-0.0591,0.7275,0.7266,,0.6068,0.67,0.7266,False,0.7546,0.32,0.0,-1.2799,-1.0074,-3.8401,-128.5382,0.003,True,False,Mode(963497464),0.1978,52,0.7279
2.836,ASCENT,CLOSED_LOOP_ASCENT,0.255,-0.07587,-0.07232,-0.07232,0.1,-0.0577,0.7274,0.7264,,0.6068,0.67,0.7264,False,0.7516,0.32,0.0,-1.2772,-0.9958,-3.8401,-128.5732,0.005,True,False,Mode(963497464),0.2087,52,0.7279
2.847,ASCENT,CLOSED_LOOP_ASCENT,0.2561,-0.07612,-0.07229,-0.07229,0.1,-0.05619,0.7272,0.7261,,0.6068,0.67,0.7261,False,0.7482,0.32,0.0,-1.2744,-0.985,-3.8401,-128.603,0.001,True,True,Mode(963497464),0.2194,52,0.7279
2.858,ASCENT,CLOSED_LOOP_ASCENT,0.2572,-0.07635,-0.07229,-0.07229,0.1,-0.05459,0.7271,0.7259,,0.6068,0.67,0.7259,False,0.7448,0.32,0.0,-1.2715,-0.9748,-3.8401,-128.6171,0.003,True,False,Mode(963497464),0.2304,53,0.7272
2.869,ASCENT,CLOSED_LOOP_ASCENT,0.2583,-0.07653,-0.07212,-0.07212,0.1,-0.05286,0.7269,0.7256,,0.6068,0.67,0.7256,False,0.741,0.32,0.0,-1.2684,-0.9653,-3.8401,-128.6183,0.005,True,False,Mode(963497464),0.2414,53,0.7272
2.88,ASCENT,CLOSED_LOOP_ASCENT,0.2594,-0.07668,-0.07233,-0.07233,0.1,-0.05115,0.7267,0.7253,,0.6068,0.67,0.7253,False,0.7375,0.32,0.0,-1.2651,-0.9563,-3.8401,-128.6226,0.0067,True,False,Mode(963497464),0.252,53,0.7272
2.891,ASCENT,CLOSED_LOOP_ASCENT,0.2605,-0.07681,-0.07222,-0.07222,0.1,-0.04935,0.7265,0.725,,0.6068,0.67,0.725,False,0.7338,0.32,0.0,-1.2615,-0.9485,-3.8401,-128.6418,0.009,True,False,Mode(963497464),0.263,53,0.7272
2.902,ASCENT,CLOSED_LOOP_ASCENT,0.2616,-0.0769,-0.07222,-0.07222,0.1,-0.04751,0.7263,0.7247,,0.6068,0.67,0.7247,False,0.73,0.32,0.0,-1.2579,-0.9408,-3.8401,-128.6309,0.004,True,True,Mode(963497464),0.274,53,0.7272
2.914,ASCENT,CLOSED_LOOP_ASCENT,0.2627,-0.07698,-0.07225,-0.07225,0.1,-0.04565,0.7261,0.7245,,0.6068,0.67,0.7245,False,0.7262,0.32,0.0,-1.2537,-0.9345,-3.8401,-128.6603,0.006,True,False,Mode(963497464),0.2849,54,0.7263
2.923,ASCENT,CLOSED_LOOP_ASCENT,0.2637,-0.077,-0.07218,-0.07218,0.1,-0.04377,0.7258,0.7242,,0.6068,0.67,0.7242,False,0.7221,0.32,0.0,-1.2499,-0.9282,-3.8401,-128.6483,0.0015,True,False,Mode(963497464),0.2954,54,0.7263
2.934,ASCENT,CLOSED_LOOP_ASCENT,0.2648,-0.07703,-0.07232,-0.07232,0.1,-0.04192,0.7256,0.7239,,0.6068,0.67,0.7239,False,0.7188,0.32,0.0,-1.2458,-0.9224,-3.8401,-128.6502,0.003,True,False,Mode(963497464),0.3064,54,0.7263
2.946,ASCENT,CLOSED_LOOP_ASCENT,0.2659,-0.07704,-0.07222,-0.07222,0.1,-0.04003,0.7254,0.7236,,0.6068,0.67,0.7236,False,0.7149,0.32,0.0,-1.2419,-0.917,-3.8401,-128.6311,0.005,True,False,Mode(963497464),0.3174,54,0.7263
2.956,ASCENT,CLOSED_LOOP_ASCENT,0.2669,-0.077,-0.07222,-0.07222,0.1,-0.03816,0.7251,0.7233,,0.6068,0.67,0.7233,False,0.7109,0.32,0.0,-1.2373,-0.9128,-3.8401,-128.6571,0.0068,True,True,Mode(963497464),0.3278,54,0.7263
2.966,ASCENT,CLOSED_LOOP_ASCENT,0.268,-0.07697,-0.07215,-0.07215,0.1,-0.03629,0.7249,0.7231,,0.6068,0.67,0.7231,False,0.7074,0.32,0.0,-1.2334,-0.9085,-3.8401,-128.6356,0.003,True,False,Mode(963497464),0.3387,55,0.7251
2.977,ASCENT,CLOSED_LOOP_ASCENT,0.2691,-0.07693,-0.0723,-0.0723,0.1,-0.03448,0.7246,0.7228,,0.6068,0.67,0.7228,False,0.704,0.32,0.0,-1.2291,-0.9047,-3.8401,-128.6396,0.005,True,False,Mode(963497464),0.3497,55,0.7251
2.989,ASCENT,CLOSED_LOOP_ASCENT,0.2702,-0.07687,-0.0722,-0.0722,0.1,-0.03266,0.7244,0.7225,,0.6068,0.67,0.7225,False,0.7003,0.32,0.0,-1.225,-0.9014,-3.8401,-128.6241,0.007,True,False,Mode(963497464),0.3607,55,0.7251
2.999,ASCENT,CLOSED_LOOP_ASCENT,0.2713,-0.07678,-0.07225,-0.07225,0.1,-0.03089,0.7241,0.7223,,0.6068,0.67,0.7223,False,0.6967,0.32,0.0,-1.2205,-0.899,-3.8401,-128.6446,0.009,True,False,Mode(963497464),0.3711,55,0.7251
3.01,ASCENT,CLOSED_LOOP_ASCENT,0.2724,-0.0767,-0.07224,-0.07224,0.1,-0.02915,0.7239,0.722,,0.6068,0.67,0.722,False,0.6935,0.32,0.0,-1.2161,-0.897,-3.8401,-128.6621,0.004,True,True,Mode(963497464),0.3821,55,0.7251
3.021,ASCENT,CLOSED_LOOP_ASCENT,0.2735,-0.07661,-0.07231,-0.07231,0.1,-0.02747,0.7236,0.7218,,0.6068,0.67,0.7218,False,0.6903,0.32,0.0,-1.2119,-0.8947,-3.8401,-128.6612,0.006,True,False,Mode(963497464),0.3931,56,0.7239
3.032,ASCENT,CLOSED_LOOP_ASCENT,0.2746,-0.07651,-0.07225,-0.07225,0.1,-0.0258,0.7234,0.7215,,0.6068,0.67,0.7215,False,0.6871,0.32,0.0,-1.2076,-0.8933,-3.8401,-128.6762,0.002,True,False,Mode(963497464),0.4041,56,0.7239
3.043,ASCENT,CLOSED_LOOP_ASCENT,0.2757,-0.07641,-0.07227,-0.07227,0.1,-0.02419,0.7231,0.7213,,0.6068,0.67,0.7213,False,0.684,0.32,0.0,-1.2036,-0.8918,-3.8401,-128.676,0.004,True,False,Mode(963497464),0.415,56,0.7239
3.054,ASCENT,CLOSED_LOOP_ASCENT,0.2768,-0.07629,-0.07222,-0.07222,0.1,-0.0226,0.7229,0.7211,,0.6068,0.67,0.7211,False,0.6809,0.32,0.0,-1.1994,-0.8911,-3.8401,-128.6954,0.0065,True,False,Mode(963497464),0.426,56,0.7239
3.066,ASCENT,CLOSED_LOOP_ASCENT,0.2779,-0.07616,-0.07223,-0.07223,0.1,-0.02106,0.7226,0.7208,,0.6068,0.67,0.7208,False,0.6779,0.32,0.0,-1.1959,-0.8896,-3.8401,-128.6564,0.009,True,True,Mode(963497464),0.437,56,0.7239
3.076,ASCENT,CLOSED_LOOP_ASCENT,0.279,-0.07604,-0.07227,-0.07227,0.1,-0.01958,0.7224,0.7206,,0.6068,0.67,0.7206,False,0.6751,0.32,0.0,-1.1921,-0.889,-3.8401,-128.655,0.004,True,False,Mode(963497464),0.448,57,0.7226
3.087,ASCENT,CLOSED_LOOP_ASCENT,0.2801,-0.07592,-0.07228,-0.07228,0.1,-0.01815,0.7221,0.7204,,0.6068,0.67,0.7204,False,0.6725,0.32,0.0,-1.1883,-0.8886,-3.8401,-128.6577,0.0069,True,False,Mode(963497464),0.4594,57,0.7226
3.098,ASCENT,CLOSED_LOOP_ASCENT,0.2812,-0.07578,-0.07221,-0.07221,0.1,-0.01675,0.7219,0.7202,,0.6068,0.67,0.7202,False,0.6697,0.32,0.0,-1.1845,-0.8889,-3.8401,-128.6738,0.009,True,False,Mode(963497464),0.4704,57,0.7226
3.109,ASCENT,CLOSED_LOOP_ASCENT,0.2823,-0.07563,-0.07224,-0.07224,0.1,-0.01542,0.7217,0.72,,0.6068,0.67,0.72,False,0.6671,0.32,0.0,-1.181,-0.8891,-3.8401,-128.6776,0.0037,True,False,Mode(963497464),0.481,57,0.7226
3.12,ASCENT,CLOSED_LOOP_ASCENT,0.2834,-0.0755,-0.07229,-0.07229,0.1,-0.01416,0.7215,0.7199,,0.6068,0.67,0.7199,False,0.6649,0.32,0.0,-1.1776,-0.8894,-3.8401,-128.6776,0.006,True,True,Mode(963497464),0.492,57,0.7226
3.13,ASCENT,CLOSED_LOOP_ASCENT,0.2844,-0.07536,-0.07231,-0.07231,0.1,-0.01297,0.7213,0.7197,,0.6068,0.67,0.7197,False,0.6625,0.32,0.0,-1.1742,-0.8899,-3.8401,-128.6833,0.0075,True,False,Mode(963497464),0.5025,58,0.7215
3.141,ASCENT,CLOSED_LOOP_ASCENT,0.2855,-0.07522,-0.07228,-0.07228,0.1,-0.01182,0.7211,0.7195,,0.6068,0.67,0.7195,False,0.6605,0.32,0.0,-1.171,-0.8905,-3.8401,-128.6856,0.001,True,False,Mode(963497464),0.5134,58,0.7215
3.152,ASCENT,CLOSED_LOOP_ASCENT,0.2866,-0.07508,-0.07222,-0.07222,0.1,-0.01069,0.7209,0.7194,,0.6068,0.67,0.7194,False,0.6583,0.32,0.0,-1.168,-0.8913,-3.8401,-128.6852,0.003,True,False,Mode(963497464),0.5244,58,0.7215
3.163,ASCENT,CLOSED_LOOP_ASCENT,0.2876,-0.07494,-0.0723,-0.0723,0.1,-0.00966,0.7207,0.7192,,0.6068,0.67,0.7192,False,0.6564,0.32,0.0,-1.1653,-0.892,-3.8401,-128.6774,0.0075,True,False,Mode(963497464),0.5349,58,0.7215
3.173,ASCENT,CLOSED_LOOP_ASCENT,0.2887,-0.07481,-0.07227,-0.07227,0.1,-0.00867,0.7205,0.7191,,0.6068,0.67,0.7191,False,0.6546,0.32,0.0,-1.1626,-0.8928,-3.8401,-128.6713,0.001,True,True,Mode(963497464),0.5458,58,0.7215
