time,state,controller_mode,target_z,curr_z,raw_z,height_for_safety,target_vz,curr_vz,thrust,raw_thrust,search_thrust,liftoff_thrust,hover_thrust_est,thrust_no_floor,floor_applied,a_cmd_z,v_cmd_z,z_integral,roll_cmd_deg,pitch_cmd_deg,yaw_cmd_deg,yaw_mocap_deg,mocap_age,kf_used_measurement,mavlink_sent,mav_mode,mav_heartbeat_age,mav_send_count,mav_last_thrust
0.002,THRUST_SEARCH,OPEN_LOOP,-0.0001,-8e-05,-0.0001,-8e-05,0.0,-1e-05,0.58,0.58,0.58,,0.67,,False,0.0,0.0,0.0,0.0,0.0,-168.8258,-168.8286,0.009,True,True,Mode(963497464),0.0,0,
0.01,THRUST_SEARCH,OPEN_LOOP,-0.0001,-0.0001,-0.00012,-0.0001,0.0,-7e-05,0.5802,0.5802,0.5802,,0.67,,False,0.0,0.0,0.0,0.0,0.0,-168.8258,-168.8305,0.0015,True,False,Mode(963497464),0.0105,1,0.58
0.021,THRUST_SEARCH,OPEN_LOOP,-0.0001,-0.00011,-0.00013,-0.00011,0.0,-0.00016,0.5804,0.5804,0.5804,,0.67,,False,0.0,0.0,0.0,0.0,0.0,-168.8258,-168.8337,0.0056,True,False,Mode(963497464),0.0211,1,0.58
0.032,THRUST_SEARCH,OPEN_LOOP,-0.0001,-0.00011,-0.00012,-0.00011,0.0,-0.00019,0.5806,0.5806,0.5806,,0.67,,False,0.0,0.0,0.0,0.0,0.0,-168.8258,-168.8325,0.0077,True,False,Mode(963497464),0.0317,1,0.58
0.042,THRUST_SEARCH,OPEN_LOOP,-0.0001,-0.00011,-0.00011,-0.00011,0.0,-0.00016,0.5808,0.5808,0.5808,,0.67,,False,0.0,0.0,0.0,0.0,0.0,-168.8258,-168.8315,0.0,True,False,Mode(963497464),0.0423,1,0.58
0.053,THRUST_SEARCH,OPEN_LOOP,-0.0001,-0.00012,-0.00012,-0.00012,0.0,-0.00018,0.5811,0.5811,0.5811,,0.67,,False,0.0,0.0,0.0,0.0,0.0,-168.8258,-168.8356,0.0045,True,True,Mode(963497464),0.0528,1,0.58
0.064,THRUST_SEARCH,OPEN_LOOP,-0.0001,-8e-05,2e-05,2e-05,0.0,0.00041,0.5813,0.5813,0.5813,,0.67,,False,0.0,0.0,0.0,0.0,0.0,-168.8258,-168.8325,0.007,True,False,Mode(963497464),0.0637,2,0.5811
0.075,THRUST_SEARCH,OPEN_LOOP,-0.0001,-8e-05,-0.0001,-8e-05,0.0,0.00032,0.5815,0.5815,0.5815,,0.67,,False,0.0,0.0,0.0,0.0,0.0,-168.8258,-168.8305,0.009,True,False,Mode(963497464),0.0742,2,0.5811
0.085,THRUST_SEARCH,OPEN_LOOP,-0.0001,-6e-05,-1e-05,-1e-05,0.0,0.00059,0.5817,0.5817,0.5817,,0.67,,False,0.0,0.0,0.0,0.0,0.0,-168.8258,-168.8306,0.0015,True,False,Mode(963497464),0.0847,2,0.5811
0.095,THRUST_SEARCH,OPEN_LOOP,-0.0001,-7e-05,-0.00013,-7e-05,0.0,0.00031,0.5819,0.5819,0.5819,,0.67,,False,0.0,0.0,0.0,0.0,0.0,-168.8258,-168.8317,0.0037,True,False,Mode(963497464),0.0954,2,0.5811
0.107,THRUST_SEARCH,OPEN_LOOP,-0.0001,-8e-05,-0.00011,-8e-05,0.0,0.00019,0.5821,0.5821,0.5821,,0.67,,False,0.0,0.0,0.0,0.0,0.0,-168.8258,-168.8318,0.009,True,True,Mode(963497464),0.0,2,0.5811
0.117,THRUST_SEARCH,OPEN_LOOP,-0.0001,-9e-05,-0.00011,-9e-05,0.0,9e-05,0.5823,0.5823,0.5823,,0.67,,False,0.0,0.0,0.0,0.0,0.0,-168.8258,-168.8372,0.0006,True,False,Mode(963497464),0.0105,3,0.5821
0.128,THRUST_SEARCH,OPEN_LOOP,-0.0001,-0.0001,-0.00012,-0.0001,0.0,-1e-05,0.5826,0.5826,0.5826,,0.67,,False,0.0,0.0,0.0,0.0,0.0,-168.8258,-168.8376,0.003,True,False,Mode(963497464),0.0215,3,0.5821
0.138,THRUST_SEARCH,OPEN_LOOP,-0.0001,-7e-05,2e-05,2e-05,0.0,0.00026,0.5828,0.5828,0.5828,,0.67,,False,0.0,0.0,0.0,0.0,0.0,-168.8258,-168.833,0.0075,True,False,Mode(963497464),0.032,3,0.5821
0.149,THRUST_SEARCH,OPEN_LOOP,-0.0001,-7e-05,-9e-05,-7e-05,0.0,0.0002,0.583,0.583,0.583,,0.67,,False,0.0,0.0,0.0,0.0,0.0,-168.8258,-168.8299,0.001,True,False,Mode(963497464),0.043,3,0.5821
0.16,THRUST_SEARCH,OPEN_LOOP,-0.0001,-7e-05,-9e-05,-7e-05,0.0,0.00017,0.5832,0.5832,0.5832,,0.67,,False,0.0,0.0,0.0,0.0,0.0,-168.8258,-168.8285,0.003,True,True,Mode(963497464),0.0539,3,0.5821
0.171,THRUST_SEARCH,OPEN_LOOP,-0.0001,-8e-05,-0.00011,-8e-05,0.0,0.00011,0.5834,0.5834,0.5834,,0.67,,False,0.0,0.0,0.0,0.0,0.0,-168.8258,-168.8282,0.005,True,False,Mode(963497464),0.0649,4,0.5832
0.182,THRUST_SEARCH,OPEN_LOOP,-0.0001,-8e-05,-0.00011,-8e-05,0.0,6e-05,0.5836,0.5836,0.5836,,0.67,,False,0.0,0.0,0.0,0.0,0.0,-168.8258,-168.8296,0.001,True,False,Mode(963497464),0.0759,4,0.5832
0.193,THRUST_SEARCH,OPEN_LOOP,-0.0001,-9e-05,-0.00013,-9e-05,0.0,0.0,0.5839,0.5839,0.5839,,0.67,,False,0.0,0.0,0.0,0.0,0.0,-168.8258,-168.8301,0.003,True,False,Mode(963497464),0.0869,4,0.5832
0.204,THRUST_SEARCH,OPEN_LOOP,-0.0001,-0.0001,-0.00013,-0.0001,0.0,-4e-05,0.5841,0.5841,0.5841,,0.67,,False,0.0,0.0,0.0,0.0,0.0,-168.8258,-168.8317,0.005,True,False,Mode(963497464),0.0979,4,0.5832
0.215,THRUST_SEARCH,OPEN_LOOP,-0.0001,-0.0001,-0.00012,-0.0001,0.0,-7e-05,0.5843,0.5843,0.5843,,0.67,,False,0.0,0.0,0.0,0.0,0.0,-168.8258,-168.8298,0.001,True,True,Mode(963497464),0.1089,4,0.5832
0.226,THRUST_SEARCH,OPEN_LOOP,-0.0001,-0.0001,-0.00011,-0.0001,0.0,-8e-05,0.5845,0.5845,0.5845,,0.67,,False,0.0,0.0,0.0,0.0,0.0,-168.8258,-168.829,0.003,True,False,Mode(963497464),0.1198,5,0.5843
0.237,THRUST_SEARCH,OPEN_LOOP,-0.0001,-0.00011,-0.00011,-0.00011,0.0,-9e-05,0.5847,0.5847,0.5847,,0.67,,False,0.0,0.0,0.0,0.0,0.0,-168.8258,-168.8296,0.003,True,False,Mode(963497464),0.1308,5,0.5843
0.248,THRUST_SEARCH,OPEN_LOOP,-0.0001,-9e-05,3e-05,3e-05,0.0,4e-05,0.585,0.585,0.585,,0.67,,False,0.0,0.0,0.0,0.0,0.0,-168.8258,-168.8324,0.008,True,False,Mode(963497464),0.1418,5,0.5843
0.259,THRUST_SEARCH,OPEN_LOOP,-0.0001,-7e-05,1e-05,1e-05,0.0,0.00013,0.5852,0.5852,0.5852,,0.67,,False,0.0,0.0,0.0,0.0,0.0,-168.8258,-168.8274,0.001,True,False,Mode(963497464),0.1528,5,0.5843
0.27,THRUST_SEARCH,OPEN_LOOP,-0.0001,-6e-05,0.0,0.0,0.0,0.00019,0.5854,0.5854,0.5854,,0.67,,False,0.0,0.0,0.0,0.0,0.0,-168.8258,-168.8275,0.003,True,True,Mode(963497464),0.1637,5,0.5843
0.281,THRUST_SEARCH,OPEN_LOOP,-0.0,-4e-05,4e-05,4e-05,0.0,0.00026,0.5856,0.5856,0.5856,,0.67,,False,0.0,0.0,0.0,0.0,0.0,-168.8258,-168.8261,0.008,True,False,Mode(963497464),0.1747,6,0.5854
0.292,THRUST_SEARCH,OPEN_LOOP,-0.0001,-5e-05,-0.00013,-5e-05,0.0,0.00019,0.5858,0.5858,0.5858,,0.67,,False,0.0,0.0,0.0,0.0,0.0,-168.8258,-168.8287,0.001,True,False,Mode(963497464),0.1857,6,0.5854
0.303,THRUST_SEARCH,OPEN_LOOP,-0.0001,-6e-05,-0.00011,-6e-05,0.0,0.00015,0.5861,0.5861,0.5861,,0.67,,False,0.0,0.0,0.0,0.0,0.0,-168.8258,-168.8265,0.002,True,False,Mode(963497464),0.1967,6,0.5854
0.314,THRUST_SEARCH,OPEN_LOOP,-0.0001,-6e-05,-0.00011,-6e-05,0.0,0.00011,0.5863,0.5863,0.5863,,0.67,,False,0.0,0.0,0.0,0.0,0.0,-168.8258,-168.8241,0.007,True,False,Mode(963497464),0.2076,6,0.5854
0.326,THRUST_SEARCH,OPEN_LOOP,-0.0001,-5e-05,2e-05,2e-05,0.0,0.00017,0.5865,0.5865,0.5865,,0.67,,False,0.0,0.0,0.0,0.0,0.0,-168.8258,-168.8286,0.009,True,True,Mode(963497464),0.2181,6,0.5854
0.335,THRUST_SEARCH,OPEN_LOOP,0.0,4e-05,0.00066,0.00066,0.0,0.00059,0.5867,0.5867,0.5867,,0.67,,False,0.0,0.0,0.0,0.0,0.0,-168.8258,-168.7887,0.004,True,False,Mode(963497464),0.2291,7,0.5865
0.346,THRUST_SEARCH,OPEN_LOOP,0.0001,0.00012,0.00069,0.00069,0.0,0.00095,0.5869,0.5869,0.5869,,0.67,,False,0.0,0.0,0.0,0.0,0.0,-168.8258,-168.7709,0.006,True,False,Mode(963497464),0.2396,7,0.5865
0.357,THRUST_SEARCH,OPEN_LOOP,0.0002,0.00022,0.00089,0.00089,0.0,0.00135,0.5871,0.5871,0.5871,,0.67,,False,0.0,0.0,0.0,0.0,0.0,-168.8258,-168.7482,0.008,True,False,Mode(963497464),0.2505,7,0.5865
0.367,THRUST_SEARCH,OPEN_LOOP,0.0003,0.00032,0.00099,0.00099,0.0,0.00175,0.5873,0.5873,0.5873,,0.67,,False,0.0,0.0,0.0,0.0,0.0,-168.8258,-168.6662,0.0036,True,False,Mode(963497464),0.2611,7,0.5865
0.379,THRUST_SEARCH,OPEN_LOOP,0.0004,0.0004,0.00093,0.00093,0.0,0.00204,0.5876,0.5876,0.5876,,0.67,,False,0.0,0.0,0.0,0.0,0.0,-168.8258,-168.666,0.006,True,True,Mode(963497464),0.272,7,0.5865
0.389,THRUST_SEARCH,OPEN_LOOP,0.0005,0.00051,0.00115,0.00115,0.0,0.00239,0.5878,0.5878,0.5878,,0.67,,False,0.0,0.0,0.0,0.0,0.0,-168.8258,-168.7877,0.008,True,False,Mode(963497464),0.283,8,0.5876
0.4,THRUST_SEARCH,OPEN_LOOP,0.0008,0.00078,0.00282,0.00282,0.0,0.00345,0.588,0.588,0.588,,0.67,,False,0.0,0.0,0.0,0.0,0.0,-168.8258,-168.9924,0.001,True,False,Mode(963497464),0.294,8,0.5876
0.411,THRUST_SEARCH,OPEN_LOOP,0.0011,0.00114,0.00387,0.00387,0.0,0.00484,0.5882,0.5882,0.5882,,0.67,,False,0.0,0.0,0.0,0.0,0.0,-168.8258,-169.0492,0.003,True,False,Mode(963497464),0.3049,8,0.5876
0.422,THRUST_SEARCH,OPEN_LOOP,0.0017,0.00168,0.00587,0.00587,0.0,0.00691,0.5884,0.5884,0.5884,,0.67,,False,0.0,0.0,0.0,0.0,0.0,-168.8258,-168.9943,0.008,True,False,Mode(963497464),0.3159,8,0.5876
0.433,THRUST_SEARCH,OPEN_LOOP,0.0023,0.00234,0.00743,0.00743,0.0,0.00937,0.5887,0.5887,0.5887,,0.67,,False,0.0,0.0,0.0,0.0,0.0,-168.8258,-168.663,0.001,True,True,Mode(963497464),0.3269,8,0.5876
0.444,THRUST_SEARCH,OPEN_LOOP,0.003,0.00304,0.00839,0.00839,0.0,0.01189,0.5889,0.5889,0.5889,,0.67,,False,0.0,0.0,0.0,0.0,0.0,-168.8258,-168.5767,0.0031,True,False,Mode(963497464),0.338,9,0.5887
0.455,THRUST_SEARCH,OPEN_LOOP,0.0037,0.00373,0.00884,0.00884,0.0,0.01423,0.5891,0.5891,0.5891,,0.67,,False,0.0,0.0,0.0,0.0,0.0,-168.8258,-168.5748,0.0045,True,False,Mode(963497464),0.3483,9,0.5887
0.466,THRUST_SEARCH,OPEN_LOOP,0.0044,0.0044,0.00912,0.00912,0.0,0.01636,0.5893,0.5893,0.5893,,0.67,,False,0.0,0.0,0.0,0.0,0.0,-168.8258,-168.7664,0.001,True,False,Mode(963497464),0.3593,9,0.5887
0.477,THRUST_SEARCH,OPEN_LOOP,0.005,0.00502,0.00912,0.00912,0.0,0.01818,0.5895,0.5895,0.5895,,0.67,,False,0.0,0.0,0.0,0.0,0.0,-168.8258,-168.7664,0.012,True,False,Mode(963497464),0.3703,9,0.5887
0.487,THRUST_SEARCH,OPEN_LOOP,0.0056,0.00561,0.00942,0.00942,0.0,0.01983,0.5897,0.5897,0.5897,,0.67,,False,0.0,0.0,0.0,0.0,0.0,-168.8258,-168.8945,0.0045,True,True,Mode(963497464),0.3808,9,0.5887
0.498,THRUST_SEARCH,OPEN_LOOP,0.0062,0.00623,0.01005,0.01005,0.0,0.02147,0.59,0.59,0.59,,0.67,,False,0.0,0.0,0.0,0.0,0.0,-168.8258,-168.7749,0.007,True,False,Mode(963497464),0.3917,10,0.5897
0.509,THRUST_SEARCH,OPEN_LOOP,0.0069,0.00687,0.01074,0.01074,0.0,0.02311,0.5902,0.5902,0.5902,,0.67,,False,0.0,0.0,0.0,0.0,0.0,-168.8258,-168.3005,0.0035,True,False,Mode(963497464),0.403,10,0.5897
0.52,THRUST_SEARCH,OPEN_LOOP,0.0074,0.00742,0.01033,0.01033,0.0,0.02433,0.5904,0.5904,0.5904,,0.67,,False,0.0,0.0,0.0,0.0,0.0,-168.8258,-168.0531,0.0061,True,False,Mode(963497464),0.414,10,0.5897
0.531,THRUST_SEARCH,OPEN_LOOP,0.0079,0.00789,0.00982,0.00982,0.0,0.02513,0.5906,0.5906,0.5906,,0.67,,False,0.0,0.0,0.0,0.0,0.0,-168.8258,-167.9477,0.008,True,False,Mode(963497464),0.4249,10,0.5897
0.542,THRUST_SEARCH,OPEN_LOOP,0.0081,0.00815,0.00799,0.00815,0.0,0.02507,0.5908,0.5908,0.5908,,0.67,,False,0.0,0.0,0.0,0.0,0.0,-168.8258,-168.1618,0.001,True,True,Mode(963497464),0.4359,10,0.5897
0.553,THRUST_SEARCH,OPEN_LOOP,0.0083,0.00833,0.00744,0.00833,0.0,0.0247,0.5911,0.5911,0.5911,,0.67,,False,0.0,0.0,0.0,0.0,0.0,-168.8258,-168.4428,0.003,True,False,Mode(963497464),0.4468,11,0.5908
0.564,THRUST_SEARCH,OPEN_LOOP,0.0084,0.00842,0.00658,0.00842,0.0,0.02395,0.5913,0.5913,0.5913,,0.67,,False,0.0,0.0,0.0,0.0,0.0,-168.8258,-168.6315,0.008,True,False,Mode(963497464),0.4578,11,0.5908
0.575,THRUST_SEARCH,OPEN_LOOP,0.0084,0.00841,0.00569,0.00841,0.0,0.02285,0.5915,0.5915,0.5915,,0.67,,False,0.0,0.0,0.0,0.0,0.0,-168.8258,-168.5422,0.001,True,False,Mode(963497464),0.4688,11,0.5908
0.586,THRUST_SEARCH,OPEN_LOOP,0.0084,0.00837,0.00542,0.00837,0.0,0.02167,0.5917,0.5917,0.5917,,0.67,,False,0.0,0.0,0.0,0.0,0.0,-168.8258,-168.3182,0.003,True,False,Mode(963497464),0.4798,11,0.5908
0.597,THRUST_SEARCH,OPEN_LOOP,0.0081,0.00813,0.00327,0.00813,0.0,0.01972,0.5919,0.5919,0.5919,,0.67,,False,0.0,0.0,0.0,0.0,0.0,-168.8258,-168.0952,0.008,True,True,Mode(963497464),0.4907,11,0.5908
0.608,THRUST_SEARCH,OPEN_LOOP,0.0078,0.00776,0.00172,0.00776,0.0,0.01732,0.5922,0.5922,0.5922,,0.67,,False,0.0,0.0,0.0,0.0,0.0,-168.8258,-168.3513,0.0009,True,False,Mode(963497464),0.5016,12,0.5919
0.619,THRUST_SEARCH,OPEN_LOOP,0.0074,0.00743,0.00211,0.00743,0.0,0.0152,0.5924,0.5924,0.5924,,0.67,,False,0.0,0.0,0.0,0.0,0.0,-168.8258,-168.5999,0.003,True,False,Mode(963497464),0.5126,12,0.5919
0.63,THRUST_SEARCH,OPEN_LOOP,0.0071,0.00707,0.00168,0.00707,0.0,0.01306,0.5926,0.5926,0.5926,,0.67,,False,0.0,0.0,0.0,0.0,0.0,-168.8258,-168.946,0.005,True,False,Mode(963497464),0.5236,12,0.5919
0.641,THRUST_SEARCH,OPEN_LOOP,0.0066,0.00664,0.0007,0.00664,0.0,0.01071,0.5928,0.5928,0.5928,,0.67,,False,0.0,0.0,0.0,0.0,0.0,-168.8258,-169.4672,0.0011,True,False,Mode(963497464),0.5346,12,0.5919
0.653,THRUST_SEARCH,OPEN_LOOP,0.0062,0.00621,0.00054,0.00621,0.0,0.00847,0.593,0.593,0.593,,0.67,,False,0.0,0.0,0.0,0.0,0.0,-168.8258,-169.5051,0.003,True,True,Mode(963497464),0.5456,12,0.5919
0.662,THRUST_SEARCH,OPEN_LOOP,0.0058,0.00585,0.00115,0.00585,0.0,0.00663,0.5932,0.5932,0.5932,,0.67,,False,0.0,0.0,0.0,0.0,0.0,-168.8258,-169.4769,0.0045,True,False,Mode(963497464),0.5561,13,0.593
0.673,THRUST_SEARCH,OPEN_LOOP,0.0056,0.00557,0.00193,0.00557,0.0,0.0052,0.5935,0.5935,0.5935,,0.67,,False,0.0,0.0,0.0,0.0,0.0,-168.8258,-169.5091,0.007,True,False,Mode(963497464),0.567,13,0.593
0.684,THRUST_SEARCH,OPEN_LOOP,0.0054,0.00538,0.00273,0.00538,0.0,0.00416,0.5937,0.5937,0.5937,,0.67,,False,0.0,0.0,0.0,0.0,0.0,-168.8258,-169.9884,0.003,True,False,Mode(963497464),0.578,13,0.593
0.695,THRUST_SEARCH,OPEN_LOOP,0.0052,0.00524,0.00331,0.00524,0.0,0.0034,0.5939,0.5939,0.5939,,0.67,,False,0.0,0.0,0.0,0.0,0.0,-168.8258,-170.2644,0.003,True,False,Mode(963497464),0.589,13,0.593
0.706,THRUST_SEARCH,OPEN_LOOP,0.0051,0.00514,0.00373,0.00514,0.0,0.00285,0.5941,0.5941,0.5941,,0.67,,False,0.0,0.0,0.0,0.0,0.0,-168.8258,-170.4103,0.008,True,True,Mode(963497464),0.6,13,0.593
0.717,THRUST_SEARCH,OPEN_LOOP,0.0051,0.00512,0.0046,0.00512,0.0,0.00264,0.5943,0.5943,0.5943,,0.67,,False,0.0,0.0,0.0,0.0,0.0,-168.8258,-170.3518,0.001,True,False,Mode(963497464),0.6109,14,0.5941
0.728,THRUST_SEARCH,OPEN_LOOP,0.0051,0.00514,0.00503,0.00514,0.0,0.0026,0.5946,0.5946,0.5946,,0.67,,False,0.0,0.0,0.0,0.0,0.0,-168.8258,-170.0902,0.006,True,False,Mode(963497464),0.6219,14,0.5941
0.739,THRUST_SEARCH,OPEN_LOOP,0.0052,0.00525,0.00609,0.00609,0.0,0.00293,0.5948,0.5948,0.5948,,0.67,,False,0.0,0.0,0.0,0.0,0.0,-168.8258,-169.997,0.008,True,False,Mode(963497464),0.6329,14,0.5941
0.75,THRUST_SEARCH,OPEN_LOOP,0.0054,0.00539,0.00655,0.00655,0.0,0.00338,0.595,0.595,0.595,,0.67,,False,0.0,0.0,0.0,0.0,0.0,-168.8258,-170.2992,0.001,True,False,Mode(963497464),0.6435,14,0.5941
0.761,THRUST_SEARCH,OPEN_LOOP,0.0055,0.00555,0.00682,0.00682,0.0,0.00388,0.5952,0.5952,0.5952,,0.67,,False,0.0,0.0,0.0,0.0,0.0,-168.8258,-170.6208,0.003,True,True,Mode(963497464),0.6544,14,0.5941
0.772,THRUST_SEARCH,OPEN_LOOP,0.0057,0.00568,0.00667,0.00667,0.0,0.00427,0.5954,0.5954,0.5954,,0.67,,False,0.0,0.0,0.0,0.0,0.0,-168.8258,-170.9938,0.005,True,False,Mode(963497464),0.6654,15,0.5952
0.783,THRUST_SEARCH,OPEN_LOOP,0.0058,0.00576,0.00611,0.00611,0.0,0.0044,0.5957,0.5957,0.5957,,0.67,,False,0.0,0.0,0.0,0.0,0.0,-168.8258,-171.7426,0.001,True,False,Mode(963497464),0.6766,15,0.5952
0.794,THRUST_SEARCH,OPEN_LOOP,0.0059,0.00586,0.00633,0.00633,0.0,0.00459,0.5959,0.5959,0.5959,,0.67,,False,0.0,0.0,0.0,0.0,0.0,-168.8258,-172.1407,0.003,True,False,Mode(963497464),0.6876,15,0.5952
0.805,THRUST_SEARCH,OPEN_LOOP,0.0059,0.00592,0.00606,0.00606,0.0,0.00464,0.5961,0.5961,0.5961,,0.67,,False,0.0,0.0,0.0,0.0,0.0,-168.8258,-172.5556,0.005,True,False,Mode(963497464),0.6985,15,0.5952
0.816,THRUST_SEARCH,OPEN_LOOP,0.006,0.00596,0.00587,0.00596,0.0,0.00461,0.5963,0.5963,0.5963,,0.67,,False,0.0,0.0,0.0,0.0,0.0,-168.8258,-173.4999,0.001,True,True,Mode(963497464),0.7095,15,0.5952
0.827,THRUST_SEARCH,OPEN_LOOP,0.006,0.00596,0.0054,0.00596,0.0,0.00439,0.5965,0.5965,0.5965,,0.67,,False,0.0,0.0,0.0,0.0,0.0,-168.8258,-174.0564,0.003,True,False,Mode(963497464),0.7205,16,0.5963
0.838,THRUST_SEARCH,OPEN_LOOP,0.0059,0.00591,0.00493,0.00591,0.0,0.004,0.5968,0.5968,0.5968,,0.67,,False,0.0,0.0,0.0,0.0,0.0,-168.8258,-174.5927,0.005,True,False,Mode(963497464),0.7315,16,0.5963
0.849,THRUST_SEARCH,OPEN_LOOP,0.0058,0.00576,0.00368,0.00576,0.0,0.00318,0.597,0.597,0.597,,0.67,,False,0.0,0.0,0.0,0.0,0.0,-168.8258,-175.0714,0.003,True,False,Mode(963497464),0.7425,16,0.5963
0.859,THRUST_SEARCH,OPEN_LOOP,0.0055,0.00553,0.00279,0.00553,0.0,0.00211,0.5972,0.5972,0.5972,,0.67,,False,0.0,0.0,0.0,0.0,0.0,-168.8258,-175.66,0.0015,True,False,Mode(963497464),0.753,16,0.5963
0.87,THRUST_SEARCH,OPEN_LOOP,0.0052,0.00524,0.00189,0.00524,0.0,0.00079,0.5974,0.5974,0.5974,,0.67,,False,0.0,0.0,0.0,0.0,0.0,-168.8258,-175.8348,0.006,True,True,Mode(963497464),0.7639,16,0.5963
0.881,THRUST_SEARCH,OPEN_LOOP,0.0049,0.00486,0.00078,0.00486,0.0,-0.00081,0.5976,0.5976,0.5976,,0.67,,False,0.0,0.0,0.0,0.0,0.0,-168.8258,-175.9647,0.007,True,False,Mode(963497464),0.7749,17,0.5974
0.892,THRUST_SEARCH,OPEN_LOOP,0.0044,0.00439,-0.00052,0.00439,0.0,-0.00274,0.5978,0.5978,0.5978,,0.67,,False,0.0,0.0,0.0,0.0,0.0,-168.8258,-176.1546,0.003,True,False,Mode(963497464),0.7859,17,0.5974
0.903,THRUST_SEARCH,OPEN_LOOP,0.0039,0.00394,-0.00047,0.00394,0.0,-0.00447,0.5981,0.5981,0.5981,,0.67,,False,0.0,0.0,0.0,0.0,0.0,-168.8258,-176.1902,0.005,True,False,Mode(963497464),0.7968,17,0.5974
0.914,THRUST_SEARCH,OPEN_LOOP,0.0036,0.00356,4e-05,0.00356,0.0,-0.00585,0.5983,0.5983,0.5983,,0.67,,False,0.0,0.0,0.0,0.0,0.0,-168.8258,-176.2516,0.007,True,False,Mode(963497464),0.8078,17,0.5974
0.926,THRUST_SEARCH,OPEN_LOOP,0.0032,0.00325,0.0006,0.00325,0.0,-0.00689,0.5985,0.5985,0.5985,,0.67,,False,0.0,0.0,0.0,0.0,0.0,-168.8258,-176.5053,0.009,True,True,Mode(963497464),0.8183,17,0.5974
0.935,THRUST_SEARCH,OPEN_LOOP,0.003,0.00301,0.00124,0.00301,0.0,-0.00758,0.5987,0.5987,0.5987,,0.67,,False,0.0,0.0,0.0,0.0,0.0,-168.8258,-177.1566,0.0045,True,False,Mode(963497464),0.8288,18,0.5985
0.946,THRUST_SEARCH,OPEN_LOOP,0.0028,0.00281,0.00159,0.00281,0.0,-0.00805,0.5989,0.5989,0.5989,,0.67,,False,0.0,0.0,0.0,0.0,0.0,-168.8258,-177.3837,0.0065,True,False,Mode(963497464),0.8393,18,0.5985
0.957,THRUST_SEARCH,OPEN_LOOP,0.0026,0.00262,0.00151,0.00262,0.0,-0.00849,0.5991,0.5991,0.5991,,0.67,,False,0.0,0.0,0.0,0.0,0.0,-168.8258,-177.5201,0.009,True,False,Mode(963497464),0.8502,18,0.5985
0.967,THRUST_SEARCH,OPEN_LOOP,0.0025,0.00247,0.00184,0.00247,0.0,-0.00873,0.5993,0.5993,0.5993,,0.67,,False,0.0,0.0,0.0,0.0,0.0,-168.8258,-177.4889,0.0015,True,False,Mode(963497464),0.8607,18,0.5985
0.978,THRUST_SEARCH,OPEN_LOOP,0.0024,0.00236,0.00221,0.00236,0.0,-0.00879,0.5996,0.5996,0.5996,,0.67,,False,0.0,0.0,0.0,0.0,0.0,-168.8258,-177.528,0.0035,True,True,Mode(963497464),0.8714,18,0.5985
0.989,THRUST_SEARCH,OPEN_LOOP,0.0022,0.00221,0.00156,0.00221,0.0,-0.00904,0.5998,0.5998,0.5998,,0.67,,False,0.0,0.0,0.0,0.0,0.0,-168.8258,-177.6692,0.006,True,False,Mode(963497464),0.8824,19,0.5996
1.0,THRUST_SEARCH,OPEN_LOOP,0.0021,0.00207,0.00163,0.00207,0.0,-0.00921,0.6,0.6,0.6,,0.67,,False,0.0,0.0,0.0,0.0,0.0,-168.8258,-178.2733,0.002,True,False,Mode(963497464),0.8933,19,0.5996
1.011,THRUST_SEARCH,OPEN_LOOP,0.0019,0.00187,0.00091,0.00187,0.0,-0.00959,0.6002,0.6002,0.6002,,0.67,,False,0.0,0.0,0.0,0.0,0.0,-168.8258,-178.7309,0.004,True,False,Mode(963497464),0.9043,19,0.5996
1.021,THRUST_SEARCH,OPEN_LOOP,0.0017,0.00171,0.00107,0.00171,0.0,-0.00984,0.6004,0.6004,0.6004,,0.67,,False,0.0,0.0,0.0,0.0,0.0,-168.8258,-179.1978,0.006,True,False,Mode(963497464),0.0,19,0.5996
1.032,THRUST_SEARCH,OPEN_LOOP,0.0015,0.00154,0.00079,0.00154,0.0,-0.01013,0.6006,0.6006,0.6006,,0.67,,False,0.0,0.0,0.0,0.0,0.0,-168.8258,-179.5405,0.008,True,True,Mode(963497464),0.011,19,0.5996
1.043,THRUST_SEARCH,OPEN_LOOP,0.0013,0.00128,-0.00025,0.00128,0.0,-0.01073,0.6009,0.6009,0.6009,,0.67,,False,0.0,0.0,0.0,0.0,0.0,-168.8258,-179.7285,0.004,True,False,Mode(963497464),0.022,20,0.6006
1.054,THRUST_SEARCH,OPEN_LOOP,0.001,0.00104,-0.00031,0.00104,0.0,-0.01125,0.6011,0.6011,0.6011,,0.67,,False,0.0,0.0,0.0,0.0,0.0,-168.8258,-179.709,0.006,True,False,Mode(963497464),0.0329,20,0.6006
1.065,THRUST_SEARCH,OPEN_LOOP,0.0008,0.00082,-0.0002,0.00082,0.0,-0.01165,0.6013,0.6013,0.6013,,0.67,,False,0.0,0.0,0.0,0.0,0.0,-168.8258,-179.7421,0.008,True,False,Mode(963497464),0.0439,20,0.6006
1.076,THRUST_SEARCH,OPEN_LOOP,0.0006,0.00055,-0.00093,0.00055,0.0,-0.01222,0.6015,0.6015,0.6015,,0.67,,False,0.0,0.0,0.0,0.0,0.0,-168.8258,179.8872,0.001,True,False,Mode(963497464),0.0549,20,0.6006
1.087,THRUST_SEARCH,OPEN_LOOP,0.0003,0.0003,-0.00094,0.0003,0.0,-0.01271,0.6017,0.6017,0.6017,,0.67,,False,0.0,0.0,0.0,0.0,0.0,-168.8258,179.6033,0.006,True,True,Mode(963497464),0.0658,20,0.6006
1.098,THRUST_SEARCH,OPEN_LOOP,0.0001,8e-05,-0.00081,8e-05,0.0,-0.01305,0.602,0.602,0.602,,0.67,,False,0.0,0.0,0.0,0.0,0.0,-168.8258,179.3802,0.008,True,False,Mode(963497464),0.0768,21,0.6017
1.109,THRUST_SEARCH,OPEN_LOOP,0.0001,7e-05,0.00153,0.00153,0.0,-0.01248,0.6022,0.6022,0.6022,,0.67,,False,0.0,0.0,0.0,0.0,0.0,-168.8258,179.2578,0.001,True,False,Mode(963497464),0.0878,21,0.6017
1.12,THRUST_SEARCH,OPEN_LOOP,0.0001,9e-05,0.00171,0.00171,0.0,-0.01185,0.6024,0.6024,0.6024,,0.67,,False,0.0,0.0,0.0,0.0,0.0,-168.8258,179.3223,0.003,True,False,Mode(963497464),0.0987,21,0.6017
1.131,THRUST_SEARCH,OPEN_LOOP,0.0002,0.00017,0.00247,0.00247,0.0,-0.01095,0.6026,0.6026,0.6026,,0.67,,False,0.0,0.0,0.0,0.0,0.0,-168.8258,179.5008,0.008,True,False,Mode(963497464),0.1097,21,0.6017
1.141,THRUST_SEARCH,OPEN_LOOP,0.0003,0.00033,0.00325,0.00325,0.0,-0.00981,0.6028,0.6028,0.6028,,0.67,,False,0.0,0.0,0.0,0.0,0.0,-168.8258,179.647,0.0011,True,True,Mode(963497464),0.1204,21,0.6017
1.152,THRUST_SEARCH,OPEN_LOOP,0.0005,0.00048,0.00322,0.00322,0.0,-0.00874,0.603,0.603,0.603,,0.67,,False,0.0,0.0,0.0,0.0,0.0,-168.8258,179.4629,0.003,True,False,Mode(963497464),0.1313,22,0.6028
1.163,THRUST_SEARCH,OPEN_LOOP,0.0006,0.00064,0.00328,0.00328,0.0,-0.00771,0.6033,0.6033,0.6033,,0.67,,False,0.0,0.0,0.0,0.0,0.0,-168.8258,179.2129,0.0045,True,False,Mode(963497464),0.1418,22,0.6028
1.174,THRUST_SEARCH,OPEN_LOOP,0.0008,0.00082,0.00361,0.00361,0.0,-0.00662,0.6035,0.6035,0.6035,,0.67,,False,0.0,0.0,0.0,0.0,0.0,-168.8258,178.7517,0.001,True,False,Mode(963497464),0.1528,22,0.6028
1.185,THRUST_SEARCH,OPEN_LOOP,0.0011,0.00106,0.00436,0.00436,0.0,-0.00533,0.6037,0.6037,0.6037,,0.67,,False,0.0,0.0,0.0,0.0,0.0,-168.8258,178.6406,0.003,True,False,Mode(963497464),0.1637,22,0.6028
1.195,THRUST_SEARCH,OPEN_LOOP,0.0013,0.00134,0.00497,0.00497,0.0,-0.00392,0.6039,0.6039,0.6039,,0.67,,False,0.0,0.0,0.0,0.0,0.0,-168.8258,178.6931,0.0045,True,True,Mode(963497464),0.1742,22,0.6028
1.206,THRUST_SEARCH,OPEN_LOOP,0.0015,0.00149,0.0035,0.0035,0.0,-0.00314,0.6041,0.6041,0.6041,,0.67,,False,0.0,0.0,0.0,0.0,0.0,-168.8258,178.8242,0.0067,True,False,Mode(963497464),0.185,23,0.6039
1.217,THRUST_SEARCH,OPEN_LOOP,0.0018,0.00178,0.00527,0.00527,0.0,-0.00179,0.6043,0.6043,0.6043,,0.67,,False,0.0,0.0,0.0,0.0,0.0,-168.8258,178.4999,0.003,True,False,Mode(963497464),0.1959,23,0.6039
1.228,THRUST_SEARCH,OPEN_LOOP,0.0022,0.00217,0.00654,0.00654,0.0,-9e-05,0.6046,0.6046,0.6046,,0.67,,False,0.0,0.0,0.0,0.0,0.0,-168.8258,178.0028,0.0045,True,False,Mode(963497464),0.2064,23,0.6039
1.238,THRUST_SEARCH,OPEN_LOOP,0.0026,0.00262,0.00742,0.00742,0.0,0.00177,0.6048,0.6048,0.6048,,0.67,,False,0.0,0.0,0.0,0.0,0.0,-168.8258,177.4146,0.007,True,False,Mode(963497464),0.2174,23,0.6039
1.249,THRUST_SEARCH,OPEN_LOOP,0.0031,0.00307,0.00768,0.00768,0.0,0.00356,0.605,0.605,0.605,,0.67,,False,0.0,0.0,0.0,0.0,0.0,-168.8258,176.8447,0.008,True,True,Mode(963497464),0.2284,23,0.6039
1.26,THRUST_SEARCH,OPEN_LOOP,0.0037,0.00374,0.01038,0.01038,0.0,0.00615,0.6052,0.6052,0.6052,,0.67,,False,0.0,0.0,0.0,0.0,0.0,-168.8258,176.026,0.004,True,False,Mode(963497464),0.2393,24,0.605
1.271,THRUST_SEARCH,OPEN_LOOP,0.0044,0.0044,0.01069,0.01069,0.0,0.0086,0.6054,0.6054,0.6054,,0.67,,False,0.0,0.0,0.0,0.0,0.0,-168.8258,175.7876,0.006,True,False,Mode(963497464),0.2503,24,0.605
1.282,THRUST_SEARCH,OPEN_LOOP,0.005,0.00502,0.01065,0.01065,0.0,0.0108,0.6056,0.6056,0.6056,,0.67,,False,0.0,0.0,0.0,0.0,0.0,-168.8258,175.732,0.008,True,False,Mode(963497464),0.2613,24,0.605
1.293,THRUST_SEARCH,OPEN_LOOP,0.0056,0.00563,0.01086,0.01086,0.0,0.01283,0.6059,0.6059,0.6059,,0.67,,False,0.0,0.0,0.0,0.0,0.0,-168.8258,175.7619,0.004,True,False,Mode(963497464),0.2721,24,0.605
1.305,THRUST_SEARCH,OPEN_LOOP,0.0062,0.00622,0.01108,0.01108,0.0,0.01472,0.6061,0.6061,0.6061,,0.67,,False,0.0,0.0,0.0,0.0,0.0,-168.8258,175.5972,0.006,True,True,Mode(963497464),0.2825,24,0.605
1.315,THRUST_SEARCH,OPEN_LOOP,0.0068,0.00676,0.01082,0.01082,0.0,0.0163,0.6063,0.6063,0.6063,,0.67,,False,0.0,0.0,0.0,0.0,0.0,-168.8258,175.1423,0.008,True,False,Mode(963497464),0.2935,25,0.6061
1.326,THRUST_SEARCH,OPEN_LOOP,0.0073,0.00725,0.01054,0.01054,0.0,0.01758,0.6065,0.6065,0.6065,,0.67,,False,0.0,0.0,0.0,0.0,0.0,-168.8258,173.8761,0.001,True,False,Mode(963497464),0.3045,25,0.6061
1.337,THRUST_SEARCH,OPEN_LOOP,0.0077,0.00775,0.011,0.011,0.0,0.01884,0.6067,0.6067,0.6067,,0.67,,False,0.0,0.0,0.0,0.0,0.0,-168.8258,173.3283,0.003,True,False,Mode(963497464),0.3155,25,0.6061
1.347,THRUST_SEARCH,OPEN_LOOP,0.0082,0.00822,0.01116,0.01116,0.0,0.01998,0.6069,0.6069,0.6069,,0.67,,False,0.0,0.0,0.0,0.0,0.0,-168.8258,172.9884,0.0075,True,False,Mode(963497464),0.3259,25,0.6061
1.359,THRUST_SEARCH,OPEN_LOOP,0.0085,0.00851,0.00927,0.00927,0.0,0.02028,0.6072,0.6072,0.6072,,0.67,,False,0.0,0.0,0.0,0.0,0.0,-168.8258,173.129,0.0,True,True,Mode(963497464),0.3369,25,0.6061
1.368,THRUST_SEARCH,OPEN_LOOP,0.0087,0.00871,0.00855,0.00871,0.0,0.02021,0.6074,0.6074,0.6074,,0.67,,False,0.0,0.0,0.0,0.0,0.0,-168.8258,173.288,0.0045,True,False,Mode(963497464),0.3474,26,0.6072
1.379,THRUST_SEARCH,OPEN_LOOP,0.0089,0.00886,0.00814,0.00886,0.0,0.01994,0.6076,0.6076,0.6076,,0.67,,False,0.0,0.0,0.0,0.0,0.0,-168.8258,173.4808,0.0066,True,False,Mode(963497464),0.3579,26,0.6072
1.39,THRUST_SEARCH,OPEN_LOOP,0.009,0.00901,0.00826,0.00901,0.0,0.01965,0.6078,0.6078,0.6078,,0.67,,False,0.0,0.0,0.0,0.0,0.0,-168.8258,173.5478,0.009,True,False,Mode(963497464),0.3689,26,0.6072
1.4,THRUST_SEARCH,OPEN_LOOP,0.0091,0.00909,0.00779,0.00909,0.0,0.01914,0.608,0.608,0.608,,0.67,,False,0.0,0.0,0.0,0.0,0.0,-168.8258,172.8735,0.0015,True,False,Mode(963497464),0.3794,26,0.6072
1.411,THRUST_SEARCH,OPEN_LOOP,0.0091,0.00914,0.00744,0.00914,0.0,0.01849,0.6082,0.6082,0.6082,,0.67,,False,0.0,0.0,0.0,0.0,0.0,-168.8258,172.3137,0.003,True,True,Mode(963497464),0.3903,26,0.6072
1.422,THRUST_SEARCH,OPEN_LOOP,0.0092,0.00919,0.00755,0.00919,0.0,0.01785,0.6084,0.6084,0.6084,,0.67,,False,0.0,0.0,0.0,0.0,0.0,-168.8258,171.8142,0.008,True,False,Mode(963497464),0.4013,27,0.6082
1.433,THRUST_SEARCH,OPEN_LOOP,0.0091,0.00906,0.00569,0.00906,0.0,0.01654,0.6087,0.6087,0.6087,,0.67,,False,0.0,0.0,0.0,0.0,0.0,-168.8258,171.5298,0.001,True,False,Mode(963497464),0.4119,27,0.6082
1.444,THRUST_SEARCH,OPEN_LOOP,0.0089,0.00893,0.00566,0.00893,0.0,0.01528,0.6089,0.6089,0.6089,,0.67,,False,0.0,0.0,0.0,0.0,0.0,-168.8258,171.6563,0.0026,True,False,Mode(963497464),0.4224,27,0.6082
1.454,THRUST_SEARCH,OPEN_LOOP,0.0088,0.0088,0.00559,0.0088,0.0,0.01404,0.6091,0.6091,0.6091,,0.67,,False,0.0,0.0,0.0,0.0,0.0,-168.8258,171.8339,0.005,True,False,Mode(963497464),0.4334,27,0.6082
1.466,THRUST_SEARCH,OPEN_LOOP,0.0087,0.00873,0.00631,0.00873,0.0,0.0131,0.6093,0.6093,0.6093,,0.67,,False,0.0,0.0,0.0,0.0,0.0,-168.8258,171.8081,0.0073,True,True,Mode(963497464),0.4443,27,0.6082
1.476,THRUST_SEARCH,OPEN_LOOP,0.0087,0.00875,0.00746,0.00875,0.0,0.0126,0.6095,0.6095,0.6095,,0.67,,False,0.0,0.0,0.0,0.0,0.0,-168.8258,171.0718,0.003,True,False,Mode(963497464),0.4552,28,0.6093
1.487,THRUST_SEARCH,OPEN_LOOP,0.0088,0.00881,0.00803,0.00881,0.0,0.0123,0.6097,0.6097,0.6097,,0.67,,False,0.0,0.0,0.0,0.0,0.0,-168.8258,170.5607,0.005,True,False,Mode(963497464),0.4662,28,0.6093
1.498,THRUST_SEARCH,OPEN_LOOP,0.009,0.00901,0.00964,0.00964,0.0,0.01254,0.61,0.61,0.61,,0.67,,False,0.0,0.0,0.0,0.0,0.0,-168.8258,170.0289,0.007,True,False,Mode(963497464),0.4771,28,0.6093
1.509,THRUST_SEARCH,OPEN_LOOP,0.0092,0.0092,0.00979,0.00979,0.0,0.01277,0.6102,0.6102,0.6102,,0.67,,False,0.0,0.0,0.0,0.0,0.0,-168.8258,169.6478,0.0093,True,False,Mode(963497464),0.4879,28,0.6093
1.52,THRUST_SEARCH,OPEN_LOOP,0.0094,0.00939,0.00999,0.00999,0.0,0.013,0.6104,0.6104,0.6104,,0.67,,False,0.0,0.0,0.0,0.0,0.0,-168.8258,169.675,0.004,True,True,Mode(963497464),0.4989,28,0.6093
1.531,THRUST_SEARCH,OPEN_LOOP,0.0096,0.00959,0.01013,0.01013,0.0,0.01322,0.6106,0.6106,0.6106,,0.67,,False,0.0,0.0,0.0,0.0,0.0,-168.8258,169.8985,0.0066,True,False,Mode(963497464),0.51,29,0.6104
1.542,THRUST_SEARCH,OPEN_LOOP,0.0097,0.00974,0.0098,0.0098,0.0,0.01324,0.6108,0.6108,0.6108,,0.67,,False,0.0,0.0,0.0,0.0,0.0,-168.8258,169.8784,0.009,True,False,Mode(963497464),0.5209,29,0.6104
1.553,THRUST_SEARCH,OPEN_LOOP,0.0099,0.00987,0.00976,0.00987,0.0,0.01319,0.6111,0.6111,0.6111,,0.67,,False,0.0,0.0,0.0,0.0,0.0,-168.8258,169.0524,0.004,True,False,Mode(963497464),0.5319,29,0.6104
1.563,THRUST_SEARCH,OPEN_LOOP,0.01,0.00997,0.00955,0.00997,0.0,0.01303,0.6113,0.6113,0.6113,,0.67,,False,0.0,0.0,0.0,0.0,0.0,-168.8258,168.3901,0.006,True,False,Mode(963497464),0.5424,29,0.6104
1.575,THRUST_SEARCH,OPEN_LOOP,0.0102,0.01017,0.01075,0.01075,0.0,0.01325,0.6115,0.6115,0.6115,,0.67,,False,0.0,0.0,0.0,0.0,0.0,-168.8258,167.7172,0.008,True,True,Mode(963497464),0.5533,29,0.6104
1.585,THRUST_SEARCH,OPEN_LOOP,0.0103,0.01027,0.00993,0.01027,0.0,0.01312,0.6117,0.6117,0.6117,,0.67,,False,0.0,0.0,0.0,0.0,0.0,-168.8258,166.771,0.0036,True,False,Mode(963497464),0.5635,30,0.6115
1.596,THRUST_SEARCH,OPEN_LOOP,0.0104,0.01037,0.00985,0.01037,0.0,0.01292,0.6119,0.6119,0.6119,,0.67,,False,0.0,0.0,0.0,0.0,0.0,-168.8258,166.6579,0.006,True,False,Mode(963497464),0.5745,30,0.6115
1.607,THRUST_SEARCH,OPEN_LOOP,0.0105,0.01048,0.01011,0.01048,0.0,0.01278,0.6121,0.6121,0.6121,,0.67,,False,0.0,0.0,0.0,0.0,0.0,-168.8258,166.5942,0.008,True,False,Mode(963497464),0.5854,30,0.6115
1.618,THRUST_SEARCH,OPEN_LOOP,0.0107,0.01067,0.01119,0.01119,0.0,0.01299,0.6124,0.6124,0.6124,,0.67,,False,0.0,0.0,0.0,0.0,0.0,-168.8258,166.2757,0.001,True,False,Mode(963497464),0.5964,30,0.6115
1.628,THRUST_SEARCH,OPEN_LOOP,0.0109,0.01088,0.01161,0.01161,0.0,0.01327,0.6126,0.6126,0.6126,,0.67,,False,0.0,0.0,0.0,0.0,0.0,-168.8258,165.8109,0.006,True,True,Mode(963497464),0.6074,30,0.6115
1.639,THRUST_SEARCH,OPEN_LOOP,0.0111,0.01107,0.01155,0.01155,0.0,0.01346,0.6128,0.6128,0.6128,,0.67,,False,0.0,0.0,0.0,0.0,0.0,-168.8258,165.1438,0.008,True,False,Mode(963497464),0.6183,31,0.6126
1.65,THRUST_SEARCH,OPEN_LOOP,0.0114,0.01136,0.0129,0.0129,0.0,0.01406,0.613,0.613,0.613,,0.67,,False,0.0,0.0,0.0,0.0,0.0,-168.8258,163.7046,0.001,True,False,Mode(963497464),0.6293,31,0.6126
1.661,THRUST_SEARCH,OPEN_LOOP,0.0116,0.01165,0.01304,0.01304,0.0,0.0146,0.6132,0.6132,0.6132,,0.67,,False,0.0,0.0,0.0,0.0,0.0,-168.8258,163.2052,0.003,True,False,Mode(963497464),0.6403,31,0.6126
1.672,THRUST_SEARCH,OPEN_LOOP,0.012,0.01195,0.01351,0.01351,0.0,0.01521,0.6134,0.6134,0.6134,,0.67,,False,0.0,0.0,0.0,0.0,0.0,-168.8258,163.0131,0.005,True,False,Mode(963497464),0.6513,31,0.6126
1.684,THRUST_SEARCH,OPEN_LOOP,0.0123,0.01226,0.0137,0.0137,0.0,0.01577,0.6137,0.6137,0.6137,,0.67,,False,0.0,0.0,0.0,0.0,0.0,-168.8258,162.8928,0.0012,True,True,Mode(963497464),0.6624,31,0.6126
1.695,THRUST_SEARCH,OPEN_LOOP,0.0125,0.01247,0.01288,0.01288,0.0,0.01593,0.6139,0.6139,0.6139,,0.67,,False,0.0,0.0,0.0,0.0,0.0,-168.8258,162.7382,0.003,True,False,Mode(963497464),0.6734,32,0.6137
1.705,THRUST_SEARCH,OPEN_LOOP,0.0126,0.01263,0.01253,0.01263,0.0,0.0159,0.6141,0.6141,0.6141,,0.67,,False,0.0,0.0,0.0,0.0,0.0,-168.8258,162.3721,0.0045,True,False,Mode(963497464),0.6839,32,0.6137
1.716,THRUST_SEARCH,OPEN_LOOP,0.0128,0.01275,0.01223,0.01275,0.0,0.01569,0.6143,0.6143,0.6143,,0.67,,False,0.0,0.0,0.0,0.0,0.0,-168.8258,161.3722,0.001,True,False,Mode(963497464),0.6948,32,0.6137
1.727,THRUST_SEARCH,OPEN_LOOP,0.0129,0.01287,0.01229,0.01287,0.0,0.01547,0.6145,0.6145,0.6145,,0.67,,False,0.0,0.0,0.0,0.0,0.0,-168.8258,160.9855,0.002,True,False,Mode(963497464),0.7058,32,0.6137
1.738,THRUST_SEARCH,OPEN_LOOP,0.013,0.01295,0.01199,0.01295,0.0,0.01509,0.6148,0.6148,0.6148,,0.67,,False,0.0,0.0,0.0,0.0,0.0,-168.8258,160.7903,0.007,True,True,Mode(963497464),0.7168,32,0.6137
1.749,THRUST_SEARCH,OPEN_LOOP,0.0129,0.01294,0.01106,0.01294,0.0,0.01435,0.615,0.615,0.615,,0.67,,False,0.0,0.0,0.0,0.0,0.0,-168.8258,160.9563,0.0006,True,False,Mode(963497464),0.7279,33,0.6148
1.76,THRUST_SEARCH,OPEN_LOOP,0.013,0.01304,0.01239,0.01304,0.0,0.0141,0.6152,0.6152,0.6152,,0.67,,False,0.0,0.0,0.0,0.0,0.0,-168.8258,161.2408,0.0031,True,False,Mode(963497464),0.7389,33,0.6148
1.77,THRUST_SEARCH,OPEN_LOOP,0.0131,0.01312,0.01251,0.01312,0.0,0.01386,0.6154,0.6154,0.6154,,0.67,,False,0.0,0.0,0.0,0.0,0.0,-168.8258,161.4277,0.0045,True,False,Mode(963497464),0.7493,33,0.6148
1.781,THRUST_SEARCH,OPEN_LOOP,0.0133,0.01329,0.01353,0.01353,0.0,0.01395,0.6156,0.6156,0.6156,,0.67,,False,0.0,0.0,0.0,0.0,0.0,-168.8258,161.3357,0.0066,True,False,Mode(963497464),0.7599,33,0.6148
1.792,THRUST_SEARCH,OPEN_LOOP,0.0135,0.01355,0.01463,0.01463,0.0,0.01437,0.6158,0.6158,0.6158,,0.67,,False,0.0,0.0,0.0,0.0,0.0,-168.8258,160.9836,0.009,True,True,Mode(963497464),0.7709,33,0.6148
1.802,THRUST_SEARCH,OPEN_LOOP,0.014,0.01399,0.01708,0.01708,0.0,0.01557,0.616,0.616,0.616,,0.67,,False,0.0,0.0,0.0,0.0,0.0,-168.8258,160.0401,0.0045,True,False,Mode(963497464),0.7813,34,0.6158
1.814,THRUST_SEARCH,OPEN_LOOP,0.0145,0.01445,0.01753,0.01753,0.0,0.01677,0.6163,0.6163,0.6163,,0.67,,False,0.0,0.0,0.0,0.0,0.0,-168.8258,159.8071,0.0071,True,False,Mode(963497464),0.7924,34,0.6158
1.824,THRUST_SEARCH,OPEN_LOOP,0.015,0.01497,0.01868,0.01868,0.0,0.01821,0.6165,0.6165,0.6165,,0.67,,False,0.0,0.0,0.0,0.0,0.0,-168.8258,160.0779,0.0005,True,False,Mode(963497464),0.8029,34,0.6158
1.835,THRUST_SEARCH,OPEN_LOOP,0.0155,0.01549,0.01888,0.01888,0.0,0.01952,0.6167,0.6167,0.6167,,0.67,,False,0.0,0.0,0.0,0.0,0.0,-168.8258,160.3845,0.003,True,False,Mode(963497464),0.8139,34,0.6158
1.846,THRUST_SEARCH,OPEN_LOOP,0.016,0.01598,0.01897,0.01897,0.0,0.02068,0.6169,0.6169,0.6169,,0.67,,False,0.0,0.0,0.0,0.0,0.0,-168.8258,160.7961,0.0045,True,True,Mode(963497464),0.8244,34,0.6158
1.856,THRUST_SEARCH,OPEN_LOOP,0.0164,0.01643,0.01882,0.01882,0.0,0.02161,0.6171,0.6171,0.6171,,0.67,,False,0.0,0.0,0.0,0.0,0.0,-168.8258,161.0832,0.007,True,False,Mode(963497464),0.8354,35,0.6169
1.868,THRUST_SEARCH,OPEN_LOOP,0.0168,0.01683,0.01846,0.01846,0.0,0.02225,0.6174,0.6174,0.6174,,0.67,,False,0.0,0.0,0.0,0.0,0.0,-168.8258,160.8639,0.003,True,False,Mode(963497464),0.8468,35,0.6169
1.879,THRUST_SEARCH,OPEN_LOOP,0.0173,0.0173,0.01974,0.01974,0.0,0.0232,0.6176,0.6176,0.6176,,0.67,,False,0.0,0.0,0.0,0.0,0.0,-168.8258,160.395,0.006,True,False,Mode(963497464),0.8578,35,0.6169
1.89,THRUST_SEARCH,OPEN_LOOP,0.0177,0.01768,0.019,0.019,0.0,0.02371,0.6178,0.6178,0.6178,,0.67,,False,0.0,0.0,0.0,0.0,0.0,-168.8258,160.0179,0.007,True,False,Mode(963497464),0.8688,35,0.6169
1.901,THRUST_SEARCH,OPEN_LOOP,0.018,0.01802,0.01897,0.01897,0.0,0.02408,0.618,0.618,0.618,,0.67,,False,0.0,0.0,0.0,0.0,0.0,-168.8258,159.7797,0.009,True,True,Mode(963497464),0.8793,35,0.6169
1.912,THRUST_SEARCH,OPEN_LOOP,0.0183,0.0183,0.01847,0.01847,0.0,0.02415,0.6182,0.6182,0.6182,,0.67,,False,0.0,0.0,0.0,0.0,0.0,-168.8258,159.7601,0.0,True,False,Mode(963497464),0.8902,36,0.618
1.922,THRUST_SEARCH,OPEN_LOOP,0.0185,0.01854,0.01833,0.01854,0.0,0.02406,0.6184,0.6184,0.6184,,0.67,,False,0.0,0.0,0.0,0.0,0.0,-168.8258,159.9129,0.008,True,False,Mode(963497464),0.9012,36,0.618
1.933,THRUST_SEARCH,OPEN_LOOP,0.0186,0.01863,0.01669,0.01863,0.0,0.02331,0.6187,0.6187,0.6187,,0.67,,False,0.0,0.0,0.0,0.0,0.0,-168.8258,160.0593,0.001,True,False,Mode(963497464),0.9122,36,0.618
1.944,THRUST_SEARCH,OPEN_LOOP,0.0186,0.01864,0.01613,0.01864,0.0,0.02232,0.6189,0.6189,0.6189,,0.67,,False,0.0,0.0,0.0,0.0,0.0,-168.8258,159.9154,0.003,True,False,Mode(963497464),0.9232,36,0.618
1.955,THRUST_SEARCH,OPEN_LOOP,0.0187,0.01867,0.01644,0.01867,0.0,0.02146,0.6191,0.6191,0.6191,,0.67,,False,0.0,0.0,0.0,0.0,0.0,-168.8258,159.6215,0.0045,True,True,Mode(963497464),0.9336,36,0.618
1.966,THRUST_SEARCH,OPEN_LOOP,0.0186,0.01856,0.01492,0.01856,0.0,0.02004,0.6193,0.6193,0.6193,,0.67,,False,0.0,0.0,0.0,0.0,0.0,-168.8258,159.2975,0.001,True,False,Mode(963497464),0.9446,37,0.6191
1.977,THRUST_SEARCH,OPEN_LOOP,0.0184,0.0184,0.01439,0.0184,0.0,0.01847,0.6195,0.6195,0.6195,,0.67,,False,0.0,0.0,0.0,0.0,0.0,-168.8258,159.3576,0.003,True,False,Mode(963497464),0.9556,37,0.6191
1.987,THRUST_SEARCH,OPEN_LOOP,0.0182,0.01816,0.01357,0.01816,0.0,0.01668,0.6197,0.6197,0.6197,,0.67,,False,0.0,0.0,0.0,0.0,0.0,-168.8258,159.4792,0.0045,True,False,Mode(963497464),0.9661,37,0.6191
1.998,THRUST_SEARCH,OPEN_LOOP,0.0179,0.01793,0.01354,0.01793,0.0,0.01497,0.62,0.62,0.62,,0.67,,False,0.0,0.0,0.0,0.0,0.0,-168.8258,159.5813,0.007,True,False,Mode(963497464),0.977,37,0.6191
2.009,THRUST_SEARCH,OPEN_LOOP,0.0178,0.01777,0.01423,0.01777,0.0,0.01359,0.6202,0.6202,0.6202,,0.67,,False,0.0,0.0,0.0,0.0,0.0,-168.8258,158.9955,0.003,True,True,Mode(963497464),0.988,37,0.6191
2.02,THRUST_SEARCH,OPEN_LOOP,0.0176,0.0176,0.01423,0.0176,0.0,0.01228,0.6204,0.6204,0.6204,,0.67,,False,0.0,0.0,0.0,0.0,0.0,-168.8258,158.4657,0.005,True,False,Mode(963497464),0.999,38,0.6202
2.031,THRUST_SEARCH,OPEN_LOOP,0.0176,0.01758,0.01599,0.01758,0.0,0.01166,0.6206,0.6206,0.6206,,0.67,,False,0.0,0.0,0.0,0.0,0.0,-168.8258,157.9855,0.007,True,False,Mode(963497464),1.01,38,0.6202
2.042,THRUST_SEARCH,OPEN_LOOP,0.0176,0.01756,0.01601,0.01756,0.0,0.01105,0.6208,0.6208,0.6208,,0.67,,False,0.0,0.0,0.0,0.0,0.0,-168.8258,157.7454,0.003,True,False,Mode(963497464),0.0,38,0.6202
2.053,THRUST_SEARCH,OPEN_LOOP,0.0175,0.01753,0.01593,0.01753,0.0,0.01043,0.6211,0.6211,0.6211,,0.67,,False,0.0,0.0,0.0,0.0,0.0,-168.8258,158.0325,0.005,True,False,Mode(963497464),0.011,38,0.6202
2.065,THRUST_SEARCH,OPEN_LOOP,0.0175,0.01753,0.01622,0.01753,0.0,0.00991,0.6213,0.6213,0.6213,,0.67,,False,0.0,0.0,0.0,0.0,0.0,-168.8258,158.4654,0.0075,True,True,Mode(963497464),0.0225,38,0.6202
2.075,THRUST_SEARCH,OPEN_LOOP,0.0175,0.01752,0.01631,0.01752,0.0,0.00944,0.6215,0.6215,0.6215,,0.67,,False,0.0,0.0,0.0,0.0,0.0,-168.8258,158.9049,0.009,True,False,Mode(963497464),0.0333,39,0.6213
2.086,THRUST_SEARCH,OPEN_LOOP,0.0174,0.01743,0.01533,0.01743,0.0,0.00861,0.6217,0.6217,0.6217,,0.67,,False,0.0,0.0,0.0,0.0,0.0,-168.8258,159.0116,0.005,True,False,Mode(963497464),0.0443,39,0.6213
2.097,THRUST_SEARCH,OPEN_LOOP,0.0173,0.01728,0.0147,0.01728,0.0,0.0076,0.6219,0.6219,0.6219,,0.67,,False,0.0,0.0,0.0,0.0,0.0,-168.8258,158.6462,0.007,True,False,Mode(963497464),0.0553,39,0.6213
2.108,THRUST_SEARCH,OPEN_LOOP,0.0172,0.01719,0.01541,0.01719,0.0,0.0069,0.6222,0.6222,0.6222,,0.67,,False,0.0,0.0,0.0,0.0,0.0,-168.8258,158.0666,0.009,True,False,Mode(963497464),0.0663,39,0.6213
2.119,THRUST_SEARCH,OPEN_LOOP,0.017,0.01704,0.01462,0.01704,0.0,0.00595,0.6224,0.6224,0.6224,,0.67,,False,0.0,0.0,0.0,0.0,0.0,-168.8258,157.1636,0.004,True,True,Mode(963497464),0.0772,39,0.6213
2.13,THRUST_SEARCH,OPEN_LOOP,0.0169,0.01688,0.01452,0.01688,0.0,0.00503,0.6226,0.6226,0.6226,,0.67,,False,0.0,0.0,0.0,0.0,0.0,-168.8258,157.0692,0.0066,True,False,Mode(963497464),0.0879,40,0.6224
2.141,THRUST_SEARCH,OPEN_LOOP,0.0167,0.01666,0.0138,0.01666,0.0,0.00391,0.6228,0.6228,0.6228,,0.67,,False,0.0,0.0,0.0,0.0,0.0,-168.8258,157.2704,0.009,True,False,Mode(963497464),0.0989,40,0.6224
2.152,THRUST_SEARCH,OPEN_LOOP,0.0164,0.01637,0.01287,0.01637,0.0,0.00253,0.623,0.623,0.623,,0.67,,False,0.0,0.0,0.0,0.0,0.0,-168.8258,157.8558,0.004,True,False,Mode(963497464),0.1099,40,0.6224
2.162,THRUST_SEARCH,OPEN_LOOP,0.016,0.01601,0.01194,0.01601,0.0,0.00093,0.6232,0.6232,0.6232,,0.67,,False,0.0,0.0,0.0,0.0,0.0,-168.8258,157.7966,0.006,True,False,Mode(963497464),0.1204,40,0.6224
2.173,THRUST_SEARCH,OPEN_LOOP,0.0156,0.01563,0.0115,0.01563,0.0,-0.00068,0.6235,0.6235,0.6235,,0.67,,False,0.0,0.0,0.0,0.0,0.0,-168.8258,157.552,0.008,True,True,Mode(963497464),0.1313,40,0.6224
2.184,THRUST_SEARCH,OPEN_LOOP,0.0152,0.01521,0.01076,0.01521,0.0,-0.00243,0.6237,0.6237,0.6237,,0.67,,False,0.0,0.0,0.0,0.0,0.0,-168.8258,156.5169,0.0036,True,False,Mode(963497464),0.1424,41,0.6235
2.195,THRUST_SEARCH,OPEN_LOOP,0.0147,0.01466,0.0092,0.01466,0.0,-0.00457,0.6239,0.6239,0.6239,,0.67,,False,0.0,0.0,0.0,0.0,0.0,-168.8258,156.1449,0.006,True,False,Mode(963497464),0.1534,41,0.6235
2.206,THRUST_SEARCH,OPEN_LOOP,0.0141,0.01414,0.00912,0.01414,0.0,-0.00653,0.6241,0.6241,0.6241,,0.67,,False,0.0,0.0,0.0,0.0,0.0,-168.8258,156.0825,0.008,True,False,Mode(963497464),0.1643,41,0.6235
2.217,THRUST_SEARCH,OPEN_LOOP,0.0136,0.01359,0.00854,0.01359,0.0,-0.00851,0.6243,0.6243,0.6243,,0.67,,False,0.0,0.0,0.0,0.0,0.0,-168.8258,156.6128,0.001,True,False,Mode(963497464),0.1753,41,0.6235
2.228,THRUST_SEARCH,OPEN_LOOP,0.0131,0.01312,0.00921,0.01312,0.0,-0.01005,0.6246,0.6246,0.6246,,0.67,,False,0.0,0.0,0.0,0.0,0.0,-168.8258,157.0205,0.003,True,True,Mode(963497464),0.1863,41,0.6235
2.239,THRUST_SEARCH,OPEN_LOOP,0.0128,0.0128,0.01058,0.0128,0.0,-0.01092,0.6248,0.6248,0.6248,,0.67,,False,0.0,0.0,0.0,0.0,0.0,-168.8258,157.5568,0.008,True,False,Mode(963497464),0.1973,42,0.6246
2.251,THRUST_SEARCH,OPEN_LOOP,0.0126,0.01264,0.01225,0.01264,0.0,-0.01108,0.625,0.625,0.625,,0.67,,False,0.0,0.0,0.0,0.0,0.0,-168.8258,158.3347,0.001,True,False,Mode(963497464),0.2085,42,0.6246
2.261,THRUST_SEARCH,OPEN_LOOP,0.0126,0.01261,0.01361,0.01361,0.0,-0.01068,0.6252,0.6252,0.6252,,0.67,,False,0.0,0.0,0.0,0.0,0.0,-168.8258,158.5188,0.003,True,False,Mode(963497464),0.2195,42,0.6246
2.272,THRUST_SEARCH,OPEN_LOOP,0.0126,0.0126,0.01366,0.01366,0.0,-0.01027,0.6254,0.6254,0.6254,,0.67,,False,0.0,0.0,0.0,0.0,0.0,-168.8258,158.5887,0.0075,True,False,Mode(963497464),0.23,42,0.6246
2.283,THRUST_SEARCH,OPEN_LOOP,0.0126,0.01264,0.01427,0.01427,0.0,-0.00963,0.6257,0.6257,0.6257,,0.67,,False,0.0,0.0,0.0,0.0,0.0,-168.8258,158.5697,0.001,True,True,Mode(963497464),0.2409,42,0.6246
2.294,THRUST_SEARCH,OPEN_LOOP,0.0128,0.01276,0.01514,0.01514,0.0,-0.0087,0.6259,0.6259,0.6259,,0.67,,False,0.0,0.0,0.0,0.0,0.0,-168.8258,158.5455,0.003,True,False,Mode(963497464),0.2519,43,0.6257
2.305,THRUST_SEARCH,OPEN_LOOP,0.0129,0.01289,0.01518,0.01518,0.0,-0.0078,0.6261,0.6261,0.6261,,0.67,,False,0.0,0.0,0.0,0.0,0.0,-168.8258,158.5675,0.003,True,False,Mode(963497464),0.2629,43,0.6257
2.316,THRUST_SEARCH,OPEN_LOOP,0.013,0.01304,0.0156,0.0156,0.0,-0.0068,0.6263,0.6263,0.6263,,0.67,,False,0.0,0.0,0.0,0.0,0.0,-168.8258,158.6867,0.008,True,False,Mode(963497464),0.2738,43,0.6257
2.327,THRUST_SEARCH,OPEN_LOOP,0.0132,0.01325,0.0162,0.0162,0.0,-0.00564,0.6265,0.6265,0.6265,,0.67,,False,0.0,0.0,0.0,0.0,0.0,-168.8258,158.6593,0.004,True,False,Mode(963497464),0.2845,43,0.6257
2.338,THRUST_SEARCH,OPEN_LOOP,0.0135,0.01349,0.01672,0.01672,0.0,-0.00438,0.6267,0.6267,0.6267,,0.67,,False,0.0,0.0,0.0,0.0,0.0,-168.8258,158.4188,0.006,True,True,Mode(963497464),0.2954,43,0.6257
2.348,THRUST_SEARCH,OPEN_LOOP,0.0137,0.01372,0.01668,0.01668,0.0,-0.00322,0.627,0.627,0.627,,0.67,,False,0.0,0.0,0.0,0.0,0.0,-168.8258,158.0286,0.008,True,False,Mode(963497464),0.3064,44,0.6267
2.359,THRUST_SEARCH,OPEN_LOOP,0.0139,0.01386,0.01562,0.01562,0.0,-0.00253,0.6272,0.6272,0.6272,,0.67,,False,0.0,0.0,0.0,0.0,0.0,-168.8258,157.163,0.0007,True,False,Mode(963497464),0.3171,44,0.6267
2.37,THRUST_SEARCH,OPEN_LOOP,0.014,0.01398,0.01561,0.01561,0.0,-0.00189,0.6274,0.6274,0.6274,,0.67,,False,0.0,0.0,0.0,0.0,0.0,-168.8258,156.7771,0.006,True,False,Mode(963497464),0.328,44,0.6267
2.381,THRUST_SEARCH,OPEN_LOOP,0.0141,0.01408,0.01531,0.01531,0.0,-0.00141,0.6276,0.6276,0.6276,,0.67,,False,0.0,0.0,0.0,0.0,0.0,-168.8258,156.4521,0.008,True,False,Mode(963497464),0.339,44,0.6267
2.392,THRUST_SEARCH,OPEN_LOOP,0.0141,0.01406,0.01408,0.01408,0.0,-0.0014,0.6278,0.6278,0.6278,,0.67,,False,0.0,0.0,0.0,0.0,0.0,-168.8258,155.9011,0.001,True,True,Mode(963497464),0.35,44,0.6267
2.403,THRUST_SEARCH,OPEN_LOOP,0.014,0.01404,0.01391,0.01404,0.0,-0.00145,0.6281,0.6281,0.6281,,0.67,,False,0.0,0.0,0.0,0.0,0.0,-168.8258,155.7125,0.003,True,False,Mode(963497464),0.3609,45,0.6278
2.413,THRUST_SEARCH,OPEN_LOOP,0.014,0.01402,0.01397,0.01402,0.0,-0.00147,0.6283,0.6283,0.6283,,0.67,,False,0.0,0.0,0.0,0.0,0.0,-168.8258,155.5309,0.0075,True,False,Mode(963497464),0.3714,45,0.6278
2.424,THRUST_SEARCH,OPEN_LOOP,0.0138,0.01384,0.01212,0.01384,0.0,-0.00214,0.6285,0.6285,0.6285,,0.67,,False,0.0,0.0,0.0,0.0,0.0,-168.8258,155.411,0.001,True,False,Mode(963497464),0.3824,45,0.6278
2.435,THRUST_SEARCH,OPEN_LOOP,0.0136,0.01359,0.01126,0.01359,0.0,-0.00306,0.6287,0.6287,0.6287,,0.67,,False,0.0,0.0,0.0,0.0,0.0,-168.8258,155.5136,0.003,True,False,Mode(963497464),0.3934,45,0.6278
2.446,THRUST_SEARCH,OPEN_LOOP,0.0133,0.01333,0.01081,0.01333,0.0,-0.00404,0.6289,0.6289,0.6289,,0.67,,False,0.0,0.0,0.0,0.0,0.0,-168.8258,155.6689,0.0045,True,True,Mode(963497464),0.4038,45,0.6278
2.457,THRUST_SEARCH,OPEN_LOOP,0.0129,0.01287,0.00852,0.01287,0.0,-0.00573,0.6291,0.6291,0.6291,,0.67,,False,0.0,0.0,0.0,0.0,0.0,-168.8258,155.753,0.001,True,False,Mode(963497464),0.4148,46,0.6289
2.468,THRUST_SEARCH,OPEN_LOOP,0.0124,0.01239,0.0079,0.01239,0.0,-0.00748,0.6294,0.6294,0.6294,,0.67,,False,0.0,0.0,0.0,0.0,0.0,-168.8258,155.7149,0.003,True,False,Mode(963497464),0.4258,46,0.6289
2.479,THRUST_SEARCH,OPEN_LOOP,0.0118,0.0118,0.00646,0.0118,0.0,-0.00957,0.6296,0.6296,0.6296,,0.67,,False,0.0,0.0,0.0,0.0,0.0,-168.8258,155.6097,0.005,True,False,Mode(963497464),0.4368,46,0.6289
2.489,THRUST_SEARCH,OPEN_LOOP,0.0112,0.0112,0.00588,0.0112,0.0,-0.01164,0.6298,0.6298,0.6298,,0.67,,False,0.0,0.0,0.0,0.0,0.0,-168.8258,155.6023,0.007,True,False,Mode(963497464),0.4473,46,0.6289
2.501,THRUST_SEARCH,OPEN_LOOP,0.0105,0.01049,0.00431,0.01049,0.0,-0.01405,0.63,0.63,0.63,,0.67,,False,0.0,0.0,0.0,0.0,0.0,-168.8258,155.7094,0.0,True,True,Mode(963497464),0.4583,46,0.6289
2.511,THRUST_SEARCH,OPEN_LOOP,0.0098,0.00979,0.00389,0.00979,0.0,-0.01634,0.6302,0.6302,0.6302,,0.67,,False,0.0,0.0,0.0,0.0,0.0,-168.8258,155.6517,0.0014,True,False,Mode(963497464),0.4687,47,0.63
2.522,THRUST_SEARCH,OPEN_LOOP,0.0092,0.00916,0.00433,0.00916,0.0,-0.01821,0.6304,0.6304,0.6304,,0.67,,False,0.0,0.0,0.0,0.0,0.0,-168.8258,155.3677,0.006,True,False,Mode(963497464),0.4796,47,0.63
2.533,THRUST_SEARCH,OPEN_LOOP,0.0086,0.00859,0.00463,0.00859,0.0,-0.01975,0.6307,0.6307,0.6307,,0.67,,False,0.0,0.0,0.0,0.0,0.0,-168.8258,154.9164,0.008,True,False,Mode(963497464),0.4906,47,0.63
2.544,THRUST_SEARCH,OPEN_LOOP,0.0082,0.00816,0.00591,0.00816,0.0,-0.02063,0.6309,0.6309,0.6309,,0.67,,False,0.0,0.0,0.0,0.0,0.0,-168.8258,154.0603,0.004,True,False,Mode(963497464),0.5016,47,0.63
2.555,THRUST_SEARCH,OPEN_LOOP,0.0078,0.00785,0.00692,0.00785,0.0,-0.02099,0.6311,0.6311,0.6311,,0.67,,False,0.0,0.0,0.0,0.0,0.0,-168.8258,153.7046,0.006,True,True,Mode(963497464),0.5125,47,0.63
2.566,THRUST_SEARCH,OPEN_LOOP,0.0076,0.00764,0.00786,0.00786,0.0,-0.0209,0.6313,0.6313,0.6313,,0.67,,False,0.0,0.0,0.0,0.0,0.0,-168.8258,153.5306,0.008,True,False,Mode(963497464),0.5235,48,0.6311
2.576,THRUST_SEARCH,OPEN_LOOP,0.0075,0.00748,0.00828,0.00828,0.0,-0.02059,0.6315,0.6315,0.6315,,0.67,,False,0.0,0.0,0.0,0.0,0.0,-168.8258,153.4693,0.0036,True,False,Mode(963497464),0.5343,48,0.6311
2.587,THRUST_SEARCH,OPEN_LOOP,0.0073,0.00734,0.00821,0.00821,0.0,-0.02025,0.6317,0.6317,0.6317,,0.67,,False,0.0,0.0,0.0,0.0,0.0,-168.8258,153.4456,0.006,True,False,Mode(963497464),0.5453,48,0.6311
2.598,THRUST_SEARCH,OPEN_LOOP,0.0072,0.00718,0.00786,0.00786,0.0,-0.01999,0.632,0.632,0.632,,0.67,,False,0.0,0.0,0.0,0.0,0.0,-168.8258,153.2378,0.008,True,False,Mode(963497464),0.5563,48,0.6311
2.609,THRUST_SEARCH,OPEN_LOOP,0.0071,0.00706,0.00801,0.00801,0.0,-0.01962,0.6322,0.6322,0.6322,,0.67,,False,0.0,0.0,0.0,0.0,0.0,-168.8258,152.3748,0.0006,True,True,Mode(963497464),0.5668,48,0.6311
2.62,THRUST_SEARCH,OPEN_LOOP,0.007,0.00702,0.00889,0.00889,0.0,-0.01889,0.6324,0.6324,0.6324,,0.67,,False,0.0,0.0,0.0,0.0,0.0,-168.8258,151.8147,0.003,True,False,Mode(963497464),0.5778,49,0.6322
2.63,THRUST_SEARCH,OPEN_LOOP,0.007,0.00701,0.00902,0.00902,0.0,-0.01811,0.6326,0.6326,0.6326,,0.67,,False,0.0,0.0,0.0,0.0,0.0,-168.8258,151.3408,0.0075,True,False,Mode(963497464),0.5883,49,0.6322
2.641,THRUST_SEARCH,OPEN_LOOP,0.007,0.007,0.00898,0.00898,0.0,-0.01734,0.6328,0.6328,0.6328,,0.67,,False,0.0,0.0,0.0,0.0,0.0,-168.8258,150.9643,0.001,True,False,Mode(963497464),0.5993,49,0.6322
2.652,THRUST_SEARCH,OPEN_LOOP,0.0071,0.00707,0.00988,0.00988,0.0,-0.01624,0.633,0.633,0.633,,0.67,,False,0.0,0.0,0.0,0.0,0.0,-168.8258,151.0895,0.003,True,False,Mode(963497464),0.6102,49,0.6322
2.663,THRUST_SEARCH,OPEN_LOOP,0.0071,0.00708,0.009,0.009,0.0,-0.0155,0.6333,0.6333,0.6333,,0.67,,False,0.0,0.0,0.0,0.0,0.0,-168.8258,151.2841,0.0045,True,True,Mode(963497464),0.6207,49,0.6322
2.674,THRUST_SEARCH,OPEN_LOOP,0.0071,0.00713,0.00946,0.00946,0.0,-0.0146,0.6335,0.6335,0.6335,,0.67,,False,0.0,0.0,0.0,0.0,0.0,-168.8258,151.3766,0.001,True,False,Mode(963497464),0.6317,50,0.6333
2.685,THRUST_SEARCH,OPEN_LOOP,0.0071,0.00711,0.0086,0.0086,0.0,-0.01402,0.6337,0.6337,0.6337,,0.67,,False,0.0,0.0,0.0,0.0,0.0,-168.8258,151.2309,0.003,True,False,Mode(963497464),0.6426,50,0.6333
2.696,THRUST_SEARCH,OPEN_LOOP,0.0073,0.00727,0.01064,0.01064,0.0,-0.01271,0.6339,0.6339,0.6339,,0.67,,False,0.0,0.0,0.0,0.0,0.0,-168.8258,150.9855,0.005,True,False,Mode(963497464),0.6536,50,0.6333
2.707,THRUST_SEARCH,OPEN_LOOP,0.0074,0.00737,0.00986,0.00986,0.0,-0.01174,0.6341,0.6341,0.6341,,0.67,,False,0.0,0.0,0.0,0.0,0.0,-168.8258,150.6835,0.007,True,False,Mode(963497464),0.6646,50,0.6333
2.718,THRUST_SEARCH,OPEN_LOOP,0.0075,0.00754,0.01075,0.01075,0.0,-0.01048,0.6344,0.6344,0.6344,,0.67,,False,0.0,0.0,0.0,0.0,0.0,-168.8258,150.2262,0.003,True,True,Mode(963497464),0.6756,50,0.6333
2.728,THRUST_SEARCH,OPEN_LOOP,0.0077,0.0077,0.01056,0.01056,0.0,-0.00937,0.6346,0.6346,0.6346,,0.67,,False,0.0,0.0,0.0,0.0,0.0,-168.8258,150.167,0.0045,True,False,Mode(963497464),0.686,51,0.6344
2.739,THRUST_SEARCH,OPEN_LOOP,0.0079,0.00786,0.01064,0.01064,0.0,-0.00829,0.6348,0.6348,0.6348,,0.67,,False,0.0,0.0,0.0,0.0,0.0,-168.8258,150.11,0.007,True,False,Mode(963497464),0.697,51,0.6344
2.75,THRUST_SEARCH,OPEN_LOOP,0.008,0.00799,0.01032,0.01032,0.0,-0.00738,0.635,0.635,0.635,,0.67,,False,0.0,0.0,0.0,0.0,0.0,-168.8258,149.805,0.001,True,False,Mode(963497464),0.708,51,0.6344
2.761,THRUST_SEARCH,OPEN_LOOP,0.008,0.00799,0.00886,0.00886,0.0,-0.00704,0.6352,0.6352,0.6352,,0.67,,False,0.0,0.0,0.0,0.0,0.0,-168.8258,149.5322,0.002,True,False,Mode(963497464),0.719,51,0.6344
2.772,THRUST_SEARCH,OPEN_LOOP,0.0081,0.00808,0.00978,0.00978,0.0,-0.00638,0.6354,0.6354,0.6354,,0.67,,False,0.0,0.0,0.0,0.0,0.0,-168.8258,149.1926,0.007,True,True,Mode(963497464),0.7295,51,0.6344
2.783,THRUST_SEARCH,OPEN_LOOP,0.0082,0.00818,0.01006,0.01006,0.0,-0.00564,0.6357,0.6357,0.6357,,0.67,,False,0.0,0.0,0.0,0.0,0.0,-168.8258,148.504,0.001,True,False,Mode(963497464),0.741,52,0.6354
2.794,THRUST_SEARCH,OPEN_LOOP,0.0083,0.00827,0.00984,0.00984,0.0,-0.00503,0.6359,0.6359,0.6359,,0.67,,False,0.0,0.0,0.0,0.0,0.0,-168.8258,148.2854,0.003,True,False,Mode(963497464),0.7515,52,0.6354
2.804,THRUST_SEARCH,OPEN_LOOP,0.0083,0.0083,0.00921,0.00921,0.0,-0.00468,0.6361,0.6361,0.6361,,0.67,,False,0.0,0.0,0.0,0.0,0.0,-168.8258,148.1774,0.0045,True,False,Mode(963497464),0.762,52,0.6354
2.815,THRUST_SEARCH,OPEN_LOOP,0.0084,0.00836,0.00952,0.00952,0.0,-0.00423,0.6363,0.6363,0.6363,,0.67,,False,0.0,0.0,0.0,0.0,0.0,-168.8258,148.0931,0.007,True,False,Mode(963497464),0.7729,52,0.6354
2.826,THRUST_SEARCH,OPEN_LOOP,0.0083,0.00834,0.0086,0.0086,0.0,-0.00413,0.6365,0.6365,0.6365,,0.67,,False,0.0,0.0,0.0,0.0,0.0,-168.8258,147.8847,0.0031,True,True,Mode(963497464),0.784,52,0.6354
2.837,THRUST_SEARCH,OPEN_LOOP,0.0083,0.00832,0.00857,0.00857,0.0,-0.00403,0.6367,0.6367,0.6367,,0.67,,False,0.0,0.0,0.0,0.0,0.0,-168.8258,147.7498,0.005,True,False,Mode(963497464),0.7949,53,0.6365
2.848,THRUST_SEARCH,OPEN_LOOP,0.0085,0.00847,0.01052,0.01052,0.0,-0.00323,0.637,0.637,0.637,,0.67,,False,0.0,0.0,0.0,0.0,0.0,-168.8258,147.585,0.006,True,False,Mode(963497464),0.8053,53,0.6365
2.858,THRUST_SEARCH,OPEN_LOOP,0.0085,0.00848,0.00894,0.00894,0.0,-0.00305,0.6372,0.6372,0.6372,,0.67,,False,0.0,0.0,0.0,0.0,0.0,-168.8258,147.1554,0.0015,True,False,Mode(963497464),0.8158,53,0.6365
2.869,THRUST_SEARCH,OPEN_LOOP,0.0085,0.00853,0.00947,0.00947,0.0,-0.00269,0.6374,0.6374,0.6374,,0.67,,False,0.0,0.0,0.0,0.0,0.0,-168.8258,146.9068,0.004,True,False,Mode(963497464),0.8268,53,0.6365
2.88,THRUST_SEARCH,OPEN_LOOP,0.0086,0.00855,0.00912,0.00912,0.0,-0.00246,0.6376,0.6376,0.6376,,0.67,,False,0.0,0.0,0.0,0.0,0.0,-168.8258,146.6584,0.0066,True,True,Mode(963497464),0.8378,53,0.6365
2.891,THRUST_SEARCH,OPEN_LOOP,0.0086,0.00859,0.00929,0.00929,0.0,-0.00219,0.6378,0.6378,0.6378,,0.67,,False,0.0,0.0,0.0,0.0,0.0,-168.8258,146.5005,0.009,True,False,Mode(963497464),0.8488,54,0.6376
2.902,THRUST_SEARCH,OPEN_LOOP,0.0086,0.00858,0.00872,0.00872,0.0,-0.00214,0.638,0.638,0.638,,0.67,,False,0.0,0.0,0.0,0.0,0.0,-168.8258,146.2294,0.0042,True,False,Mode(963497464),0.86,54,0.6376
2.913,THRUST_SEARCH,OPEN_LOOP,0.0086,0.00857,0.00866,0.00866,0.0,-0.0021,0.6383,0.6383,0.6383,,0.67,,False,0.0,0.0,0.0,0.0,0.0,-168.8258,146.0856,0.007,True,False,Mode(963497464),0.871,54,0.6376
2.924,THRUST_SEARCH,OPEN_LOOP,0.0086,0.00865,0.00974,0.00974,0.0,-0.00168,0.6385,0.6385,0.6385,,0.67,,False,0.0,0.0,0.0,0.0,0.0,-168.8258,145.9024,0.009,True,False,Mode(963497464),0.8819,54,0.6376
2.936,THRUST_SEARCH,OPEN_LOOP,0.0087,0.00873,0.00983,0.00983,0.0,-0.00124,0.6387,0.6387,0.6387,,0.67,,False,0.0,0.0,0.0,0.0,0.0,-168.8258,145.7227,0.0108,True,True,Mode(963497464),0.8937,54,0.6376
2.947,THRUST_SEARCH,OPEN_LOOP,0.0088,0.00882,0.00986,0.00986,0.0,-0.00083,0.6389,0.6389,0.6389,,0.67,,False,0.0,0.0,0.0,0.0,0.0,-168.8258,145.4484,0.006,True,False,Mode(963497464),0.9047,55,0.6387
2.958,THRUST_SEARCH,OPEN_LOOP,0.0089,0.00886,0.00937,0.00937,0.0,-0.00063,0.6392,0.6392,0.6392,,0.67,,False,0.0,0.0,0.0,0.0,0.0,-168.8258,145.334,0.008,True,False,Mode(963497464),0.9156,55,0.6387
2.969,THRUST_SEARCH,OPEN_LOOP,0.0088,0.00884,0.00872,0.00884,0.0,-0.00068,0.6394,0.6394,0.6394,,0.67,,False,0.0,0.0,0.0,0.0,0.0,-168.8258,145.1473,0.001,True,False,Mode(963497464),0.0,55,0.6387
2.979,THRUST_SEARCH,OPEN_LOOP,0.0088,0.00878,0.00822,0.00878,0.0,-0.0009,0.6396,0.6396,0.6396,,0.67,,False,0.0,0.0,0.0,0.0,0.0,-168.8258,144.785,0.006,True,False,Mode(963497464),0.0105,55,0.6387
2.99,THRUST_SEARCH,OPEN_LOOP,0.0087,0.00874,0.00842,0.00874,0.0,-0.00102,0.6398,0.6398,0.6398,,0.67,,False,0.0,0.0,0.0,0.0,0.0,-168.8258,144.3798,0.008,True,True,Mode(963497464),0.0215,55,0.6387
3.001,THRUST_SEARCH,OPEN_LOOP,0.0087,0.00872,0.00867,0.00872,0.0,-0.00104,0.64,0.64,0.64,,0.67,,False,0.0,0.0,0.0,0.0,0.0,-168.8258,143.7571,0.001,True,False,Mode(963497464),0.0324,56,0.6398
3.012,THRUST_SEARCH,OPEN_LOOP,0.0088,0.00877,0.0094,0.0094,0.0,-0.00079,0.6402,0.6402,0.6402,,0.67,,False,0.0,0.0,0.0,0.0,0.0,-168.8258,143.626,0.006,True,False,Mode(963497464),0.0434,56,0.6398
3.023,THRUST_SEARCH,OPEN_LOOP,0.0087,0.00874,0.00855,0.00874,0.0,-0.00087,0.6405,0.6405,0.6405,,0.67,,False,0.0,0.0,0.0,0.0,0.0,-168.8258,143.6556,0.008,True,False,Mode(963497464),0.0544,56,0.6398
3.034,THRUST_SEARCH,OPEN_LOOP,0.0087,0.00867,0.008,0.00867,0.0,-0.00113,0.6407,0.6407,0.6407,,0.67,,False,0.0,0.0,0.0,0.0,0.0,-168.8258,143.7393,0.0006,True,False,Mode(963497464),0.0651,56,0.6398
3.045,THRUST_SEARCH,OPEN_LOOP,0.0085,0.00854,0.00724,0.00854,0.0,-0.00164,0.6409,0.6409,0.6409,,0.67,,False,0.0,0.0,0.0,0.0,0.0,-168.8258,143.8722,0.003,True,True,Mode(963497464),0.0761,56,0.6398
3.056,THRUST_SEARCH,OPEN_LOOP,0.0083,0.00833,0.00639,0.00833,0.0,-0.0024,0.6411,0.6411,0.6411,,0.67,,False,0.0,0.0,0.0,0.0,0.0,-168.8258,143.9196,0.008,True,False,Mode(963497464),0.0871,57,0.6409
3.066,THRUST_SEARCH,OPEN_LOOP,0.0082,0.0082,0.00706,0.0082,0.0,-0.00285,0.6413,0.6413,0.6413,,0.67,,False,0.0,0.0,0.0,0.0,0.0,-168.8258,143.8616,0.001,True,False,Mode(963497464),0.0976,57,0.6409
3.077,THRUST_SEARCH,OPEN_LOOP,0.0081,0.00807,0.00698,0.00807,0.0,-0.00327,0.6415,0.6415,0.6415,,0.67,,False,0.0,0.0,0.0,0.0,0.0,-168.8258,143.9246,0.0031,True,False,Mode(963497464),0.1087,57,0.6409
3.088,THRUST_SEARCH,OPEN_LOOP,0.008,0.00795,0.00713,0.00795,0.0,-0.00359,0.6418,0.6418,0.6418,,0.67,,False,0.0,0.0,0.0,0.0,0.0,-168.8258,143.9769,0.0045,True,False,Mode(963497464),0.1191,57,0.6409
3.099,THRUST_SEARCH,OPEN_LOOP,0.0078,0.00783,0.0069,0.00783,0.0,-0.00396,0.642,0.642,0.642,,0.67,,False,0.0,0.0,0.0,0.0,0.0,-168.8258,143.9441,0.001,True,True,Mode(963497464),0.1301,57,0.6409
3.11,THRUST_SEARCH,OPEN_LOOP,0.0077,0.00772,0.00705,0.00772,0.0,-0.00422,0.6422,0.6422,0.6422,,0.67,,False,0.0,0.0,0.0,0.0,0.0,-168.8258,143.7781,0.003,True,False,Mode(963497464),0.141,58,0.642
3.121,THRUST_SEARCH,OPEN_LOOP,0.0076,0.00757,0.00644,0.00757,0.0,-0.00466,0.6424,0.6424,0.6424,,0.67,,False,0.0,0.0,0.0,0.0,0.0,-168.8258,143.6217,0.005,True,False,Mode(963497464),0.152,58,0.642
3.132,THRUST_SEARCH,OPEN_LOOP,0.0073,0.00735,0.00557,0.00735,0.0,-0.00536,0.6426,0.6426,0.6426,,0.67,,False,0.0,0.0,0.0,0.0,0.0,-168.8258,143.4136,0.0077,True,False,Mode(963497464),0.1634,58,0.642
3.143,THRUST_SEARCH,OPEN_LOOP,0.0072,0.0072,0.00631,0.0072,0.0,-0.00571,0.6429,0.6429,0.6429,,0.67,,False,0.0,0.0,0.0,0.0,0.0,-168.8258,142.8363,0.001,True,False,Mode(963497464),0.1744,58,0.642
3.154,THRUST_SEARCH,OPEN_LOOP,0.007,0.00702,0.00581,0.00702,0.0,-0.00619,0.6431,0.6431,0.6431,,0.67,,False,0.0,0.0,0.0,0.0,0.0,-168.8258,142.5462,0.006,True,True,Mode(963497464),0.1853,58,0.642
3.165,THRUST_SEARCH,OPEN_LOOP,0.0069,0.00687,0.00591,0.00687,0.0,-0.00656,0.6433,0.6433,0.6433,,0.67,,False,0.0,0.0,0.0,0.0,0.0,-168.8258,142.3187,0.007,True,False,Mode(963497464),0.1963,59,0.6431
3.177,THRUST_SEARCH,OPEN_LOOP,0.0066,0.0066,0.00469,0.0066,0.0,-0.00732,0.6435,0.6435,0.6435,,0.67,,False,0.0,0.0,0.0,0.0,0.0,-168.8258,142.0153,0.0014,True,False,Mode(963497464),0.2082,59,0.6431
3.188,THRUST_SEARCH,OPEN_LOOP,0.0063,0.00633,0.00431,0.00633,0.0,-0.00812,0.6438,0.6438,0.6438,,0.67,,False,0.0,0.0,0.0,0.0,0.0,-168.8258,141.8874,0.006,True,False,Mode(963497464),0.2191,59,0.6431
3.198,THRUST_SEARCH,OPEN_LOOP,0.006,0.00599,0.00326,0.00599,0.0,-0.0092,0.644,0.644,0.644,,0.67,,False,0.0,0.0,0.0,0.0,0.0,-168.8258,141.7011,0.0075,True,False,Mode(963497464),0.2296,59,0.6431
3.209,THRUST_SEARCH,OPEN_LOOP,0.0056,0.00564,0.00307,0.00564,0.0,-0.01021,0.6442,0.6442,0.6442,,0.67,,False,0.0,0.0,0.0,0.0,0.0,-168.8258,141.0754,0.001,True,True,Mode(963497464),0.2406,59,0.6431
3.22,THRUST_SEARCH,OPEN_LOOP,0.0054,0.00538,0.00379,0.00538,0.0,-0.01084,0.6444,0.6444,0.6444,,0.67,,False,0.0,0.0,0.0,0.0,0.0,-168.8258,140.7814,0.003,True,False,Mode(963497464),0.2516,60,0.6442
3.231,THRUST_SEARCH,OPEN_LOOP,0.0051,0.00514,0.00385,0.00514,0.0,-0.01135,0.6446,0.6446,0.6446,,0.67,,False,0.0,0.0,0.0,0.0,0.0,-168.8258,140.5771,0.008,True,False,Mode(963497464),0.2625,60,0.6442
3.242,THRUST_SEARCH,OPEN_LOOP,0.0049,0.00491,0.00383,0.00491,0.0,-0.01177,0.6448,0.6448,0.6448,,0.67,,False,0.0,0.0,0.0,0.0,0.0,-168.8258,140.524,0.001,True,False,Mode(963497464),0.2731,60,0.6442
3.253,THRUST_SEARCH,OPEN_LOOP,0.0047,0.00474,0.00431,0.00474,0.0,-0.01194,0.6451,0.6451,0.6451,,0.67,,False,0.0,0.0,0.0,0.0,0.0,-168.8258,140.5032,0.003,True,False,Mode(963497464),0.2841,60,0.6442
3.263,THRUST_SEARCH,OPEN_LOOP,0.0045,0.00454,0.00376,0.00454,0.0,-0.01225,0.6453,0.6453,0.6453,,0.67,,False,0.0,0.0,0.0,0.0,0.0,-168.8258,140.3954,0.0075,True,True,Mode(963497464),0.2946,60,0.6442
3.274,THRUST_SEARCH,OPEN_LOOP,0.0044,0.0044,0.0043,0.0044,0.0,-0.01229,0.6455,0.6455,0.6455,,0.67,,False,0.0,0.0,0.0,0.0,0.0,-168.8258,140.0801,0.001,True,False,Mode(963497464),0.3055,61,0.6453
3.285,THRUST_SEARCH,OPEN_LOOP,0.0044,0.00435,0.00527,0.00527,0.0,-0.01193,0.6457,0.6457,0.6457,,0.67,,False,0.0,0.0,0.0,0.0,0.0,-168.8258,139.9142,0.003,True,False,Mode(963497464),0.3165,61,0.6453
3.296,THRUST_SEARCH,OPEN_LOOP,0.0043,0.0043,0.00512,0.00512,0.0,-0.01161,0.6459,0.6459,0.6459,,0.67,,False,0.0,0.0,0.0,0.0,0.0,-168.8258,139.8746,0.0045,True,False,Mode(963497464),0.327,61,0.6453
