time,state,controller_mode,target_z,curr_z,raw_z,height_for_safety,target_vz,curr_vz,thrust,raw_thrust,search_thrust,liftoff_thrust,hover_thrust_est,thrust_no_floor,floor_applied,a_cmd_z,v_cmd_z,z_integral,roll_cmd_deg,pitch_cmd_deg,yaw_cmd_deg,yaw_mocap_deg,mocap_age,kf_used_measurement,mavlink_sent,mav_mode,mav_heartbeat_age,mav_send_count,mav_last_thrust
0.002,THRUST_SEARCH,OPEN_LOOP,-0.0001,-0.00014,-0.00017,-0.00014,0.0,-1e-05,0.58,0.58,0.58,,0.67,,False,0.0,0.0,0.0,0.0,0.0,3.0429,3.0429,0.002,True,True,Mode(963497464),0.001,0,
0.012,THRUST_SEARCH,OPEN_LOOP,-0.0002,-0.00021,-0.0003,-0.00021,0.0,-0.00027,0.5802,0.5802,0.5802,,0.67,,False,0.0,0.0,0.0,0.0,0.0,3.0429,3.0356,0.004,True,False,Mode(963497464),0.012,1,0.58
0.023,THRUST_SEARCH,OPEN_LOOP,-0.0002,-0.00023,-0.00027,-0.00023,0.0,-0.00043,0.5805,0.5805,0.5805,,0.67,,False,0.0,0.0,0.0,0.0,0.0,3.0429,3.0337,0.006,True,False,Mode(963497464),0.0229,1,0.58
0.033,THRUST_SEARCH,OPEN_LOOP,-0.0002,-0.00025,-0.00026,-0.00025,0.0,-0.0005,0.5807,0.5807,0.5807,,0.67,,False,0.0,0.0,0.0,0.0,0.0,3.0429,3.0437,0.0075,True,False,Mode(963497464),0.0334,1,0.58
0.044,THRUST_SEARCH,OPEN_LOOP,-0.0003,-0.00026,-0.00027,-0.00026,0.0,-0.00057,0.5809,0.5809,0.5809,,0.67,,False,0.0,0.0,0.0,0.0,0.0,3.0429,3.0423,0.001,True,False,Mode(963497464),0.0439,1,0.58
0.055,THRUST_SEARCH,OPEN_LOOP,-0.0002,-0.00024,-0.00018,-0.00018,0.0,-0.00022,0.5811,0.5811,0.5811,,0.67,,False,0.0,0.0,0.0,0.0,0.0,3.0429,3.0414,0.004,True,True,Mode(963497464),0.0551,1,0.58
0.066,THRUST_SEARCH,OPEN_LOOP,-0.0002,-0.00019,-5e-05,-5e-05,0.0,0.00065,0.5813,0.5813,0.5813,,0.67,,False,0.0,0.0,0.0,0.0,0.0,3.0429,3.0451,0.0066,True,False,Mode(963497464),0.0661,2,0.5811
0.077,THRUST_SEARCH,OPEN_LOOP,-0.0002,-0.00021,-0.00029,-0.00021,0.0,0.00017,0.5815,0.5815,0.5815,,0.67,,False,0.0,0.0,0.0,0.0,0.0,3.0429,3.0384,0.0,True,False,Mode(963497464),0.0771,2,0.5811
0.088,THRUST_SEARCH,OPEN_LOOP,-0.0002,-0.00024,-0.00031,-0.00024,0.0,-0.00023,0.5818,0.5818,0.5818,,0.67,,False,0.0,0.0,0.0,0.0,0.0,3.0429,3.0374,0.005,True,False,Mode(963497464),0.0881,2,0.5811
0.099,THRUST_SEARCH,OPEN_LOOP,-0.0003,-0.00027,-0.00035,-0.00027,0.0,-0.00062,0.582,0.582,0.582,,0.67,,False,0.0,0.0,0.0,0.0,0.0,3.0429,3.0403,0.005,True,False,Mode(963497464),0.0985,2,0.5811
0.11,THRUST_SEARCH,OPEN_LOOP,-0.0003,-0.00029,-0.00032,-0.00029,0.0,-0.00074,0.5822,0.5822,0.5822,,0.67,,False,0.0,0.0,0.0,0.0,0.0,3.0429,3.0415,0.001,True,True,Mode(963497464),0.1095,2,0.5811
0.12,THRUST_SEARCH,OPEN_LOOP,-0.0003,-0.0003,-0.0003,-0.0003,0.0,-0.00075,0.5824,0.5824,0.5824,,0.67,,False,0.0,0.0,0.0,0.0,0.0,3.0429,3.0442,0.003,True,False,Mode(963497464),0.1205,3,0.5822
0.131,THRUST_SEARCH,OPEN_LOOP,-0.0003,-0.00031,-0.00032,-0.00031,0.0,-0.00079,0.5826,0.5826,0.5826,,0.67,,False,0.0,0.0,0.0,0.0,0.0,3.0429,3.0456,0.005,True,False,Mode(963497464),0.1315,3,0.5822
0.143,THRUST_SEARCH,OPEN_LOOP,-0.0003,-0.0003,-0.00024,-0.00024,0.0,-0.0006,0.5829,0.5829,0.5829,,0.67,,False,0.0,0.0,0.0,0.0,0.0,3.0429,3.053,0.001,True,False,Mode(963497464),0.1425,3,0.5822
0.153,THRUST_SEARCH,OPEN_LOOP,-0.0003,-0.0003,-0.0003,-0.0003,0.0,-0.00059,0.5831,0.5831,0.5831,,0.67,,False,0.0,0.0,0.0,0.0,0.0,3.0429,3.0544,0.003,True,False,Mode(963497464),0.1535,3,0.5822
0.164,THRUST_SEARCH,OPEN_LOOP,-0.0003,-0.00031,-0.00031,-0.00031,0.0,-0.00058,0.5833,0.5833,0.5833,,0.67,,False,0.0,0.0,0.0,0.0,0.0,3.0429,3.0542,0.005,True,True,Mode(963497464),0.1645,3,0.5822
0.175,THRUST_SEARCH,OPEN_LOOP,-0.0003,-0.00031,-0.00031,-0.00031,0.0,-0.00057,0.5835,0.5835,0.5835,,0.67,,False,0.0,0.0,0.0,0.0,0.0,3.0429,3.0572,0.0006,True,False,Mode(963497464),0.1754,4,0.5833
0.186,THRUST_SEARCH,OPEN_LOOP,-0.0003,-0.00032,-0.00032,-0.00032,0.0,-0.00057,0.5837,0.5837,0.5837,,0.67,,False,0.0,0.0,0.0,0.0,0.0,3.0429,3.0553,0.003,True,False,Mode(963497464),0.1863,4,0.5833
0.197,THRUST_SEARCH,OPEN_LOOP,-0.0003,-0.00032,-0.00031,-0.00031,0.0,-0.00055,0.5839,0.5839,0.5839,,0.67,,False,0.0,0.0,0.0,0.0,0.0,3.0429,3.0532,0.005,True,False,Mode(963497464),0.1973,4,0.5833
0.208,THRUST_SEARCH,OPEN_LOOP,-0.0003,-0.00032,-0.0003,-0.0003,0.0,-0.00051,0.5842,0.5842,0.5842,,0.67,,False,0.0,0.0,0.0,0.0,0.0,3.0429,3.0542,0.007,True,False,Mode(963497464),0.2079,4,0.5833
0.219,THRUST_SEARCH,OPEN_LOOP,-0.0003,-0.0003,-0.00018,-0.00018,0.0,-0.00033,0.5844,0.5844,0.5844,,0.67,,False,0.0,0.0,0.0,0.0,0.0,3.0429,3.0396,0.001,True,True,Mode(963497464),0.2191,4,0.5833
0.23,THRUST_SEARCH,OPEN_LOOP,-0.0003,-0.00031,-0.00033,-0.00031,0.0,-0.00036,0.5846,0.5846,0.5846,,0.67,,False,0.0,0.0,0.0,0.0,0.0,3.0429,3.0441,0.003,True,False,Mode(963497464),0.23,5,0.5844
0.241,THRUST_SEARCH,OPEN_LOOP,-0.0003,-0.00031,-0.0003,-0.0003,0.0,-0.00035,0.5848,0.5848,0.5848,,0.67,,False,0.0,0.0,0.0,0.0,0.0,3.0429,3.043,0.008,True,False,Mode(963497464),0.241,5,0.5844
0.252,THRUST_SEARCH,OPEN_LOOP,-0.0003,-0.0003,-0.00023,-0.00023,0.0,-0.00027,0.585,0.585,0.585,,0.67,,False,0.0,0.0,0.0,0.0,0.0,3.0429,3.0433,0.001,True,False,Mode(963497464),0.252,5,0.5844
0.263,THRUST_SEARCH,OPEN_LOOP,-0.0003,-0.00026,-1e-05,-1e-05,0.0,-1e-05,0.5853,0.5853,0.5853,,0.67,,False,0.0,0.0,0.0,0.0,0.0,3.0429,3.0522,0.003,True,False,Mode(963497464),0.263,5,0.5844
0.274,THRUST_SEARCH,OPEN_LOOP,-0.0002,-0.00022,5e-05,5e-05,0.0,0.00024,0.5855,0.5855,0.5855,,0.67,,False,0.0,0.0,0.0,0.0,0.0,3.0429,3.0579,0.008,True,True,Mode(963497464),0.2739,5,0.5844
0.285,THRUST_SEARCH,OPEN_LOOP,-0.0002,-0.00023,-0.00032,-0.00023,0.0,0.00016,0.5857,0.5857,0.5857,,0.67,,False,0.0,0.0,0.0,0.0,0.0,3.0429,3.0628,0.001,True,False,Mode(963497464),0.2848,6,0.5855
0.296,THRUST_SEARCH,OPEN_LOOP,-0.0002,-0.00019,8e-05,8e-05,0.0,0.00038,0.5859,0.5859,0.5859,,0.67,,False,0.0,0.0,0.0,0.0,0.0,3.0429,3.0237,0.003,True,False,Mode(963497464),0.2958,6,0.5855
0.306,THRUST_SEARCH,OPEN_LOOP,-0.0001,-0.00015,9e-05,9e-05,0.0,0.00056,0.5861,0.5861,0.5861,,0.67,,False,0.0,0.0,0.0,0.0,0.0,3.0429,3.0532,0.0045,True,False,Mode(963497464),0.3062,6,0.5855
0.317,THRUST_SEARCH,OPEN_LOOP,0.0001,0.00011,0.00177,0.00177,0.0,0.00178,0.5863,0.5863,0.5863,,0.67,,False,0.0,0.0,0.0,0.0,0.0,3.0429,3.0975,0.001,True,False,Mode(963497464),0.3172,6,0.5855
0.328,THRUST_SEARCH,OPEN_LOOP,0.0004,0.00041,0.00244,0.00244,0.0,0.00318,0.5866,0.5866,0.5866,,0.67,,False,0.0,0.0,0.0,0.0,0.0,3.0429,3.0982,0.0025,True,True,Mode(963497464),0.3277,6,0.5855
0.339,THRUST_SEARCH,OPEN_LOOP,0.0009,0.00095,0.00454,0.00454,0.0,0.00556,0.5868,0.5868,0.5868,,0.67,,False,0.0,0.0,0.0,0.0,0.0,3.0429,3.0484,0.005,True,False,Mode(963497464),0.3392,7,0.5866
0.35,THRUST_SEARCH,OPEN_LOOP,0.0019,0.00193,0.00877,0.00877,0.0,0.00987,0.587,0.587,0.587,,0.67,,False,0.0,0.0,0.0,0.0,0.0,3.0429,2.9116,0.001,True,False,Mode(963497464),0.3499,7,0.5866
0.361,THRUST_SEARCH,OPEN_LOOP,0.003,0.00298,0.01009,0.01009,0.0,0.01417,0.5872,0.5872,0.5872,,0.67,,False,0.0,0.0,0.0,0.0,0.0,3.0429,2.8067,0.003,True,False,Mode(963497464),0.3609,7,0.5866
0.372,THRUST_SEARCH,OPEN_LOOP,0.0041,0.0041,0.01164,0.01164,0.0,0.01855,0.5874,0.5874,0.5874,,0.67,,False,0.0,0.0,0.0,0.0,0.0,3.0429,2.7032,0.005,True,False,Mode(963497464),0.3718,7,0.5866
0.383,THRUST_SEARCH,OPEN_LOOP,0.0052,0.00521,0.01246,0.01246,0.0,0.02259,0.5877,0.5877,0.5877,,0.67,,False,0.0,0.0,0.0,0.0,0.0,3.0429,2.6653,0.0068,True,True,Mode(963497464),0.3826,7,0.5866
0.394,THRUST_SEARCH,OPEN_LOOP,0.0065,0.00649,0.01491,0.01491,0.0,0.02713,0.5879,0.5879,0.5879,,0.67,,False,0.0,0.0,0.0,0.0,0.0,3.0429,2.4784,0.003,True,False,Mode(963497464),0.3936,8,0.5877
0.405,THRUST_SEARCH,OPEN_LOOP,0.0078,0.00778,0.01598,0.01598,0.0,0.03141,0.5881,0.5881,0.5881,,0.67,,False,0.0,0.0,0.0,0.0,0.0,3.0429,2.2185,0.005,True,False,Mode(963497464),0.4045,8,0.5877
0.415,THRUST_SEARCH,OPEN_LOOP,0.0091,0.00913,0.01771,0.01771,0.0,0.03576,0.5883,0.5883,0.5883,,0.67,,False,0.0,0.0,0.0,0.0,0.0,3.0429,1.9083,0.0069,True,False,Mode(963497464),0.4154,8,0.5877
0.426,THRUST_SEARCH,OPEN_LOOP,0.0105,0.01051,0.01905,0.01905,0.0,0.03997,0.5885,0.5885,0.5885,,0.67,,False,0.0,0.0,0.0,0.0,0.0,3.0429,1.5808,0.009,True,False,Mode(963497464),0.4264,8,0.5877
0.437,THRUST_SEARCH,OPEN_LOOP,0.012,0.01199,0.02131,0.02131,0.0,0.04444,0.5887,0.5887,0.5887,,0.67,,False,0.0,0.0,0.0,0.0,0.0,3.0429,0.9069,0.0036,True,True,Mode(963497464),0.437,8,0.5877
0.448,THRUST_SEARCH,OPEN_LOOP,0.0134,0.01339,0.02154,0.02154,0.0,0.04825,0.589,0.589,0.589,,0.67,,False,0.0,0.0,0.0,0.0,0.0,3.0429,0.7394,0.006,True,False,Mode(963497464),0.4479,9,0.5887
0.459,THRUST_SEARCH,OPEN_LOOP,0.0147,0.01471,0.0219,0.0219,0.0,0.05155,0.5892,0.5892,0.5892,,0.67,,False,0.0,0.0,0.0,0.0,0.0,3.0429,0.6973,0.008,True,False,Mode(963497464),0.4589,9,0.5887
0.47,THRUST_SEARCH,OPEN_LOOP,0.0161,0.01606,0.02306,0.02306,0.0,0.05471,0.5894,0.5894,0.5894,,0.67,,False,0.0,0.0,0.0,0.0,0.0,3.0429,0.5818,0.004,True,False,Mode(963497464),0.4702,9,0.5887
0.481,THRUST_SEARCH,OPEN_LOOP,0.0173,0.0173,0.02355,0.02355,0.0,0.05747,0.5896,0.5896,0.5896,,0.67,,False,0.0,0.0,0.0,0.0,0.0,3.0429,0.4486,0.006,True,False,Mode(963497464),0.4807,9,0.5887
0.492,THRUST_SEARCH,OPEN_LOOP,0.0185,0.01854,0.02428,0.02428,0.0,0.05997,0.5898,0.5898,0.5898,,0.67,,False,0.0,0.0,0.0,0.0,0.0,3.0429,0.1793,0.008,True,True,Mode(963497464),0.4916,9,0.5887
0.503,THRUST_SEARCH,OPEN_LOOP,0.0198,0.01979,0.02541,0.02541,0.0,0.06238,0.5901,0.5901,0.5901,,0.67,,False,0.0,0.0,0.0,0.0,0.0,3.0429,-0.4926,0.001,True,False,Mode(963497464),0.5026,10,0.5898
0.514,THRUST_SEARCH,OPEN_LOOP,0.021,0.021,0.02611,0.02611,0.0,0.06455,0.5903,0.5903,0.5903,,0.67,,False,0.0,0.0,0.0,0.0,0.0,3.0429,-0.7577,0.006,True,False,Mode(963497464),0.5136,10,0.5898
0.524,THRUST_SEARCH,OPEN_LOOP,0.0221,0.02207,0.02584,0.02584,0.0,0.06613,0.5905,0.5905,0.5905,,0.67,,False,0.0,0.0,0.0,0.0,0.0,3.0429,-0.8548,0.0075,True,False,Mode(963497464),0.5241,10,0.5898
0.535,THRUST_SEARCH,OPEN_LOOP,0.023,0.02299,0.02491,0.02491,0.0,0.06692,0.5907,0.5907,0.5907,,0.67,,False,0.0,0.0,0.0,0.0,0.0,3.0429,-0.8062,0.001,True,False,Mode(963497464),0.0,10,0.5898
0.546,THRUST_SEARCH,OPEN_LOOP,0.0239,0.02388,0.02546,0.02546,0.0,0.06757,0.5909,0.5909,0.5909,,0.67,,False,0.0,0.0,0.0,0.0,0.0,3.0429,-0.9316,0.003,True,True,Mode(963497464),0.011,10,0.5898
0.557,THRUST_SEARCH,OPEN_LOOP,0.0247,0.02468,0.02526,0.02526,0.0,0.0678,0.5911,0.5911,0.5911,,0.67,,False,0.0,0.0,0.0,0.0,0.0,3.0429,-1.1198,0.008,True,False,Mode(963497464),0.0219,11,0.5909
0.568,THRUST_SEARCH,OPEN_LOOP,0.0255,0.02546,0.0258,0.0258,0.0,0.06794,0.5914,0.5914,0.5914,,0.67,,False,0.0,0.0,0.0,0.0,0.0,3.0429,-1.7191,0.001,True,False,Mode(963497464),0.0329,11,0.5909
0.579,THRUST_SEARCH,OPEN_LOOP,0.0261,0.02614,0.02581,0.02614,0.0,0.06781,0.5916,0.5916,0.5916,,0.67,,False,0.0,0.0,0.0,0.0,0.0,3.0429,-2.0214,0.0031,True,False,Mode(963497464),0.0435,11,0.5909
0.589,THRUST_SEARCH,OPEN_LOOP,0.0267,0.02671,0.02528,0.02671,0.0,0.06724,0.5918,0.5918,0.5918,,0.67,,False,0.0,0.0,0.0,0.0,0.0,3.0429,-2.261,0.0045,True,False,Mode(963497464),0.0539,11,0.5909
0.6,THRUST_SEARCH,OPEN_LOOP,0.0271,0.02709,0.02338,0.02709,0.0,0.06577,0.592,0.592,0.592,,0.67,,False,0.0,0.0,0.0,0.0,0.0,3.0429,-2.2578,0.001,True,True,Mode(963497464),0.0648,11,0.5909
0.611,THRUST_SEARCH,OPEN_LOOP,0.0274,0.0274,0.02317,0.0274,0.0,0.0641,0.5922,0.5922,0.5922,,0.67,,False,0.0,0.0,0.0,0.0,0.0,3.0429,-2.2755,0.003,True,False,Mode(963497464),0.0758,12,0.592
0.621,THRUST_SEARCH,OPEN_LOOP,0.0276,0.02755,0.0222,0.02755,0.0,0.06199,0.5924,0.5924,0.5924,,0.67,,False,0.0,0.0,0.0,0.0,0.0,3.0429,-2.3683,0.0045,True,False,Mode(963497464),0.0863,12,0.592
0.632,THRUST_SEARCH,OPEN_LOOP,0.0276,0.02764,0.02147,0.02764,0.0,0.05957,0.5926,0.5926,0.5926,,0.67,,False,0.0,0.0,0.0,0.0,0.0,3.0429,-2.6297,0.007,True,False,Mode(963497464),0.0973,12,0.592
0.644,THRUST_SEARCH,OPEN_LOOP,0.0276,0.02757,0.01985,0.02757,0.0,0.05653,0.5929,0.5929,0.5929,,0.67,,False,0.0,0.0,0.0,0.0,0.0,3.0429,-3.4917,0.001,True,False,Mode(963497464),0.1086,12,0.592
0.655,THRUST_SEARCH,OPEN_LOOP,0.0275,0.02747,0.02,0.02747,0.0,0.0536,0.5931,0.5931,0.5931,,0.67,,False,0.0,0.0,0.0,0.0,0.0,3.0429,-3.9428,0.003,True,True,Mode(963497464),0.1195,12,0.592
0.666,THRUST_SEARCH,OPEN_LOOP,0.0273,0.02726,0.01888,0.02726,0.0,0.05031,0.5933,0.5933,0.5933,,0.67,,False,0.0,0.0,0.0,0.0,0.0,3.0429,-4.1905,0.006,True,False,Mode(963497464),0.1305,13,0.5931
0.677,THRUST_SEARCH,OPEN_LOOP,0.0268,0.02677,0.01585,0.02677,0.0,0.04602,0.5935,0.5935,0.5935,,0.67,,False,0.0,0.0,0.0,0.0,0.0,3.0429,-4.1409,0.001,True,False,Mode(963497464),0.1415,13,0.5931
0.687,THRUST_SEARCH,OPEN_LOOP,0.0262,0.02618,0.01475,0.02618,0.0,0.04154,0.5937,0.5937,0.5937,,0.67,,False,0.0,0.0,0.0,0.0,0.0,3.0429,-4.0112,0.003,True,False,Mode(963497464),0.1525,13,0.5931
0.698,THRUST_SEARCH,OPEN_LOOP,0.0255,0.02547,0.0133,0.02547,0.0,0.03678,0.594,0.594,0.594,,0.67,,False,0.0,0.0,0.0,0.0,0.0,3.0429,-3.9484,0.0048,True,False,Mode(963497464),0.1632,13,0.5931
0.709,THRUST_SEARCH,OPEN_LOOP,0.0247,0.02467,0.0121,0.02467,0.0,0.03186,0.5942,0.5942,0.5942,,0.67,,False,0.0,0.0,0.0,0.0,0.0,3.0429,-4.2351,0.001,True,True,Mode(963497464),0.1742,13,0.5931
0.72,THRUST_SEARCH,OPEN_LOOP,0.0238,0.02381,0.01107,0.02381,0.0,0.02687,0.5944,0.5944,0.5944,,0.67,,False,0.0,0.0,0.0,0.0,0.0,3.0429,-4.4339,0.003,True,False,Mode(963497464),0.1852,14,0.5942
0.731,THRUST_SEARCH,OPEN_LOOP,0.0229,0.0229,0.01021,0.0229,0.0,0.0219,0.5946,0.5946,0.5946,,0.67,,False,0.0,0.0,0.0,0.0,0.0,3.0429,-4.7429,0.005,True,False,Mode(963497464),0.1962,14,0.5942
0.742,THRUST_SEARCH,OPEN_LOOP,0.0218,0.02178,0.00755,0.02178,0.0,0.01633,0.5948,0.5948,0.5948,,0.67,,False,0.0,0.0,0.0,0.0,0.0,3.0429,-4.9807,0.0006,True,False,Mode(963497464),0.2069,14,0.5942
0.753,THRUST_SEARCH,OPEN_LOOP,0.0206,0.02061,0.00637,0.02061,0.0,0.01076,0.5951,0.5951,0.5951,,0.67,,False,0.0,0.0,0.0,0.0,0.0,3.0429,-4.8896,0.003,True,False,Mode(963497464),0.2179,14,0.5942
0.763,THRUST_SEARCH,OPEN_LOOP,0.0195,0.01948,0.00625,0.01948,0.0,0.0056,0.5953,0.5953,0.5953,,0.67,,False,0.0,0.0,0.0,0.0,0.0,3.0429,-4.7768,0.0045,True,True,Mode(963497464),0.2284,14,0.5942
0.774,THRUST_SEARCH,OPEN_LOOP,0.0183,0.01832,0.00547,0.01832,0.0,0.00058,0.5955,0.5955,0.5955,,0.67,,False,0.0,0.0,0.0,0.0,0.0,3.0429,-4.7198,0.007,True,False,Mode(963497464),0.2393,15,0.5953
0.785,THRUST_SEARCH,OPEN_LOOP,0.0172,0.01722,0.00549,0.01722,0.0,-0.00398,0.5957,0.5957,0.5957,,0.67,,False,0.0,0.0,0.0,0.0,0.0,3.0429,-4.7782,0.003,True,False,Mode(963497464),0.2498,15,0.5953
0.795,THRUST_SEARCH,OPEN_LOOP,0.0163,0.01627,0.00657,0.01627,0.0,-0.00774,0.5959,0.5959,0.5959,,0.67,,False,0.0,0.0,0.0,0.0,0.0,3.0429,-4.5801,0.0045,True,False,Mode(963497464),0.2603,15,0.5953
0.806,THRUST_SEARCH,OPEN_LOOP,0.0153,0.01531,0.00595,0.01531,0.0,-0.01138,0.5961,0.5961,0.5961,,0.67,,False,0.0,0.0,0.0,0.0,0.0,3.0429,-4.1869,0.007,True,False,Mode(963497464),0.2713,15,0.5953
0.818,THRUST_SEARCH,OPEN_LOOP,0.0145,0.01447,0.00696,0.01447,0.0,-0.0143,0.5964,0.5964,0.5964,,0.67,,False,0.0,0.0,0.0,0.0,0.0,3.0429,-3.6752,0.009,True,True,Mode(963497464),0.2823,15,0.5953
0.828,THRUST_SEARCH,OPEN_LOOP,0.0137,0.01366,0.00661,0.01366,0.0,-0.01704,0.5966,0.5966,0.5966,,0.67,,False,0.0,0.0,0.0,0.0,0.0,3.0429,-2.9133,0.0015,True,False,Mode(963497464),0.2928,16,0.5964
0.839,THRUST_SEARCH,OPEN_LOOP,0.0129,0.01294,0.00722,0.01294,0.0,-0.01926,0.5968,0.5968,0.5968,,0.67,,False,0.0,0.0,0.0,0.0,0.0,3.0429,-2.8503,0.006,True,False,Mode(963497464),0.3037,16,0.5964
0.85,THRUST_SEARCH,OPEN_LOOP,0.0123,0.01231,0.00788,0.01231,0.0,-0.02099,0.597,0.597,0.597,,0.67,,False,0.0,0.0,0.0,0.0,0.0,3.0429,-3.0509,0.008,True,False,Mode(963497464),0.3147,16,0.5964
0.86,THRUST_SEARCH,OPEN_LOOP,0.0118,0.01184,0.00921,0.01184,0.0,-0.02201,0.5972,0.5972,0.5972,,0.67,,False,0.0,0.0,0.0,0.0,0.0,3.0429,-3.7417,0.001,True,False,Mode(963497464),0.3253,16,0.5964
0.871,THRUST_SEARCH,OPEN_LOOP,0.0115,0.01152,0.01066,0.01152,0.0,-0.02235,0.5974,0.5974,0.5974,,0.67,,False,0.0,0.0,0.0,0.0,0.0,3.0429,-4.0017,0.003,True,True,Mode(963497464),0.3362,16,0.5964
0.883,THRUST_SEARCH,OPEN_LOOP,0.0113,0.0113,0.01177,0.01177,0.0,-0.02216,0.5977,0.5977,0.5977,,0.67,,False,0.0,0.0,0.0,0.0,0.0,3.0429,-4.1208,0.009,True,False,Mode(963497464),0.3482,17,0.5974
0.895,THRUST_SEARCH,OPEN_LOOP,0.0112,0.01123,0.01316,0.01316,0.0,-0.0214,0.5979,0.5979,0.5979,,0.67,,False,0.0,0.0,0.0,0.0,0.0,3.0429,-3.9515,0.0015,True,False,Mode(963497464),0.3597,17,0.5974
0.906,THRUST_SEARCH,OPEN_LOOP,0.0113,0.01133,0.01494,0.01494,0.0,-0.01998,0.5981,0.5981,0.5981,,0.67,,False,0.0,0.0,0.0,0.0,0.0,3.0429,-3.9056,0.006,True,False,Mode(963497464),0.3707,17,0.5974
0.917,THRUST_SEARCH,OPEN_LOOP,0.0115,0.01149,0.01543,0.01543,0.0,-0.01843,0.5983,0.5983,0.5983,,0.67,,False,0.0,0.0,0.0,0.0,0.0,3.0429,-3.9614,0.008,True,False,Mode(963497464),0.3816,17,0.5974
0.928,THRUST_SEARCH,OPEN_LOOP,0.012,0.01199,0.01931,0.01931,0.0,-0.01553,0.5986,0.5986,0.5986,,0.67,,False,0.0,0.0,0.0,0.0,0.0,3.0429,-4.4819,0.001,True,True,Mode(963497464),0.3926,17,0.5974
0.939,THRUST_SEARCH,OPEN_LOOP,0.0125,0.01251,0.01984,0.01984,0.0,-0.01264,0.5988,0.5988,0.5988,,0.67,,False,0.0,0.0,0.0,0.0,0.0,3.0429,-4.7973,0.006,True,False,Mode(963497464),0.4036,18,0.5986
0.95,THRUST_SEARCH,OPEN_LOOP,0.0132,0.01318,0.02165,0.02165,0.0,-0.0093,0.599,0.599,0.599,,0.67,,False,0.0,0.0,0.0,0.0,0.0,3.0429,-5.0348,0.008,True,False,Mode(963497464),0.4146,18,0.5986
0.961,THRUST_SEARCH,OPEN_LOOP,0.0139,0.01392,0.0227,0.0227,0.0,-0.00584,0.5992,0.5992,0.5992,,0.67,,False,0.0,0.0,0.0,0.0,0.0,3.0429,-5.3711,0.001,True,False,Mode(963497464),0.4255,18,0.5986
0.972,THRUST_SEARCH,OPEN_LOOP,0.0146,0.01465,0.023,0.023,0.0,-0.00254,0.5994,0.5994,0.5994,,0.67,,False,0.0,0.0,0.0,0.0,0.0,3.0429,-5.3717,0.006,True,False,Mode(963497464),0.4365,18,0.5986
0.983,THRUST_SEARCH,OPEN_LOOP,0.0153,0.01533,0.02278,0.02278,0.0,0.0004,0.5997,0.5997,0.5997,,0.67,,False,0.0,0.0,0.0,0.0,0.0,3.0429,-5.3536,0.008,True,True,Mode(963497464),0.4475,18,0.5986
0.993,THRUST_SEARCH,OPEN_LOOP,0.0163,0.01628,0.02629,0.02629,0.0,0.00434,0.5999,0.5999,0.5999,,0.67,,False,0.0,0.0,0.0,0.0,0.0,3.0429,-5.3963,0.001,True,False,Mode(963497464),0.4584,19,0.5997
1.004,THRUST_SEARCH,OPEN_LOOP,0.0172,0.01723,0.0267,0.0267,0.0,0.00808,0.6001,0.6001,0.6001,,0.67,,False,0.0,0.0,0.0,0.0,0.0,3.0429,-5.5275,0.003,True,False,Mode(963497464),0.4694,19,0.5997
1.015,THRUST_SEARCH,OPEN_LOOP,0.0182,0.01816,0.027,0.027,0.0,0.01156,0.6003,0.6003,0.6003,,0.67,,False,0.0,0.0,0.0,0.0,0.0,3.0429,-5.5732,0.008,True,False,Mode(963497464),0.4804,19,0.5997
1.026,THRUST_SEARCH,OPEN_LOOP,0.0191,0.01907,0.02727,0.02727,0.0,0.01479,0.6005,0.6005,0.6005,,0.67,,False,0.0,0.0,0.0,0.0,0.0,3.0429,-5.6005,0.0014,True,False,Mode(963497464),0.4913,19,0.5997
1.038,THRUST_SEARCH,OPEN_LOOP,0.0199,0.01995,0.02745,0.02745,0.0,0.01775,0.6007,0.6007,0.6007,,0.67,,False,0.0,0.0,0.0,0.0,0.0,3.0429,-5.5765,0.003,True,True,Mode(963497464),0.5023,19,0.5997
1.048,THRUST_SEARCH,OPEN_LOOP,0.0207,0.02071,0.02681,0.02681,0.0,0.02014,0.601,0.601,0.601,,0.67,,False,0.0,0.0,0.0,0.0,0.0,3.0429,-5.6075,0.0045,True,False,Mode(963497464),0.5128,20,0.6007
1.059,THRUST_SEARCH,OPEN_LOOP,0.0215,0.02152,0.02774,0.02774,0.0,0.02259,0.6012,0.6012,0.6012,,0.67,,False,0.0,0.0,0.0,0.0,0.0,3.0429,-5.9294,0.001,True,False,Mode(963497464),0.5238,20,0.6007
1.07,THRUST_SEARCH,OPEN_LOOP,0.0223,0.02232,0.02815,0.02815,0.0,0.02488,0.6014,0.6014,0.6014,,0.67,,False,0.0,0.0,0.0,0.0,0.0,3.0429,-6.1445,0.003,True,False,Mode(963497464),0.5347,20,0.6007
1.081,THRUST_SEARCH,OPEN_LOOP,0.0231,0.0231,0.02841,0.02841,0.0,0.02696,0.6016,0.6016,0.6016,,0.67,,False,0.0,0.0,0.0,0.0,0.0,3.0429,-6.3187,0.005,True,False,Mode(963497464),0.5457,20,0.6007
1.093,THRUST_SEARCH,OPEN_LOOP,0.0238,0.0238,0.02784,0.02784,0.0,0.02856,0.6018,0.6018,0.6018,,0.67,,False,0.0,0.0,0.0,0.0,0.0,3.0429,-6.502,0.0014,True,True,Mode(963497464),0.5573,20,0.6007
1.103,THRUST_SEARCH,OPEN_LOOP,0.0244,0.02441,0.02758,0.02758,0.0,0.02981,0.6021,0.6021,0.6021,,0.67,,False,0.0,0.0,0.0,0.0,0.0,3.0429,-6.615,0.003,True,False,Mode(963497464),0.5682,21,0.6018
1.114,THRUST_SEARCH,OPEN_LOOP,0.0249,0.02493,0.02705,0.02705,0.0,0.03064,0.6023,0.6023,0.6023,,0.67,,False,0.0,0.0,0.0,0.0,0.0,3.0429,-6.7122,0.0045,True,False,Mode(963497464),0.5787,21,0.6018
1.125,THRUST_SEARCH,OPEN_LOOP,0.0254,0.02536,0.02636,0.02636,0.0,0.03104,0.6025,0.6025,0.6025,,0.67,,False,0.0,0.0,0.0,0.0,0.0,3.0429,-7.012,0.001,True,False,Mode(963497464),0.5897,21,0.6018
1.136,THRUST_SEARCH,OPEN_LOOP,0.0258,0.02576,0.02647,0.02647,0.0,0.03132,0.6027,0.6027,0.6027,,0.67,,False,0.0,0.0,0.0,0.0,0.0,3.0429,-7.3121,0.003,True,False,Mode(963497464),0.6007,21,0.6018
1.146,THRUST_SEARCH,OPEN_LOOP,0.0261,0.02608,0.02591,0.02608,0.0,0.03125,0.6029,0.6029,0.6029,,0.67,,False,0.0,0.0,0.0,0.0,0.0,3.0429,-7.6409,0.0045,True,True,Mode(963497464),0.6111,21,0.6018
1.157,THRUST_SEARCH,OPEN_LOOP,0.0264,0.02643,0.02641,0.02643,0.0,0.03124,0.6031,0.6031,0.6031,,0.67,,False,0.0,0.0,0.0,0.0,0.0,3.0429,-8.0095,0.0073,True,False,Mode(963497464),0.6224,22,0.6029
1.168,THRUST_SEARCH,OPEN_LOOP,0.0266,0.02662,0.0251,0.02662,0.0,0.03065,0.6034,0.6034,0.6034,,0.67,,False,0.0,0.0,0.0,0.0,0.0,3.0429,-8.2806,0.01,True,False,Mode(963497464),0.6333,22,0.6029
1.179,THRUST_SEARCH,OPEN_LOOP,0.0267,0.02665,0.02353,0.02665,0.0,0.02943,0.6036,0.6036,0.6036,,0.67,,False,0.0,0.0,0.0,0.0,0.0,3.0429,-8.632,0.0045,True,False,Mode(963497464),0.6438,22,0.6029
1.19,THRUST_SEARCH,OPEN_LOOP,0.0265,0.02649,0.02141,0.02649,0.0,0.02744,0.6038,0.6038,0.6038,,0.67,,False,0.0,0.0,0.0,0.0,0.0,3.0429,-8.7436,0.0069,True,False,Mode(963497464),0.6547,22,0.6029
1.202,THRUST_SEARCH,OPEN_LOOP,0.0263,0.02627,0.02078,0.02627,0.0,0.02529,0.604,0.604,0.604,,0.67,,False,0.0,0.0,0.0,0.0,0.0,3.0429,-9.0207,0.0,True,True,Mode(963497464),0.6657,22,0.6029
1.211,THRUST_SEARCH,OPEN_LOOP,0.026,0.02595,0.01973,0.02595,0.0,0.02286,0.6042,0.6042,0.6042,,0.67,,False,0.0,0.0,0.0,0.0,0.0,3.0429,-9.2629,0.0015,True,False,Mode(963497464),0.6762,23,0.604
1.222,THRUST_SEARCH,OPEN_LOOP,0.0256,0.02562,0.01941,0.02562,0.0,0.02044,0.6044,0.6044,0.6044,,0.67,,False,0.0,0.0,0.0,0.0,0.0,3.0429,-9.4684,0.006,True,False,Mode(963497464),0.6871,23,0.604
1.233,THRUST_SEARCH,OPEN_LOOP,0.0252,0.02522,0.01865,0.02522,0.0,0.01787,0.6047,0.6047,0.6047,,0.67,,False,0.0,0.0,0.0,0.0,0.0,3.0429,-9.6027,0.008,True,False,Mode(963497464),0.6981,23,0.604
1.244,THRUST_SEARCH,OPEN_LOOP,0.0246,0.0246,0.01598,0.0246,0.0,0.0145,0.6049,0.6049,0.6049,,0.67,,False,0.0,0.0,0.0,0.0,0.0,3.0429,-9.4872,0.001,True,False,Mode(963497464),0.7091,23,0.604
1.255,THRUST_SEARCH,OPEN_LOOP,0.0239,0.02391,0.01492,0.02391,0.0,0.01098,0.6051,0.6051,0.6051,,0.67,,False,0.0,0.0,0.0,0.0,0.0,3.0429,-9.6279,0.006,True,True,Mode(963497464),0.7201,23,0.604
1.266,THRUST_SEARCH,OPEN_LOOP,0.0231,0.02308,0.01304,0.02308,0.0,0.00705,0.6053,0.6053,0.6053,,0.67,,False,0.0,0.0,0.0,0.0,0.0,3.0429,-9.639,0.007,True,False,Mode(963497464),0.731,24,0.6051
1.277,THRUST_SEARCH,OPEN_LOOP,0.0222,0.02218,0.0118,0.02218,0.0,0.00298,0.6055,0.6055,0.6055,,0.67,,False,0.0,0.0,0.0,0.0,0.0,3.0429,-9.8797,0.003,True,False,Mode(963497464),0.742,24,0.6051
1.288,THRUST_SEARCH,OPEN_LOOP,0.0213,0.02126,0.01127,0.02126,0.0,-0.00093,0.6058,0.6058,0.6058,,0.67,,False,0.0,0.0,0.0,0.0,0.0,3.0429,-10.0902,0.005,True,False,Mode(963497464),0.753,24,0.6051
1.299,THRUST_SEARCH,OPEN_LOOP,0.0203,0.02028,0.00998,0.02028,0.0,-0.00496,0.606,0.606,0.606,,0.67,,False,0.0,0.0,0.0,0.0,0.0,3.0429,-10.2726,0.0066,True,False,Mode(963497464),0.7636,24,0.6051
1.311,THRUST_SEARCH,OPEN_LOOP,0.0193,0.0193,0.00943,0.0193,0.0,-0.00882,0.6062,0.6062,0.6062,,0.67,,False,0.0,0.0,0.0,0.0,0.0,3.0429,-10.3867,0.009,True,True,Mode(963497464),0.7746,24,0.6051
1.32,THRUST_SEARCH,OPEN_LOOP,0.0183,0.01832,0.00896,0.01832,0.0,-0.01247,0.6064,0.6064,0.6064,,0.67,,False,0.0,0.0,0.0,0.0,0.0,3.0429,-10.6023,0.0036,True,False,Mode(963497464),0.7851,25,0.6062
1.331,THRUST_SEARCH,OPEN_LOOP,0.0172,0.01717,0.00635,0.01717,0.0,-0.01669,0.6066,0.6066,0.6066,,0.67,,False,0.0,0.0,0.0,0.0,0.0,3.0429,-10.8989,0.006,True,False,Mode(963497464),0.7961,25,0.6062
1.342,THRUST_SEARCH,OPEN_LOOP,0.0162,0.01615,0.00726,0.01615,0.0,-0.02015,0.6068,0.6068,0.6068,,0.67,,False,0.0,0.0,0.0,0.0,0.0,3.0429,-11.2917,0.0075,True,False,Mode(963497464),0.8066,25,0.6062
1.353,THRUST_SEARCH,OPEN_LOOP,0.0151,0.01515,0.00682,0.01515,0.0,-0.02339,0.6071,0.6071,0.6071,,0.67,,False,0.0,0.0,0.0,0.0,0.0,3.0429,-12.0398,0.001,True,False,Mode(963497464),0.8175,25,0.6062
1.364,THRUST_SEARCH,OPEN_LOOP,0.0143,0.01426,0.00751,0.01426,0.0,-0.02602,0.6073,0.6073,0.6073,,0.67,,False,0.0,0.0,0.0,0.0,0.0,3.0429,-12.3102,0.006,True,True,Mode(963497464),0.8285,25,0.6062
1.375,THRUST_SEARCH,OPEN_LOOP,0.0134,0.01343,0.00762,0.01343,0.0,-0.02829,0.6075,0.6075,0.6075,,0.67,,False,0.0,0.0,0.0,0.0,0.0,3.0429,-12.6655,0.008,True,False,Mode(963497464),0.8395,26,0.6073
1.385,THRUST_SEARCH,OPEN_LOOP,0.0127,0.01273,0.00849,0.01273,0.0,-0.02994,0.6077,0.6077,0.6077,,0.67,,False,0.0,0.0,0.0,0.0,0.0,3.0429,-13.3784,0.0006,True,False,Mode(963497464),0.85,26,0.6073
1.396,THRUST_SEARCH,OPEN_LOOP,0.012,0.01204,0.00824,0.01204,0.0,-0.03142,0.6079,0.6079,0.6079,,0.67,,False,0.0,0.0,0.0,0.0,0.0,3.0429,-13.7207,0.003,True,False,Mode(963497464),0.861,26,0.6073
1.406,THRUST_SEARCH,OPEN_LOOP,0.0114,0.01145,0.00863,0.01145,0.0,-0.03251,0.6081,0.6081,0.6081,,0.67,,False,0.0,0.0,0.0,0.0,0.0,3.0429,-14.2022,0.0045,True,False,Mode(963497464),0.8714,26,0.6073
1.417,THRUST_SEARCH,OPEN_LOOP,0.011,0.01098,0.00977,0.01098,0.0,-0.03298,0.6083,0.6083,0.6083,,0.67,,False,0.0,0.0,0.0,0.0,0.0,3.0429,-15.3347,0.001,True,True,Mode(963497464),0.8824,26,0.6073
1.428,THRUST_SEARCH,OPEN_LOOP,0.0108,0.01081,0.01286,0.01286,0.0,-0.03218,0.6086,0.6086,0.6086,,0.67,,False,0.0,0.0,0.0,0.0,0.0,3.0429,-15.8692,0.003,True,False,Mode(963497464),0.8934,27,0.6083
1.439,THRUST_SEARCH,OPEN_LOOP,0.0107,0.01066,0.0126,0.0126,0.0,-0.03143,0.6088,0.6088,0.6088,,0.67,,False,0.0,0.0,0.0,0.0,0.0,3.0429,-16.3066,0.0045,True,False,Mode(963497464),0.9039,27,0.6083
1.45,THRUST_SEARCH,OPEN_LOOP,0.0106,0.0106,0.01358,0.01358,0.0,-0.03027,0.609,0.609,0.609,,0.67,,False,0.0,0.0,0.0,0.0,0.0,3.0429,-16.6537,0.0067,True,False,Mode(963497464),0.9145,27,0.6083
1.461,THRUST_SEARCH,OPEN_LOOP,0.0107,0.01065,0.0148,0.0148,0.0,-0.02867,0.6092,0.6092,0.6092,,0.67,,False,0.0,0.0,0.0,0.0,0.0,3.0429,-17.2842,0.003,True,False,Mode(963497464),0.9255,27,0.6083
1.471,THRUST_SEARCH,OPEN_LOOP,0.0107,0.01075,0.01494,0.01494,0.0,-0.02704,0.6094,0.6094,0.6094,,0.67,,False,0.0,0.0,0.0,0.0,0.0,3.0429,-17.5607,0.0045,True,True,Mode(963497464),0.0,27,0.6083
1.482,THRUST_SEARCH,OPEN_LOOP,0.0108,0.01079,0.01441,0.01441,0.0,-0.02564,0.6096,0.6096,0.6096,,0.67,,False,0.0,0.0,0.0,0.0,0.0,3.0429,-17.9552,0.007,True,False,Mode(963497464),0.011,28,0.6094
1.496,THRUST_SEARCH,OPEN_LOOP,0.011,0.01102,0.01693,0.01693,0.0,-0.02331,0.6099,0.6099,0.6099,,0.67,,False,0.0,0.0,0.0,0.0,0.0,3.0429,-18.8609,0.0005,True,False,Mode(963497464),0.0245,28,0.6094
1.506,THRUST_SEARCH,OPEN_LOOP,0.0114,0.01138,0.01789,0.01789,0.0,-0.02074,0.6101,0.6101,0.6101,,0.67,,False,0.0,0.0,0.0,0.0,0.0,3.0429,-19.2094,0.005,True,False,Mode(963497464),0.0349,28,0.6094
1.517,THRUST_SEARCH,OPEN_LOOP,0.0118,0.01175,0.01799,0.01799,0.0,-0.01828,0.6103,0.6103,0.6103,,0.67,,False,0.0,0.0,0.0,0.0,0.0,3.0429,-19.4149,0.001,True,False,Mode(963497464),0.0459,28,0.6094
1.529,THRUST_SEARCH,OPEN_LOOP,0.0121,0.01211,0.01799,0.01799,0.0,-0.01596,0.6106,0.6106,0.6106,,0.67,,False,0.0,0.0,0.0,0.0,0.0,3.0429,-19.4149,0.012,True,True,Mode(963497464),0.0569,28,0.6094
1.538,THRUST_SEARCH,OPEN_LOOP,0.0125,0.01249,0.01828,0.01828,0.0,-0.01369,0.6108,0.6108,0.6108,,0.67,,False,0.0,0.0,0.0,0.0,0.0,3.0429,-19.4705,0.0036,True,False,Mode(963497464),0.0674,29,0.6106
1.549,THRUST_SEARCH,OPEN_LOOP,0.0128,0.01284,0.01815,0.01815,0.0,-0.0116,0.611,0.611,0.611,,0.67,,False,0.0,0.0,0.0,0.0,0.0,3.0429,-19.6196,0.006,True,False,Mode(963497464),0.0784,29,0.6106
1.56,THRUST_SEARCH,OPEN_LOOP,0.0132,0.01322,0.01849,0.01849,0.0,-0.00953,0.6112,0.6112,0.6112,,0.67,,False,0.0,0.0,0.0,0.0,0.0,3.0429,-20.3721,0.0015,True,False,Mode(963497464),0.0889,29,0.6106
1.571,THRUST_SEARCH,OPEN_LOOP,0.0137,0.01372,0.02011,0.02011,0.0,-0.00703,0.6114,0.6114,0.6114,,0.67,,False,0.0,0.0,0.0,0.0,0.0,3.0429,-20.8075,0.003,True,False,Mode(963497464),0.0998,29,0.6106
1.581,THRUST_SEARCH,OPEN_LOOP,0.0142,0.01418,0.0198,0.0198,0.0,-0.00484,0.6116,0.6116,0.6116,,0.67,,False,0.0,0.0,0.0,0.0,0.0,3.0429,-21.2069,0.0045,True,True,Mode(963497464),0.1103,29,0.6106
1.592,THRUST_SEARCH,OPEN_LOOP,0.0146,0.01464,0.02011,0.02011,0.0,-0.0027,0.6118,0.6118,0.6118,,0.67,,False,0.0,0.0,0.0,0.0,0.0,3.0429,-21.91,0.001,True,False,Mode(963497464),0.1213,30,0.6116
1.603,THRUST_SEARCH,OPEN_LOOP,0.015,0.015,0.01914,0.01914,0.0,-0.00108,0.6121,0.6121,0.6121,,0.67,,False,0.0,0.0,0.0,0.0,0.0,3.0429,-22.0424,0.003,True,False,Mode(963497464),0.1323,30,0.6116
1.614,THRUST_SEARCH,OPEN_LOOP,0.0154,0.01538,0.01953,0.01953,0.0,0.00054,0.6123,0.6123,0.6123,,0.67,,False,0.0,0.0,0.0,0.0,0.0,3.0429,-21.9807,0.0045,True,False,Mode(963497464),0.1428,30,0.6116
1.624,THRUST_SEARCH,OPEN_LOOP,0.0157,0.01566,0.01855,0.01855,0.0,0.00166,0.6125,0.6125,0.6125,,0.67,,False,0.0,0.0,0.0,0.0,0.0,3.0429,-21.8489,0.0067,True,False,Mode(963497464),0.1534,30,0.6116
1.636,THRUST_SEARCH,OPEN_LOOP,0.016,0.01598,0.01926,0.01926,0.0,0.00294,0.6127,0.6127,0.6127,,0.67,,False,0.0,0.0,0.0,0.0,0.0,3.0429,-21.7609,0.003,True,True,Mode(963497464),0.1644,30,0.6116
1.646,THRUST_SEARCH,OPEN_LOOP,0.0163,0.01626,0.01882,0.01882,0.0,0.00393,0.6129,0.6129,0.6129,,0.67,,False,0.0,0.0,0.0,0.0,0.0,3.0429,-21.8989,0.0045,True,False,Mode(963497464),0.1749,31,0.6127
1.657,THRUST_SEARCH,OPEN_LOOP,0.0165,0.01652,0.0189,0.0189,0.0,0.00486,0.6131,0.6131,0.6131,,0.67,,False,0.0,0.0,0.0,0.0,0.0,3.0429,-22.0474,0.0069,True,False,Mode(963497464),0.1857,31,0.6127
1.668,THRUST_SEARCH,OPEN_LOOP,0.0168,0.01677,0.01885,0.01885,0.0,0.00567,0.6134,0.6134,0.6134,,0.67,,False,0.0,0.0,0.0,0.0,0.0,3.0429,-22.1834,0.009,True,False,Mode(963497464),0.1967,31,0.6127
1.679,THRUST_SEARCH,OPEN_LOOP,0.0169,0.01687,0.01725,0.01725,0.0,0.00581,0.6136,0.6136,0.6136,,0.67,,False,0.0,0.0,0.0,0.0,0.0,3.0429,-22.0823,0.002,True,False,Mode(963497464),0.2077,31,0.6127
1.69,THRUST_SEARCH,OPEN_LOOP,0.0169,0.01688,0.01633,0.01688,0.0,0.0056,0.6138,0.6138,0.6138,,0.67,,False,0.0,0.0,0.0,0.0,0.0,3.0429,-21.8589,0.007,True,True,Mode(963497464),0.2186,31,0.6127
1.701,THRUST_SEARCH,OPEN_LOOP,0.0168,0.01681,0.01543,0.01681,0.0,0.00506,0.614,0.614,0.614,,0.67,,False,0.0,0.0,0.0,0.0,0.0,3.0429,-21.5845,0.0015,True,False,Mode(963497464),0.2304,32,0.6138
1.712,THRUST_SEARCH,OPEN_LOOP,0.0167,0.01675,0.01548,0.01675,0.0,0.00456,0.6142,0.6142,0.6142,,0.67,,False,0.0,0.0,0.0,0.0,0.0,3.0429,-21.6167,0.003,True,False,Mode(963497464),0.2413,32,0.6138
1.723,THRUST_SEARCH,OPEN_LOOP,0.0166,0.01658,0.01433,0.01658,0.0,0.00368,0.6145,0.6145,0.6145,,0.67,,False,0.0,0.0,0.0,0.0,0.0,3.0429,-21.7332,0.0045,True,False,Mode(963497464),0.2518,32,0.6138
1.734,THRUST_SEARCH,OPEN_LOOP,0.0164,0.01639,0.01396,0.01639,0.0,0.00273,0.6147,0.6147,0.6147,,0.67,,False,0.0,0.0,0.0,0.0,0.0,3.0429,-22.0918,0.001,True,False,Mode(963497464),0.2628,32,0.6138
1.745,THRUST_SEARCH,OPEN_LOOP,0.0161,0.01609,0.01257,0.01609,0.0,0.00135,0.6149,0.6149,0.6149,,0.67,,False,0.0,0.0,0.0,0.0,0.0,3.0429,-22.2523,0.003,True,True,Mode(963497464),0.2738,32,0.6138
1.756,THRUST_SEARCH,OPEN_LOOP,0.0157,0.0157,0.0114,0.0157,0.0,-0.00034,0.6151,0.6151,0.6151,,0.67,,False,0.0,0.0,0.0,0.0,0.0,3.0429,-22.3724,0.005,True,False,Mode(963497464),0.2847,33,0.6149
1.767,THRUST_SEARCH,OPEN_LOOP,0.0152,0.01521,0.01011,0.01521,0.0,-0.00234,0.6153,0.6153,0.6153,,0.67,,False,0.0,0.0,0.0,0.0,0.0,3.0429,-22.6387,0.001,True,False,Mode(963497464),0.2957,33,0.6149
1.777,THRUST_SEARCH,OPEN_LOOP,0.0147,0.01471,0.00961,0.01471,0.0,-0.00433,0.6155,0.6155,0.6155,,0.67,,False,0.0,0.0,0.0,0.0,0.0,3.0429,-22.9004,0.003,True,False,Mode(963497464),0.3062,33,0.6149
1.788,THRUST_SEARCH,OPEN_LOOP,0.0142,0.01416,0.00886,0.01416,0.0,-0.00639,0.6158,0.6158,0.6158,,0.67,,False,0.0,0.0,0.0,0.0,0.0,3.0429,-23.1941,0.0044,True,False,Mode(963497464),0.3166,33,0.6149
1.799,THRUST_SEARCH,OPEN_LOOP,0.0136,0.01362,0.00853,0.01362,0.0,-0.00837,0.616,0.616,0.616,,0.67,,False,0.0,0.0,0.0,0.0,0.0,3.0429,-23.5267,0.006,True,True,Mode(963497464),0.3275,33,0.6149
1.809,THRUST_SEARCH,OPEN_LOOP,0.013,0.013,0.00736,0.013,0.0,-0.01056,0.6162,0.6162,0.6162,,0.67,,False,0.0,0.0,0.0,0.0,0.0,3.0429,-24.3233,0.0015,True,False,Mode(963497464),0.338,34,0.616
1.82,THRUST_SEARCH,OPEN_LOOP,0.0123,0.01232,0.00627,0.01232,0.0,-0.01291,0.6164,0.6164,0.6164,,0.67,,False,0.0,0.0,0.0,0.0,0.0,3.0429,-24.832,0.003,True,False,Mode(963497464),0.349,34,0.616
1.831,THRUST_SEARCH,OPEN_LOOP,0.0116,0.01161,0.0055,0.01161,0.0,-0.01528,0.6166,0.6166,0.6166,,0.67,,False,0.0,0.0,0.0,0.0,0.0,3.0429,-25.3906,0.0045,True,False,Mode(963497464),0.3595,34,0.616
1.841,THRUST_SEARCH,OPEN_LOOP,0.0109,0.01092,0.00528,0.01092,0.0,-0.01746,0.6168,0.6168,0.6168,,0.67,,False,0.0,0.0,0.0,0.0,0.0,3.0429,-25.8182,0.0068,True,False,Mode(963497464),0.3702,34,0.616
1.852,THRUST_SEARCH,OPEN_LOOP,0.0104,0.01038,0.00665,0.01038,0.0,-0.01891,0.617,0.617,0.617,,0.67,,False,0.0,0.0,0.0,0.0,0.0,3.0429,-26.1814,0.003,True,True,Mode(963497464),0.3812,34,0.616
1.863,THRUST_SEARCH,OPEN_LOOP,0.0098,0.0098,0.00589,0.0098,0.0,-0.02043,0.6173,0.6173,0.6173,,0.67,,False,0.0,0.0,0.0,0.0,0.0,3.0429,-26.2176,0.005,True,False,Mode(963497464),0.3921,35,0.617
1.874,THRUST_SEARCH,OPEN_LOOP,0.0093,0.00926,0.00585,0.00926,0.0,-0.02175,0.6175,0.6175,0.6175,,0.67,,False,0.0,0.0,0.0,0.0,0.0,3.0429,-26.2685,0.007,True,False,Mode(963497464),0.4031,35,0.617
1.885,THRUST_SEARCH,OPEN_LOOP,0.0088,0.00875,0.0059,0.00875,0.0,-0.02286,0.6177,0.6177,0.6177,,0.67,,False,0.0,0.0,0.0,0.0,0.0,3.0429,-26.3928,0.009,True,False,Mode(963497464),0.4141,35,0.617
1.896,THRUST_SEARCH,OPEN_LOOP,0.0082,0.00816,0.00451,0.00816,0.0,-0.02428,0.6179,0.6179,0.6179,,0.67,,False,0.0,0.0,0.0,0.0,0.0,3.0429,-26.9976,0.005,True,False,Mode(963497464),0.4251,35,0.617
1.907,THRUST_SEARCH,OPEN_LOOP,0.0076,0.00762,0.0047,0.00762,0.0,-0.02542,0.6181,0.6181,0.6181,,0.67,,False,0.0,0.0,0.0,0.0,0.0,3.0429,-27.4575,0.0069,True,True,Mode(963497464),0.436,35,0.617
1.918,THRUST_SEARCH,OPEN_LOOP,0.0071,0.00713,0.00489,0.00713,0.0,-0.02629,0.6184,0.6184,0.6184,,0.67,,False,0.0,0.0,0.0,0.0,0.0,3.0429,-27.9261,0.009,True,False,Mode(963497464),0.4469,36,0.6181
1.929,THRUST_SEARCH,OPEN_LOOP,0.0068,0.00676,0.00586,0.00676,0.0,-0.02664,0.6186,0.6186,0.6186,,0.67,,False,0.0,0.0,0.0,0.0,0.0,3.0429,-28.5873,0.004,True,False,Mode(963497464),0.4579,36,0.6181
1.94,THRUST_SEARCH,OPEN_LOOP,0.0064,0.00638,0.00554,0.00638,0.0,-0.02697,0.6188,0.6188,0.6188,,0.67,,False,0.0,0.0,0.0,0.0,0.0,3.0429,-28.6699,0.006,True,False,Mode(963497464),0.4689,36,0.6181
1.951,THRUST_SEARCH,OPEN_LOOP,0.0061,0.00606,0.00582,0.00606,0.0,-0.02707,0.619,0.619,0.619,,0.67,,False,0.0,0.0,0.0,0.0,0.0,3.0429,-28.6637,0.008,True,False,Mode(963497464),0.4799,36,0.6181
1.961,THRUST_SEARCH,OPEN_LOOP,0.0058,0.00578,0.00579,0.00579,0.0,-0.02706,0.6192,0.6192,0.6192,,0.67,,False,0.0,0.0,0.0,0.0,0.0,3.0429,-28.7768,0.004,True,True,Mode(963497464),0.4904,36,0.6181
1.973,THRUST_SEARCH,OPEN_LOOP,0.0054,0.00544,0.00512,0.00544,0.0,-0.02719,0.6195,0.6195,0.6195,,0.67,,False,0.0,0.0,0.0,0.0,0.0,3.0429,-28.9235,0.007,True,False,Mode(963497464),0.5019,37,0.6192
1.984,THRUST_SEARCH,OPEN_LOOP,0.0052,0.00516,0.00541,0.00541,0.0,-0.02709,0.6197,0.6197,0.6197,,0.67,,False,0.0,0.0,0.0,0.0,0.0,3.0429,-29.0768,0.009,True,False,Mode(963497464),0.5129,37,0.6192
1.995,THRUST_SEARCH,OPEN_LOOP,0.0051,0.00508,0.00733,0.00733,0.0,-0.02621,0.6199,0.6199,0.6199,,0.67,,False,0.0,0.0,0.0,0.0,0.0,3.0429,-29.036,0.002,True,False,Mode(963497464),0.5238,37,0.6192
2.006,THRUST_SEARCH,OPEN_LOOP,0.005,0.00502,0.00748,0.00748,0.0,-0.02525,0.6201,0.6201,0.6201,,0.67,,False,0.0,0.0,0.0,0.0,0.0,3.0429,-28.8546,0.004,True,False,Mode(963497464),0.5348,37,0.6192
2.017,THRUST_SEARCH,OPEN_LOOP,0.005,0.00497,0.00727,0.00727,0.0,-0.02434,0.6203,0.6203,0.6203,,0.67,,False,0.0,0.0,0.0,0.0,0.0,3.0429,-28.2564,0.0,True,True,Mode(963497464),0.5458,37,0.6192
2.027,THRUST_SEARCH,OPEN_LOOP,0.005,0.00497,0.00768,0.00768,0.0,-0.02328,0.6205,0.6205,0.6205,,0.67,,False,0.0,0.0,0.0,0.0,0.0,3.0429,-28.003,0.0015,True,False,Mode(963497464),0.5563,38,0.6203
2.038,THRUST_SEARCH,OPEN_LOOP,0.0049,0.0049,0.00674,0.00674,0.0,-0.02256,0.6208,0.6208,0.6208,,0.67,,False,0.0,0.0,0.0,0.0,0.0,3.0429,-27.8668,0.0025,True,False,Mode(963497464),0.5667,38,0.6203
2.048,THRUST_SEARCH,OPEN_LOOP,0.0048,0.00483,0.00667,0.00667,0.0,-0.02185,0.621,0.621,0.621,,0.67,,False,0.0,0.0,0.0,0.0,0.0,3.0429,-27.8582,0.006,True,False,Mode(963497464),0.5772,38,0.6203
2.059,THRUST_SEARCH,OPEN_LOOP,0.0048,0.00483,0.00722,0.00722,0.0,-0.02092,0.6212,0.6212,0.6212,,0.67,,False,0.0,0.0,0.0,0.0,0.0,3.0429,-28.0203,0.0075,True,False,Mode(963497464),0.5877,38,0.6203
2.07,THRUST_SEARCH,OPEN_LOOP,0.0049,0.00489,0.00796,0.00796,0.0,-0.01973,0.6214,0.6214,0.6214,,0.67,,False,0.0,0.0,0.0,0.0,0.0,3.0429,-28.4521,0.004,True,True,Mode(963497464),0.5987,38,0.6203
2.081,THRUST_SEARCH,OPEN_LOOP,0.0049,0.00492,0.00761,0.00761,0.0,-0.01869,0.6216,0.6216,0.6216,,0.67,,False,0.0,0.0,0.0,0.0,0.0,3.0429,-28.7068,0.006,True,False,Mode(963497464),0.6096,39,0.6214
2.092,THRUST_SEARCH,OPEN_LOOP,0.005,0.00495,0.00746,0.00746,0.0,-0.01771,0.6218,0.6218,0.6218,,0.67,,False,0.0,0.0,0.0,0.0,0.0,3.0429,-28.9427,0.008,True,False,Mode(963497464),0.6206,39,0.6214
2.103,THRUST_SEARCH,OPEN_LOOP,0.005,0.00501,0.00768,0.00768,0.0,-0.01667,0.6221,0.6221,0.6221,,0.67,,False,0.0,0.0,0.0,0.0,0.0,3.0429,-29.1979,0.001,True,False,Mode(963497464),0.6316,39,0.6214
2.114,THRUST_SEARCH,OPEN_LOOP,0.0051,0.00513,0.00841,0.00841,0.0,-0.0154,0.6223,0.6223,0.6223,,0.67,,False,0.0,0.0,0.0,0.0,0.0,3.0429,-29.1619,0.006,True,False,Mode(963497464),0.6426,39,0.6214
2.126,THRUST_SEARCH,OPEN_LOOP,0.0053,0.00527,0.00855,0.00855,0.0,-0.01412,0.6225,0.6225,0.6225,,0.67,,False,0.0,0.0,0.0,0.0,0.0,3.0429,-29.1436,0.008,True,True,Mode(963497464),0.6535,39,0.6214
2.136,THRUST_SEARCH,OPEN_LOOP,0.0056,0.00559,0.01064,0.01064,0.0,-0.01215,0.6227,0.6227,0.6227,,0.67,,False,0.0,0.0,0.0,0.0,0.0,3.0429,-29.3531,0.003,True,False,Mode(963497464),0.6645,40,0.6225
2.146,THRUST_SEARCH,OPEN_LOOP,0.006,0.00602,0.01185,0.01185,0.0,-0.00988,0.6229,0.6229,0.6229,,0.67,,False,0.0,0.0,0.0,0.0,0.0,3.0429,-29.4311,0.0045,True,False,Mode(963497464),0.675,40,0.6225
2.157,THRUST_SEARCH,OPEN_LOOP,0.0063,0.00631,0.0106,0.0106,0.0,-0.00821,0.6231,0.6231,0.6231,,0.67,,False,0.0,0.0,0.0,0.0,0.0,3.0429,-29.6703,0.007,True,False,Mode(963497464),0.6859,40,0.6225
2.168,THRUST_SEARCH,OPEN_LOOP,0.0066,0.00663,0.01104,0.01104,0.0,-0.00649,0.6234,0.6234,0.6234,,0.67,,False,0.0,0.0,0.0,0.0,0.0,3.0429,-29.9377,0.009,True,False,Mode(963497464),0.6974,40,0.6225
2.179,THRUST_SEARCH,OPEN_LOOP,0.007,0.00703,0.01195,0.01195,0.0,-0.00456,0.6236,0.6236,0.6236,,0.67,,False,0.0,0.0,0.0,0.0,0.0,3.0429,-30.2116,0.005,True,True,Mode(963497464),0.7084,40,0.6225
2.19,THRUST_SEARCH,OPEN_LOOP,0.0075,0.00747,0.0127,0.0127,0.0,-0.00251,0.6238,0.6238,0.6238,,0.67,,False,0.0,0.0,0.0,0.0,0.0,3.0429,-30.2486,0.0069,True,False,Mode(963497464),0.7193,41,0.6236
2.201,THRUST_SEARCH,OPEN_LOOP,0.0079,0.00794,0.01323,0.01323,0.0,-0.00044,0.624,0.624,0.624,,0.67,,False,0.0,0.0,0.0,0.0,0.0,3.0429,-30.2439,0.009,True,False,Mode(963497464),0.7303,41,0.6236
2.212,THRUST_SEARCH,OPEN_LOOP,0.0085,0.00853,0.01474,0.01474,0.0,0.00199,0.6242,0.6242,0.6242,,0.67,,False,0.0,0.0,0.0,0.0,0.0,3.0429,-30.2981,0.0045,True,False,Mode(963497464),0.7408,41,0.6236
2.223,THRUST_SEARCH,OPEN_LOOP,0.009,0.00901,0.01388,0.01388,0.0,0.00389,0.6245,0.6245,0.6245,,0.67,,False,0.0,0.0,0.0,0.0,0.0,3.0429,-30.3631,0.004,True,False,Mode(963497464),0.7518,41,0.6236
2.234,THRUST_SEARCH,OPEN_LOOP,0.0095,0.00948,0.01398,0.01398,0.0,0.00565,0.6247,0.6247,0.6247,,0.67,,False,0.0,0.0,0.0,0.0,0.0,3.0429,-30.6073,0.001,True,True,Mode(963497464),0.7632,41,0.6236
2.245,THRUST_SEARCH,OPEN_LOOP,0.01,0.00995,0.0143,0.0143,0.0,0.00736,0.6249,0.6249,0.6249,,0.67,,False,0.0,0.0,0.0,0.0,0.0,3.0429,-30.7436,0.003,True,False,Mode(963497464),0.7742,42,0.6247
2.256,THRUST_SEARCH,OPEN_LOOP,0.0104,0.01041,0.01445,0.01445,0.0,0.00894,0.6251,0.6251,0.6251,,0.67,,False,0.0,0.0,0.0,0.0,0.0,3.0429,-30.8333,0.0045,True,False,Mode(963497464),0.7847,42,0.6247
2.267,THRUST_SEARCH,OPEN_LOOP,0.0109,0.01094,0.01554,0.01554,0.0,0.01074,0.6253,0.6253,0.6253,,0.67,,False,0.0,0.0,0.0,0.0,0.0,3.0429,-30.8356,0.001,True,False,Mode(963497464),0.7957,42,0.6247
2.278,THRUST_SEARCH,OPEN_LOOP,0.0115,0.01149,0.016,0.016,0.0,0.01251,0.6256,0.6256,0.6256,,0.67,,False,0.0,0.0,0.0,0.0,0.0,3.0429,-30.7229,0.002,True,False,Mode(963497464),0.8066,42,0.6247
2.289,THRUST_SEARCH,OPEN_LOOP,0.012,0.01199,0.01583,0.01583,0.0,0.01401,0.6258,0.6258,0.6258,,0.67,,False,0.0,0.0,0.0,0.0,0.0,3.0429,-30.6361,0.004,True,True,Mode(963497464),0.8176,42,0.6247
2.3,THRUST_SEARCH,OPEN_LOOP,0.0124,0.01241,0.01512,0.01512,0.0,0.01508,0.626,0.626,0.626,,0.67,,False,0.0,0.0,0.0,0.0,0.0,3.0429,-30.5835,0.0068,True,False,Mode(963497464),0.8289,43,0.6258
2.311,THRUST_SEARCH,OPEN_LOOP,0.0128,0.0128,0.01518,0.01518,0.0,0.01602,0.6262,0.6262,0.6262,,0.67,,False,0.0,0.0,0.0,0.0,0.0,3.0429,-30.7419,0.003,True,False,Mode(963497464),0.8399,43,0.6258
2.321,THRUST_SEARCH,OPEN_LOOP,0.0131,0.01311,0.0146,0.0146,0.0,0.0166,0.6264,0.6264,0.6264,,0.67,,False,0.0,0.0,0.0,0.0,0.0,3.0429,-30.9603,0.0045,True,False,Mode(963497464),0.8504,43,0.6258
2.332,THRUST_SEARCH,OPEN_LOOP,0.0134,0.01345,0.0151,0.0151,0.0,0.01725,0.6266,0.6266,0.6266,,0.67,,False,0.0,0.0,0.0,0.0,0.0,3.0429,-31.1053,0.006,True,False,Mode(963497464),0.8613,43,0.6258
2.343,THRUST_SEARCH,OPEN_LOOP,0.0138,0.01382,0.01578,0.01578,0.0,0.01802,0.6269,0.6269,0.6269,,0.67,,False,0.0,0.0,0.0,0.0,0.0,3.0429,-31.2731,0.002,True,True,Mode(963497464),0.8723,43,0.6258
2.354,THRUST_SEARCH,OPEN_LOOP,0.0142,0.01417,0.01574,0.01574,0.0,0.01863,0.6271,0.6271,0.6271,,0.67,,False,0.0,0.0,0.0,0.0,0.0,3.0429,-31.3836,0.004,True,False,Mode(963497464),0.8833,44,0.6269
2.365,THRUST_SEARCH,OPEN_LOOP,0.0144,0.0144,0.01468,0.01468,0.0,0.01874,0.6273,0.6273,0.6273,,0.67,,False,0.0,0.0,0.0,0.0,0.0,3.0429,-31.4782,0.006,True,False,Mode(963497464),0.8942,44,0.6269
2.376,THRUST_SEARCH,OPEN_LOOP,0.0146,0.01457,0.01426,0.01457,0.0,0.01862,0.6275,0.6275,0.6275,,0.67,,False,0.0,0.0,0.0,0.0,0.0,3.0429,-31.7046,0.002,True,False,Mode(963497464),0.9052,44,0.6269
2.387,THRUST_SEARCH,OPEN_LOOP,0.0148,0.01481,0.01512,0.01512,0.0,0.01874,0.6277,0.6277,0.6277,,0.67,,False,0.0,0.0,0.0,0.0,0.0,3.0429,-31.8462,0.0036,True,False,Mode(963497464),0.9161,44,0.6269
2.398,THRUST_SEARCH,OPEN_LOOP,0.015,0.01504,0.01529,0.01529,0.0,0.01884,0.628,0.628,0.628,,0.67,,False,0.0,0.0,0.0,0.0,0.0,3.0429,-31.9275,0.006,True,True,Mode(963497464),0.927,44,0.6269
2.409,THRUST_SEARCH,OPEN_LOOP,0.0152,0.01522,0.01496,0.01522,0.0,0.01874,0.6282,0.6282,0.6282,,0.67,,False,0.0,0.0,0.0,0.0,0.0,3.0429,-31.9228,0.008,True,False,Mode(963497464),0.938,45,0.628
2.42,THRUST_SEARCH,OPEN_LOOP,0.0155,0.01546,0.0159,0.0159,0.0,0.01892,0.6284,0.6284,0.6284,,0.67,,False,0.0,0.0,0.0,0.0,0.0,3.0429,-31.8635,0.004,True,False,Mode(963497464),0.9486,45,0.628
2.43,THRUST_SEARCH,OPEN_LOOP,0.0157,0.01566,0.01573,0.01573,0.0,0.01894,0.6286,0.6286,0.6286,,0.67,,False,0.0,0.0,0.0,0.0,0.0,3.0429,-31.9411,0.006,True,False,Mode(963497464),0.959,45,0.628
2.441,THRUST_SEARCH,OPEN_LOOP,0.0158,0.01578,0.01487,0.01578,0.0,0.01859,0.6288,0.6288,0.6288,,0.67,,False,0.0,0.0,0.0,0.0,0.0,3.0429,-32.0339,0.008,True,False,Mode(963497464),0.97,45,0.628
2.452,THRUST_SEARCH,OPEN_LOOP,0.0159,0.0159,0.01501,0.0159,0.0,0.01824,0.629,0.629,0.629,,0.67,,False,0.0,0.0,0.0,0.0,0.0,3.0429,-32.2541,0.001,True,True,Mode(963497464),0.981,45,0.628
2.463,THRUST_SEARCH,OPEN_LOOP,0.016,0.01601,0.01506,0.01601,0.0,0.01787,0.6293,0.6293,0.6293,,0.67,,False,0.0,0.0,0.0,0.0,0.0,3.0429,-32.3417,0.003,True,False,Mode(963497464),0.9919,46,0.629
2.474,THRUST_SEARCH,OPEN_LOOP,0.0161,0.0161,0.0149,0.0161,0.0,0.0174,0.6295,0.6295,0.6295,,0.67,,False,0.0,0.0,0.0,0.0,0.0,3.0429,-32.3076,0.008,True,False,Mode(963497464),1.0029,46,0.629
2.484,THRUST_SEARCH,OPEN_LOOP,0.0162,0.0162,0.01537,0.0162,0.0,0.01708,0.6297,0.6297,0.6297,,0.67,,False,0.0,0.0,0.0,0.0,0.0,3.0429,-32.1729,0.009,True,False,Mode(963497464),0.0,46,0.629
2.495,THRUST_SEARCH,OPEN_LOOP,0.0163,0.01633,0.01573,0.01633,0.0,0.01685,0.6299,0.6299,0.6299,,0.67,,False,0.0,0.0,0.0,0.0,0.0,3.0429,-31.9498,0.004,True,False,Mode(963497464),0.011,46,0.629
2.506,THRUST_SEARCH,OPEN_LOOP,0.0163,0.01632,0.01429,0.01632,0.0,0.01606,0.6301,0.6301,0.6301,,0.67,,False,0.0,0.0,0.0,0.0,0.0,3.0429,-31.9953,0.006,True,True,Mode(963497464),0.0215,46,0.629
2.517,THRUST_SEARCH,OPEN_LOOP,0.0163,0.01626,0.01371,0.01626,0.0,0.01507,0.6303,0.6303,0.6303,,0.67,,False,0.0,0.0,0.0,0.0,0.0,3.0429,-32.1611,0.008,True,False,Mode(963497464),0.0324,47,0.6301
2.527,THRUST_SEARCH,OPEN_LOOP,0.0162,0.01622,0.01417,0.01622,0.0,0.01427,0.6305,0.6305,0.6305,,0.67,,False,0.0,0.0,0.0,0.0,0.0,3.0429,-32.7409,0.003,True,False,Mode(963497464),0.0428,47,0.6301
2.538,THRUST_SEARCH,OPEN_LOOP,0.0161,0.01612,0.01344,0.01612,0.0,0.01323,0.6308,0.6308,0.6308,,0.67,,False,0.0,0.0,0.0,0.0,0.0,3.0429,-32.9011,0.005,True,False,Mode(963497464),0.0538,47,0.6301
2.549,THRUST_SEARCH,OPEN_LOOP,0.016,0.01599,0.01303,0.01599,0.0,0.01208,0.631,0.631,0.631,,0.67,,False,0.0,0.0,0.0,0.0,0.0,3.0429,-32.9087,0.006,True,False,Mode(963497464),0.0648,47,0.6301
2.561,THRUST_SEARCH,OPEN_LOOP,0.0159,0.0159,0.01349,0.0159,0.0,0.01115,0.6312,0.6312,0.6312,,0.67,,False,0.0,0.0,0.0,0.0,0.0,3.0429,-32.6898,0.0004,True,True,Mode(963497464),0.0756,47,0.6301
2.571,THRUST_SEARCH,OPEN_LOOP,0.0158,0.01576,0.01309,0.01576,0.0,0.01011,0.6314,0.6314,0.6314,,0.67,,False,0.0,0.0,0.0,0.0,0.0,3.0429,-32.6977,0.002,True,False,Mode(963497464),0.0862,48,0.6312
2.581,THRUST_SEARCH,OPEN_LOOP,0.0156,0.01558,0.01241,0.01558,0.0,0.00888,0.6316,0.6316,0.6316,,0.67,,False,0.0,0.0,0.0,0.0,0.0,3.0429,-32.9011,0.0045,True,False,Mode(963497464),0.0968,48,0.6312
2.592,THRUST_SEARCH,OPEN_LOOP,0.0153,0.01534,0.01182,0.01534,0.0,0.00752,0.6318,0.6318,0.6318,,0.67,,False,0.0,0.0,0.0,0.0,0.0,3.0429,-33.2361,0.007,True,False,Mode(963497464),0.1078,48,0.6312
2.603,THRUST_SEARCH,OPEN_LOOP,0.0152,0.01517,0.01249,0.01517,0.0,0.00648,0.6321,0.6321,0.6321,,0.67,,False,0.0,0.0,0.0,0.0,0.0,3.0429,-33.8695,0.001,True,False,Mode(963497464),0.1184,48,0.6312
2.614,THRUST_SEARCH,OPEN_LOOP,0.015,0.01498,0.0122,0.01498,0.0,0.0054,0.6323,0.6323,0.6323,,0.67,,False,0.0,0.0,0.0,0.0,0.0,3.0429,-33.9688,0.0061,True,True,Mode(963497464),0.1295,48,0.6312
2.625,THRUST_SEARCH,OPEN_LOOP,0.0149,0.0149,0.01343,0.0149,0.0,0.00483,0.6325,0.6325,0.6325,,0.67,,False,0.0,0.0,0.0,0.0,0.0,3.0429,-33.9099,0.008,True,False,Mode(963497464),0.1404,49,0.6323
2.636,THRUST_SEARCH,OPEN_LOOP,0.0148,0.01483,0.01353,0.01483,0.0,0.00432,0.6327,0.6327,0.6327,,0.67,,False,0.0,0.0,0.0,0.0,0.0,3.0429,-33.9118,0.001,True,False,Mode(963497464),0.1514,49,0.6323
2.647,THRUST_SEARCH,OPEN_LOOP,0.0148,0.01482,0.01413,0.01482,0.0,0.00405,0.6329,0.6329,0.6329,,0.67,,False,0.0,0.0,0.0,0.0,0.0,3.0429,-33.9549,0.003,True,False,Mode(963497464),0.1623,49,0.6323
2.657,THRUST_SEARCH,OPEN_LOOP,0.0148,0.01477,0.01386,0.01477,0.0,0.0037,0.6331,0.6331,0.6331,,0.67,,False,0.0,0.0,0.0,0.0,0.0,3.0429,-34.077,0.0074,True,False,Mode(963497464),0.1727,49,0.6323
2.668,THRUST_SEARCH,OPEN_LOOP,0.015,0.01495,0.01646,0.01646,0.0,0.00428,0.6334,0.6334,0.6334,,0.67,,False,0.0,0.0,0.0,0.0,0.0,3.0429,-34.6354,0.001,True,True,Mode(963497464),0.1836,49,0.6323
2.679,THRUST_SEARCH,OPEN_LOOP,0.0152,0.01519,0.01721,0.01721,0.0,0.00507,0.6336,0.6336,0.6336,,0.67,,False,0.0,0.0,0.0,0.0,0.0,3.0429,-34.9207,0.003,True,False,Mode(963497464),0.1946,50,0.6334
2.69,THRUST_SEARCH,OPEN_LOOP,0.0155,0.01553,0.01849,0.01849,0.0,0.00622,0.6338,0.6338,0.6338,,0.67,,False,0.0,0.0,0.0,0.0,0.0,3.0429,-35.0755,0.005,True,False,Mode(963497464),0.2056,50,0.6334
2.701,THRUST_SEARCH,OPEN_LOOP,0.016,0.01601,0.02043,0.02043,0.0,0.00794,0.634,0.634,0.634,,0.67,,False,0.0,0.0,0.0,0.0,0.0,3.0429,-35.3898,0.001,True,False,Mode(963497464),0.2165,50,0.6334
2.712,THRUST_SEARCH,OPEN_LOOP,0.0165,0.01651,0.02096,0.02096,0.0,0.00967,0.6342,0.6342,0.6342,,0.67,,False,0.0,0.0,0.0,0.0,0.0,3.0429,-35.5748,0.003,True,False,Mode(963497464),0.2275,50,0.6334
2.722,THRUST_SEARCH,OPEN_LOOP,0.017,0.01702,0.02128,0.02128,0.0,0.01133,0.6344,0.6344,0.6344,,0.67,,False,0.0,0.0,0.0,0.0,0.0,3.0429,-35.8315,0.0045,True,True,Mode(963497464),0.238,50,0.6334
2.733,THRUST_SEARCH,OPEN_LOOP,0.0176,0.01756,0.02202,0.02202,0.0,0.01306,0.6347,0.6347,0.6347,,0.67,,False,0.0,0.0,0.0,0.0,0.0,3.0429,-36.1964,0.006,True,False,Mode(963497464),0.249,51,0.6344
2.744,THRUST_SEARCH,OPEN_LOOP,0.0182,0.01822,0.02375,0.02375,0.0,0.01521,0.6349,0.6349,0.6349,,0.67,,False,0.0,0.0,0.0,0.0,0.0,3.0429,-36.8931,0.0008,True,False,Mode(963497464),0.2597,51,0.6344
2.755,THRUST_SEARCH,OPEN_LOOP,0.0189,0.01893,0.02467,0.02467,0.0,0.01745,0.6351,0.6351,0.6351,,0.67,,False,0.0,0.0,0.0,0.0,0.0,3.0429,-37.1157,0.006,True,False,Mode(963497464),0.2707,51,0.6344
2.766,THRUST_SEARCH,OPEN_LOOP,0.0197,0.01972,0.02611,0.02611,0.0,0.01994,0.6353,0.6353,0.6353,,0.67,,False,0.0,0.0,0.0,0.0,0.0,3.0429,-37.2854,0.008,True,False,Mode(963497464),0.2817,51,0.6344
2.777,THRUST_SEARCH,OPEN_LOOP,0.0206,0.02056,0.02725,0.02725,0.0,0.02254,0.6355,0.6355,0.6355,,0.67,,False,0.0,0.0,0.0,0.0,0.0,3.0429,-37.6823,0.001,True,True,Mode(963497464),0.2922,51,0.6344
2.788,THRUST_SEARCH,OPEN_LOOP,0.0214,0.02138,0.02746,0.02746,0.0,0.0249,0.6358,0.6358,0.6358,,0.67,,False,0.0,0.0,0.0,0.0,0.0,3.0429,-38.0214,0.003,True,False,Mode(963497464),0.3032,52,0.6355
2.8,THRUST_SEARCH,OPEN_LOOP,0.0223,0.0223,0.02905,0.02905,0.0,0.02755,0.636,0.636,0.636,,0.67,,False,0.0,0.0,0.0,0.0,0.0,3.0429,-39.1671,0.0,True,False,Mode(963497464),0.3147,52,0.6355
2.81,THRUST_SEARCH,OPEN_LOOP,0.0232,0.02322,0.02993,0.02993,0.0,0.03016,0.6362,0.6362,0.6362,,0.67,,False,0.0,0.0,0.0,0.0,0.0,3.0429,-39.7029,0.0005,True,False,Mode(963497464),0.3251,52,0.6355
2.82,THRUST_SEARCH,OPEN_LOOP,0.0241,0.0241,0.02989,0.02989,0.0,0.03242,0.6364,0.6364,0.6364,,0.67,,False,0.0,0.0,0.0,0.0,0.0,3.0429,-40.0775,0.003,True,False,Mode(963497464),0.3361,52,0.6355
2.831,THRUST_SEARCH,OPEN_LOOP,0.025,0.02505,0.03156,0.03156,0.0,0.03495,0.6366,0.6366,0.6366,,0.67,,False,0.0,0.0,0.0,0.0,0.0,3.0429,-40.33,0.0045,True,True,Mode(963497464),0.3466,52,0.6355
2.842,THRUST_SEARCH,OPEN_LOOP,0.026,0.02599,0.03197,0.03197,0.0,0.03728,0.6368,0.6368,0.6368,,0.67,,False,0.0,0.0,0.0,0.0,0.0,3.0429,-40.5521,0.001,True,False,Mode(963497464),0.3576,53,0.6366
2.853,THRUST_SEARCH,OPEN_LOOP,0.0269,0.02692,0.03236,0.03236,0.0,0.0394,0.6371,0.6371,0.6371,,0.67,,False,0.0,0.0,0.0,0.0,0.0,3.0429,-40.749,0.003,True,False,Mode(963497464),0.3685,53,0.6366
2.864,THRUST_SEARCH,OPEN_LOOP,0.0278,0.02776,0.03215,0.03215,0.0,0.04111,0.6373,0.6373,0.6373,,0.67,,False,0.0,0.0,0.0,0.0,0.0,3.0429,-41.0334,0.005,True,False,Mode(963497464),0.3795,53,0.6366
2.874,THRUST_SEARCH,OPEN_LOOP,0.0286,0.02861,0.03305,0.03305,0.0,0.04284,0.6375,0.6375,0.6375,,0.67,,False,0.0,0.0,0.0,0.0,0.0,3.0429,-41.4998,0.006,True,False,Mode(963497464),0.3899,53,0.6366
2.885,THRUST_SEARCH,OPEN_LOOP,0.0295,0.02947,0.0339,0.0339,0.0,0.04455,0.6377,0.6377,0.6377,,0.67,,False,0.0,0.0,0.0,0.0,0.0,3.0429,-42.3669,0.0015,True,True,Mode(963497464),0.4004,53,0.6366
2.896,THRUST_SEARCH,OPEN_LOOP,0.0304,0.03039,0.035,0.035,0.0,0.04634,0.6379,0.6379,0.6379,,0.67,,False,0.0,0.0,0.0,0.0,0.0,3.0429,-42.6207,0.003,True,False,Mode(963497464),0.4114,54,0.6377
2.907,THRUST_SEARCH,OPEN_LOOP,0.0313,0.03129,0.03542,0.03542,0.0,0.04795,0.6381,0.6381,0.6381,,0.67,,False,0.0,0.0,0.0,0.0,0.0,3.0429,-42.7449,0.005,True,False,Mode(963497464),0.4223,54,0.6377
2.918,THRUST_SEARCH,OPEN_LOOP,0.0321,0.03212,0.0354,0.0354,0.0,0.04922,0.6384,0.6384,0.6384,,0.67,,False,0.0,0.0,0.0,0.0,0.0,3.0429,-42.738,0.001,True,False,Mode(963497464),0.4333,54,0.6377
2.929,THRUST_SEARCH,OPEN_LOOP,0.0329,0.03287,0.03509,0.03509,0.0,0.05009,0.6386,0.6386,0.6386,,0.67,,False,0.0,0.0,0.0,0.0,0.0,3.0429,-42.7752,0.0031,True,False,Mode(963497464),0.4444,54,0.6377
2.939,THRUST_SEARCH,OPEN_LOOP,0.0336,0.03356,0.03545,0.03545,0.0,0.05082,0.6388,0.6388,0.6388,,0.67,,False,0.0,0.0,0.0,0.0,0.0,3.0429,-42.982,0.0044,True,True,Mode(963497464),0.4546,54,0.6377
2.95,THRUST_SEARCH,OPEN_LOOP,0.0343,0.03434,0.03664,0.03664,0.0,0.05171,0.639,0.639,0.639,,0.67,,False,0.0,0.0,0.0,0.0,0.0,3.0429,-43.5839,0.001,True,False,Mode(963497464),0.4656,55,0.6388
2.961,THRUST_SEARCH,OPEN_LOOP,0.035,0.03504,0.03646,0.03646,0.0,0.05226,0.6392,0.6392,0.6392,,0.67,,False,0.0,0.0,0.0,0.0,0.0,3.0429,-43.745,0.003,True,False,Mode(963497464),0.4766,55,0.6388
2.971,THRUST_SEARCH,OPEN_LOOP,0.0358,0.03578,0.03784,0.03784,0.0,0.05306,0.6394,0.6394,0.6394,,0.67,,False,0.0,0.0,0.0,0.0,0.0,3.0429,-43.8048,0.0045,True,False,Mode(963497464),0.487,55,0.6388
2.983,THRUST_SEARCH,OPEN_LOOP,0.0364,0.03644,0.03714,0.03714,0.0,0.05333,0.6397,0.6397,0.6397,,0.67,,False,0.0,0.0,0.0,0.0,0.0,3.0429,-43.7606,0.0073,True,False,Mode(963497464),0.4983,55,0.6388
2.994,THRUST_SEARCH,OPEN_LOOP,0.037,0.037,0.0367,0.037,0.0,0.05322,0.6399,0.6399,0.6399,,0.67,,False,0.0,0.0,0.0,0.0,0.0,3.0429,-43.5617,0.0011,True,True,Mode(963497464),0.5093,55,0.6388
3.005,THRUST_SEARCH,OPEN_LOOP,0.0374,0.03743,0.03579,0.03743,0.0,0.05258,0.6401,0.6401,0.6401,,0.67,,False,0.0,0.0,0.0,0.0,0.0,3.0429,-43.6099,0.003,True,False,Mode(963497464),0.5203,56,0.6399
3.015,THRUST_SEARCH,OPEN_LOOP,0.0379,0.0379,0.03699,0.0379,0.0,0.05223,0.6403,0.6403,0.6403,,0.67,,False,0.0,0.0,0.0,0.0,0.0,3.0429,-43.7794,0.0075,True,False,Mode(963497464),0.5308,56,0.6399
3.026,THRUST_SEARCH,OPEN_LOOP,0.0383,0.03833,0.0368,0.03833,0.0,0.05164,0.6405,0.6405,0.6405,,0.67,,False,0.0,0.0,0.0,0.0,0.0,3.0429,-44.1269,0.001,True,False,Mode(963497464),0.5417,56,0.6399
3.037,THRUST_SEARCH,OPEN_LOOP,0.0388,0.03875,0.03745,0.03875,0.0,0.05113,0.6407,0.6407,0.6407,,0.67,,False,0.0,0.0,0.0,0.0,0.0,3.0429,-44.2751,0.0026,True,False,Mode(963497464),0.5523,56,0.6399
3.048,THRUST_SEARCH,OPEN_LOOP,0.0392,0.03917,0.03746,0.03917,0.0,0.05047,0.641,0.641,0.641,,0.67,,False,0.0,0.0,0.0,0.0,0.0,3.0429,-44.4031,0.006,True,True,Mode(963497464),0.5636,56,0.6399
3.059,THRUST_SEARCH,OPEN_LOOP,0.0395,0.03953,0.03755,0.03953,0.0,0.04969,0.6412,0.6412,0.6412,,0.67,,False,0.0,0.0,0.0,0.0,0.0,3.0429,-44.4807,0.008,True,False,Mode(963497464),0.5746,57,0.641
3.07,THRUST_SEARCH,OPEN_LOOP,0.0397,0.03971,0.03583,0.03971,0.0,0.04817,0.6414,0.6414,0.6414,,0.67,,False,0.0,0.0,0.0,0.0,0.0,3.0429,-44.856,0.004,True,False,Mode(963497464),0.5855,57,0.641
3.08,THRUST_SEARCH,OPEN_LOOP,0.0399,0.03985,0.03593,0.03985,0.0,0.04665,0.6416,0.6416,0.6416,,0.67,,False,0.0,0.0,0.0,0.0,0.0,3.0429,-45.2479,0.006,True,False,Mode(963497464),0.5961,57,0.641
3.091,THRUST_SEARCH,OPEN_LOOP,0.04,0.04005,0.03672,0.04005,0.0,0.04535,0.6418,0.6418,0.6418,,0.67,,False,0.0,0.0,0.0,0.0,0.0,3.0429,-45.6124,0.008,True,False,Mode(963497464),0.607,57,0.641
3.103,THRUST_SEARCH,OPEN_LOOP,0.0402,0.04024,0.03682,0.04024,0.0,0.04401,0.6421,0.6421,0.6421,,0.67,,False,0.0,0.0,0.0,0.0,0.0,3.0429,-46.1294,0.0011,True,True,Mode(963497464),0.6183,57,0.641
3.114,THRUST_SEARCH,OPEN_LOOP,0.0404,0.04044,0.03754,0.04044,0.0,0.04288,0.6423,0.6423,0.6423,,0.67,,False,0.0,0.0,0.0,0.0,0.0,3.0429,-46.2511,0.006,True,False,Mode(963497464),0.6292,58,0.6421
3.125,THRUST_SEARCH,OPEN_LOOP,0.0405,0.04054,0.03657,0.04054,0.0,0.04132,0.6425,0.6425,0.6425,,0.67,,False,0.0,0.0,0.0,0.0,0.0,3.0429,-46.3998,0.008,True,False,Mode(963497464),0.6402,58,0.6421
3.136,THRUST_SEARCH,OPEN_LOOP,0.0406,0.0406,0.03645,0.0406,0.0,0.0397,0.6427,0.6427,0.6427,,0.67,,False,0.0,0.0,0.0,0.0,0.0,3.0429,-46.6082,0.009,True,False,Mode(963497464),0.6512,58,0.6421
3.146,THRUST_SEARCH,OPEN_LOOP,0.0405,0.04051,0.03513,0.04051,0.0,0.0376,0.6429,0.6429,0.6429,,0.67,,False,0.0,0.0,0.0,0.0,0.0,3.0429,-47.1806,0.0045,True,False,Mode(963497464),0.6617,58,0.6421
3.157,THRUST_SEARCH,OPEN_LOOP,0.0405,0.04051,0.03617,0.04051,0.0,0.0359,0.6431,0.6431,0.6431,,0.67,,False,0.0,0.0,0.0,0.0,0.0,3.0429,-47.5853,0.007,True,True,Mode(963497464),0.6727,58,0.6421
3.168,THRUST_SEARCH,OPEN_LOOP,0.0404,0.04043,0.03536,0.04043,0.0,0.03392,0.6434,0.6434,0.6434,,0.67,,False,0.0,0.0,0.0,0.0,0.0,3.0429,-48.2443,0.002,True,False,Mode(963497464),0.6837,59,0.6431
3.179,THRUST_SEARCH,OPEN_LOOP,0.0404,0.04039,0.03623,0.04039,0.0,0.0323,0.6436,0.6436,0.6436,,0.67,,False,0.0,0.0,0.0,0.0,0.0,3.0429,-48.4076,0.003,True,False,Mode(963497464),0.6941,59,0.6431
3.189,THRUST_SEARCH,OPEN_LOOP,0.0402,0.04024,0.03498,0.04024,0.0,0.03026,0.6438,0.6438,0.6438,,0.67,,False,0.0,0.0,0.0,0.0,0.0,3.0429,-48.5662,0.0045,True,False,Mode(963497464),0.7046,59,0.6431
3.2,THRUST_SEARCH,OPEN_LOOP,0.04,0.04003,0.03433,0.04003,0.0,0.02804,0.644,0.644,0.644,,0.67,,False,0.0,0.0,0.0,0.0,0.0,3.0429,-48.6773,0.007,True,False,Mode(963497464),0.7156,59,0.6431
3.211,THRUST_SEARCH,OPEN_LOOP,0.0397,0.03965,0.0324,0.03965,0.0,0.02523,0.6442,0.6442,0.6442,,0.67,,False,0.0,0.0,0.0,0.0,0.0,3.0429,-49.0858,0.003,True,True,Mode(963497464),0.7261,59,0.6431
3.221,THRUST_SEARCH,OPEN_LOOP,0.0393,0.03933,0.03303,0.03933,0.0,0.0228,0.6444,0.6444,0.6444,,0.67,,False,0.0,0.0,0.0,0.0,0.0,3.0429,-49.308,0.0045,True,False,Mode(963497464),0.7365,60,0.6442
3.232,THRUST_SEARCH,OPEN_LOOP,0.039,0.03898,0.03266,0.03898,0.0,0.02036,0.6446,0.6446,0.6446,,0.67,,False,0.0,0.0,0.0,0.0,0.0,3.0429,-49.453,0.0068,True,False,Mode(963497464),0.7473,60,0.6442
3.243,THRUST_SEARCH,OPEN_LOOP,0.0387,0.03865,0.03273,0.03865,0.0,0.01806,0.6449,0.6449,0.6449,,0.67,,False,0.0,0.0,0.0,0.0,0.0,3.0429,-49.4731,0.009,True,False,Mode(963497464),0.7583,60,0.6442
3.254,THRUST_SEARCH,OPEN_LOOP,0.0383,0.03832,0.03265,0.03832,0.0,0.01587,0.6451,0.6451,0.6451,,0.67,,False,0.0,0.0,0.0,0.0,0.0,3.0429,-49.325,0.002,True,False,Mode(963497464),0.7693,60,0.6442
3.265,THRUST_SEARCH,OPEN_LOOP,0.0379,0.03793,0.03187,0.03793,0.0,0.0135,0.6453,0.6453,0.6453,,0.67,,False,0.0,0.0,0.0,0.0,0.0,3.0429,-49.3347,0.0074,True,True,Mode(963497464),0.7807,60,0.6442
3.276,THRUST_SEARCH,OPEN_LOOP,0.0373,0.03734,0.02952,0.03734,0.0,0.01046,0.6455,0.6455,0.6455,,0.67,,False,0.0,0.0,0.0,0.0,0.0,3.0429,-49.6713,0.001,True,False,Mode(963497464),0.7916,61,0.6453
3.287,THRUST_SEARCH,OPEN_LOOP,0.0368,0.03684,0.03031,0.03684,0.0,0.00791,0.6457,0.6457,0.6457,,0.67,,False,0.0,0.0,0.0,0.0,0.0,3.0429,-49.9576,0.003,True,False,Mode(963497464),0.8026,61,0.6453
3.298,THRUST_SEARCH,OPEN_LOOP,0.0363,0.03633,0.03005,0.03633,0.0,0.00545,0.646,0.646,0.646,,0.67,,False,0.0,0.0,0.0,0.0,0.0,3.0429,-50.248,0.005,True,False,Mode(963497464),0.8136,61,0.6453
3.309,THRUST_SEARCH,OPEN_LOOP,0.0358,0.03581,0.02967,0.03581,0.0,0.00305,0.6462,0.6462,0.6462,,0.67,,False,0.0,0.0,0.0,0.0,0.0,3.0429,-50.4712,0.001,True,False,Mode(963497464),0.8246,61,0.6453
3.32,THRUST_SEARCH,OPEN_LOOP,0.0353,0.0353,0.02949,0.0353,0.0,0.00077,0.6464,0.6464,0.6464,,0.67,,False,0.0,0.0,0.0,0.0,0.0,3.0429,-50.5288,0.003,True,True,Mode(963497464),0.8356,61,0.6453
3.331,THRUST_SEARCH,OPEN_LOOP,0.0346,0.03464,0.02758,0.03464,0.0,-0.00199,0.6466,0.6466,0.6466,,0.67,,False,0.0,0.0,0.0,0.0,0.0,3.0429,-50.6171,0.004,True,False,Mode(963497464),0.8465,62,0.6464
3.343,THRUST_SEARCH,OPEN_LOOP,0.0339,0.0339,0.02637,0.0339,0.0,-0.00494,0.6469,0.6469,0.6469,,0.67,,False,0.0,0.0,0.0,0.0,0.0,3.0429,-51.1806,0.0009,True,False,Mode(963497464),0.8584,62,0.6464
3.352,THRUST_SEARCH,OPEN_LOOP,0.0332,0.03322,0.02649,0.03322,0.0,-0.00757,0.647,0.647,0.647,,0.67,,False,0.0,0.0,0.0,0.0,0.0,3.0429,-51.663,0.0015,True,False,Mode(963497464),0.868,62,0.6464
