time,state,controller_mode,target_z,curr_z,raw_z,height_for_safety,target_vz,curr_vz,thrust,raw_thrust,search_thrust,liftoff_thrust,hover_thrust_est,thrust_no_floor,floor_applied,a_cmd_z,v_cmd_z,z_integral,roll_cmd_deg,pitch_cmd_deg,yaw_cmd_deg,yaw_mocap_deg,mocap_age,kf_used_measurement,mavlink_sent,mav_mode,mav_heartbeat_age,mav_send_count,mav_last_thrust
0.001,THRUST_SEARCH,OPEN_LOOP,0.0,1e-05,0.0,1e-05,0.0,-0.0,0.58,0.58,0.58,,0.67,,False,0.0,0.0,0.0,0.0,0.0,-174.5653,-174.5511,0.007,True,True,Mode(963497464),0.0,0,
0.01,THRUST_SEARCH,OPEN_LOOP,0.0001,6e-05,0.00011,0.00011,0.0,0.00015,0.5802,0.5802,0.5802,,0.67,,False,0.0,0.0,0.0,0.0,0.0,-174.5653,-174.5631,0.0015,True,False,Mode(963497464),0.0105,1,0.58
0.022,THRUST_SEARCH,OPEN_LOOP,0.0001,8e-05,0.00011,0.00011,0.0,0.00029,0.5804,0.5804,0.5804,,0.67,,False,0.0,0.0,0.0,0.0,0.0,-174.5653,-174.5681,0.0031,True,False,Mode(963497464),0.0,1,0.58
0.032,THRUST_SEARCH,OPEN_LOOP,0.0,5e-05,-2e-05,5e-05,0.0,-7e-05,0.5806,0.5806,0.5806,,0.67,,False,0.0,0.0,0.0,0.0,0.0,-174.5653,-174.5653,0.004,True,False,Mode(963497464),0.0109,1,0.58
0.043,THRUST_SEARCH,OPEN_LOOP,0.0,2e-05,-5e-05,2e-05,0.0,-0.00047,0.5809,0.5809,0.5809,,0.67,,False,0.0,0.0,0.0,0.0,0.0,-174.5653,-174.5636,0.009,True,False,Mode(963497464),0.0213,1,0.58
0.053,THRUST_SEARCH,OPEN_LOOP,0.0,0.0,-4e-05,0.0,0.0,-0.00072,0.5811,0.5811,0.5811,,0.67,,False,0.0,0.0,0.0,0.0,0.0,-174.5653,-174.5547,0.0015,True,True,Mode(963497464),0.0319,1,0.58
0.064,THRUST_SEARCH,OPEN_LOOP,-0.0,-0.0,1e-05,1e-05,0.0,-0.00065,0.5813,0.5813,0.5813,,0.67,,False,0.0,0.0,0.0,0.0,0.0,-174.5653,-174.5622,0.003,True,False,Mode(963497464),0.0428,2,0.5811
0.075,THRUST_SEARCH,OPEN_LOOP,-0.0,-0.0,2e-05,2e-05,0.0,-0.00053,0.5815,0.5815,0.5815,,0.67,,False,0.0,0.0,0.0,0.0,0.0,-174.5653,-174.5586,0.0075,True,False,Mode(963497464),0.0533,2,0.5811
0.086,THRUST_SEARCH,OPEN_LOOP,-0.0,-0.0,2e-05,2e-05,0.0,-0.00044,0.5817,0.5817,0.5817,,0.67,,False,0.0,0.0,0.0,0.0,0.0,-174.5653,-174.5589,0.001,True,False,Mode(963497464),0.0643,2,0.5811
0.097,THRUST_SEARCH,OPEN_LOOP,0.0,2e-05,7e-05,7e-05,0.0,-0.00017,0.5819,0.5819,0.5819,,0.67,,False,0.0,0.0,0.0,0.0,0.0,-174.5653,-174.5653,0.003,True,False,Mode(963497464),0.0753,2,0.5811
0.107,THRUST_SEARCH,OPEN_LOOP,-0.0,-1e-05,-8e-05,-1e-05,0.0,-0.00046,0.5821,0.5821,0.5821,,0.67,,False,0.0,0.0,0.0,0.0,0.0,-174.5653,-174.5643,0.0045,True,True,Mode(963497464),0.0857,2,0.5811
0.118,THRUST_SEARCH,OPEN_LOOP,0.0,0.0,6e-05,6e-05,0.0,-0.00025,0.5824,0.5824,0.5824,,0.67,,False,0.0,0.0,0.0,0.0,0.0,-174.5653,-174.5787,0.001,True,False,Mode(963497464),0.0967,3,0.5821
0.129,THRUST_SEARCH,OPEN_LOOP,0.0,2e-05,6e-05,6e-05,0.0,-9e-05,0.5826,0.5826,0.5826,,0.67,,False,0.0,0.0,0.0,0.0,0.0,-174.5653,-174.5802,0.003,True,False,Mode(963497464),0.1077,3,0.5821
0.14,THRUST_SEARCH,OPEN_LOOP,0.0,1e-05,-1e-05,1e-05,0.0,-0.00016,0.5828,0.5828,0.5828,,0.67,,False,0.0,0.0,0.0,0.0,0.0,-174.5653,-174.5752,0.0045,True,False,Mode(963497464),0.1182,3,0.5821
0.151,THRUST_SEARCH,OPEN_LOOP,0.0,2e-05,6e-05,6e-05,0.0,-5e-05,0.583,0.583,0.583,,0.67,,False,0.0,0.0,0.0,0.0,0.0,-174.5653,-174.5726,0.007,True,False,Mode(963497464),0.1291,3,0.5821
0.162,THRUST_SEARCH,OPEN_LOOP,0.0,3e-05,7e-05,7e-05,0.0,5e-05,0.5832,0.5832,0.5832,,0.67,,False,0.0,0.0,0.0,0.0,0.0,-174.5653,-174.5776,0.009,True,True,Mode(963497464),0.1396,3,0.5821
0.172,THRUST_SEARCH,OPEN_LOOP,0.0,1e-05,-6e-05,1e-05,0.0,-0.0001,0.5834,0.5834,0.5834,,0.67,,False,0.0,0.0,0.0,0.0,0.0,-174.5653,-174.5665,0.0045,True,False,Mode(963497464),0.1501,4,0.5832
0.183,THRUST_SEARCH,OPEN_LOOP,0.0,2e-05,7e-05,7e-05,0.0,0.0,0.5837,0.5837,0.5837,,0.67,,False,0.0,0.0,0.0,0.0,0.0,-174.5653,-174.5687,0.007,True,False,Mode(963497464),0.161,4,0.5832
0.194,THRUST_SEARCH,OPEN_LOOP,0.0,2e-05,-2e-05,2e-05,0.0,-5e-05,0.5839,0.5839,0.5839,,0.67,,False,0.0,0.0,0.0,0.0,0.0,-174.5653,-174.5592,0.01,True,False,Mode(963497464),0.1725,4,0.5832
0.205,THRUST_SEARCH,OPEN_LOOP,-0.0,-0.0,-9e-05,-0.0,0.0,-0.00019,0.5841,0.5841,0.5841,,0.67,,False,0.0,0.0,0.0,0.0,0.0,-174.5653,-174.5512,0.002,True,False,Mode(963497464),0.1835,4,0.5832
0.216,THRUST_SEARCH,OPEN_LOOP,-0.0,-0.0,0.0,0.0,0.0,-0.00018,0.5843,0.5843,0.5843,,0.67,,False,0.0,0.0,0.0,0.0,0.0,-174.5653,-174.5481,0.007,True,True,Mode(963497464),0.1945,4,0.5832
0.227,THRUST_SEARCH,OPEN_LOOP,0.0,1e-05,8e-05,8e-05,0.0,-8e-05,0.5845,0.5845,0.5845,,0.67,,False,0.0,0.0,0.0,0.0,0.0,-174.5653,-174.5579,0.009,True,False,Mode(963497464),0.2055,5,0.5843
0.237,THRUST_SEARCH,OPEN_LOOP,-0.0,-0.0,-5e-05,-0.0,0.0,-0.00014,0.5847,0.5847,0.5847,,0.67,,False,0.0,0.0,0.0,0.0,0.0,-174.5653,-174.5583,0.0015,True,False,Mode(963497464),0.2159,5,0.5843
0.248,THRUST_SEARCH,OPEN_LOOP,0.0,2e-05,0.00012,0.00012,0.0,-3e-05,0.585,0.585,0.585,,0.67,,False,0.0,0.0,0.0,0.0,0.0,-174.5653,-174.5665,0.006,True,False,Mode(963497464),0.2269,5,0.5843
0.259,THRUST_SEARCH,OPEN_LOOP,0.0,1e-05,0.0,1e-05,0.0,-4e-05,0.5852,0.5852,0.5852,,0.67,,False,0.0,0.0,0.0,0.0,0.0,-174.5653,-174.566,0.008,True,False,Mode(963497464),0.2379,5,0.5843
0.27,THRUST_SEARCH,OPEN_LOOP,0.0,2e-05,7e-05,7e-05,0.0,1e-05,0.5854,0.5854,0.5854,,0.67,,False,0.0,0.0,0.0,0.0,0.0,-174.5653,-174.5666,0.001,True,True,Mode(963497464),0.2485,5,0.5843
0.281,THRUST_SEARCH,OPEN_LOOP,0.0,2e-05,2e-05,2e-05,0.0,1e-05,0.5856,0.5856,0.5856,,0.67,,False,0.0,0.0,0.0,0.0,0.0,-174.5653,-174.5645,0.003,True,False,Mode(963497464),0.2595,6,0.5854
0.292,THRUST_SEARCH,OPEN_LOOP,0.0,2e-05,1e-05,2e-05,0.0,-0.0,0.5858,0.5858,0.5858,,0.67,,False,0.0,0.0,0.0,0.0,0.0,-174.5653,-174.5583,0.005,True,False,Mode(963497464),0.2705,6,0.5854
0.303,THRUST_SEARCH,OPEN_LOOP,0.0,3e-05,0.00013,0.00013,0.0,7e-05,0.5861,0.5861,0.5861,,0.67,,False,0.0,0.0,0.0,0.0,0.0,-174.5653,-174.5679,0.001,True,False,Mode(963497464),0.2815,6,0.5854
0.314,THRUST_SEARCH,OPEN_LOOP,0.0,3e-05,-3e-05,3e-05,0.0,2e-05,0.5863,0.5863,0.5863,,0.67,,False,0.0,0.0,0.0,0.0,0.0,-174.5653,-174.5592,0.003,True,False,Mode(963497464),0.2924,6,0.5854
0.325,THRUST_SEARCH,OPEN_LOOP,0.0,2e-05,-1e-05,2e-05,0.0,-0.0,0.5865,0.5865,0.5865,,0.67,,False,0.0,0.0,0.0,0.0,0.0,-174.5653,-174.5538,0.005,True,True,Mode(963497464),0.3034,6,0.5854
0.336,THRUST_SEARCH,OPEN_LOOP,0.0,2e-05,-1e-05,2e-05,0.0,-2e-05,0.5867,0.5867,0.5867,,0.67,,False,0.0,0.0,0.0,0.0,0.0,-174.5653,-174.5546,0.001,True,False,Mode(963497464),0.3144,7,0.5865
0.347,THRUST_SEARCH,OPEN_LOOP,0.0,3e-05,0.00011,0.00011,0.0,3e-05,0.5869,0.5869,0.5869,,0.67,,False,0.0,0.0,0.0,0.0,0.0,-174.5653,-174.5649,0.003,True,False,Mode(963497464),0.3253,7,0.5865
0.358,THRUST_SEARCH,OPEN_LOOP,0.0,3e-05,5e-05,5e-05,0.0,4e-05,0.5872,0.5872,0.5872,,0.67,,False,0.0,0.0,0.0,0.0,0.0,-174.5653,-174.573,0.005,True,False,Mode(963497464),0.3363,7,0.5865
0.369,THRUST_SEARCH,OPEN_LOOP,0.0,3e-05,-2e-05,3e-05,0.0,2e-05,0.5874,0.5874,0.5874,,0.67,,False,0.0,0.0,0.0,0.0,0.0,-174.5653,-174.5608,0.001,True,False,Mode(963497464),0.3471,7,0.5865
0.38,THRUST_SEARCH,OPEN_LOOP,0.0,3e-05,8e-05,8e-05,0.0,4e-05,0.5876,0.5876,0.5876,,0.67,,False,0.0,0.0,0.0,0.0,0.0,-174.5653,-174.5669,0.003,True,True,Mode(963497464),0.3581,7,0.5865
0.391,THRUST_SEARCH,OPEN_LOOP,0.0,3e-05,-2e-05,3e-05,0.0,2e-05,0.5878,0.5878,0.5878,,0.67,,False,0.0,0.0,0.0,0.0,0.0,-174.5653,-174.5628,0.005,True,False,Mode(963497464),0.369,8,0.5876
0.401,THRUST_SEARCH,OPEN_LOOP,0.0,2e-05,-5e-05,2e-05,0.0,-1e-05,0.588,0.588,0.588,,0.67,,False,0.0,0.0,0.0,0.0,0.0,-174.5653,-174.5583,0.0065,True,False,Mode(963497464),0.3796,8,0.5876
0.412,THRUST_SEARCH,OPEN_LOOP,0.0,2e-05,7e-05,7e-05,0.0,1e-05,0.5882,0.5882,0.5882,,0.67,,False,0.0,0.0,0.0,0.0,0.0,-174.5653,-174.571,0.009,True,False,Mode(963497464),0.3901,8,0.5876
0.422,THRUST_SEARCH,OPEN_LOOP,0.0,2e-05,-3e-05,2e-05,0.0,-1e-05,0.5884,0.5884,0.5884,,0.67,,False,0.0,0.0,0.0,0.0,0.0,-174.5653,-174.5648,0.0015,True,False,Mode(963497464),0.4006,8,0.5876
0.433,THRUST_SEARCH,OPEN_LOOP,0.0,1e-05,-6e-05,1e-05,0.0,-5e-05,0.5887,0.5887,0.5887,,0.67,,False,0.0,0.0,0.0,0.0,0.0,-174.5653,-174.5589,0.006,True,True,Mode(963497464),0.4115,8,0.5876
0.445,THRUST_SEARCH,OPEN_LOOP,0.0,0.0,-7e-05,0.0,0.0,-8e-05,0.5889,0.5889,0.5889,,0.67,,False,0.0,0.0,0.0,0.0,0.0,-174.5653,-174.5572,0.009,True,False,Mode(963497464),0.4235,9,0.5887
0.456,THRUST_SEARCH,OPEN_LOOP,-0.0,-1e-05,-6e-05,-1e-05,0.0,-0.00011,0.5891,0.5891,0.5891,,0.67,,False,0.0,0.0,0.0,0.0,0.0,-174.5653,-174.5597,0.004,True,False,Mode(963497464),0.4345,9,0.5887
0.467,THRUST_SEARCH,OPEN_LOOP,-0.0,-1e-05,-5e-05,-1e-05,0.0,-0.00013,0.5893,0.5893,0.5893,,0.67,,False,0.0,0.0,0.0,0.0,0.0,-174.5653,-174.5544,0.006,True,False,Mode(963497464),0.4454,9,0.5887
0.478,THRUST_SEARCH,OPEN_LOOP,-0.0,-0.0,8e-05,8e-05,0.0,-9e-05,0.5896,0.5896,0.5896,,0.67,,False,0.0,0.0,0.0,0.0,0.0,-174.5653,-174.5646,0.002,True,False,Mode(963497464),0.4564,9,0.5887
0.489,THRUST_SEARCH,OPEN_LOOP,0.0,0.0,7e-05,7e-05,0.0,-6e-05,0.5898,0.5898,0.5898,,0.67,,False,0.0,0.0,0.0,0.0,0.0,-174.5653,-174.5758,0.004,True,True,Mode(963497464),0.4674,9,0.5887
0.5,THRUST_SEARCH,OPEN_LOOP,-0.0,-0.0,-2e-05,-0.0,0.0,-7e-05,0.59,0.59,0.59,,0.67,,False,0.0,0.0,0.0,0.0,0.0,-174.5653,-174.5782,0.0069,True,False,Mode(963497464),0.4788,10,0.5898
0.511,THRUST_SEARCH,OPEN_LOOP,-0.0,-0.0,0.0,0.0,0.0,-7e-05,0.5902,0.5902,0.5902,,0.67,,False,0.0,0.0,0.0,0.0,0.0,-174.5653,-174.5733,0.009,True,False,Mode(963497464),0.4897,10,0.5898
0.522,THRUST_SEARCH,OPEN_LOOP,-0.0,-0.0,-3e-05,-0.0,0.0,-8e-05,0.5904,0.5904,0.5904,,0.67,,False,0.0,0.0,0.0,0.0,0.0,-174.5653,-174.5741,0.0045,True,False,Mode(963497464),0.5002,10,0.5898
0.533,THRUST_SEARCH,OPEN_LOOP,-0.0,-1e-05,-2e-05,-1e-05,0.0,-8e-05,0.5907,0.5907,0.5907,,0.67,,False,0.0,0.0,0.0,0.0,0.0,-174.5653,-174.5692,0.007,True,False,Mode(963497464),0.5112,10,0.5898
0.544,THRUST_SEARCH,OPEN_LOOP,-0.0,-1e-05,-0.0,-0.0,0.0,-8e-05,0.5909,0.5909,0.5909,,0.67,,False,0.0,0.0,0.0,0.0,0.0,-174.5653,-174.5648,0.009,True,True,Mode(963497464),0.5221,10,0.5898
0.554,THRUST_SEARCH,OPEN_LOOP,0.0,0.0,0.0001,0.0001,0.0,-4e-05,0.5911,0.5911,0.5911,,0.67,,False,0.0,0.0,0.0,0.0,0.0,-174.5653,-174.5695,0.0015,True,False,Mode(963497464),0.5326,11,0.5909
0.565,THRUST_SEARCH,OPEN_LOOP,-0.0,-0.0,-2e-05,-0.0,0.0,-5e-05,0.5913,0.5913,0.5913,,0.67,,False,0.0,0.0,0.0,0.0,0.0,-174.5653,-174.5673,0.006,True,False,Mode(963497464),0.5436,11,0.5909
0.576,THRUST_SEARCH,OPEN_LOOP,-0.0,-1e-05,-5e-05,-1e-05,0.0,-7e-05,0.5915,0.5915,0.5915,,0.67,,False,0.0,0.0,0.0,0.0,0.0,-174.5653,-174.5595,0.008,True,False,Mode(963497464),0.5546,11,0.5909
0.587,THRUST_SEARCH,OPEN_LOOP,0.0,0.0,8e-05,8e-05,0.0,-4e-05,0.5917,0.5917,0.5917,,0.67,,False,0.0,0.0,0.0,0.0,0.0,-174.5653,-174.5613,0.0009,True,False,Mode(963497464),0.5654,11,0.5909
0.598,THRUST_SEARCH,OPEN_LOOP,-0.0,-0.0,-3e-05,-0.0,0.0,-5e-05,0.592,0.592,0.592,,0.67,,False,0.0,0.0,0.0,0.0,0.0,-174.5653,-174.5546,0.003,True,True,Mode(963497464),0.5764,11,0.5909
0.609,THRUST_SEARCH,OPEN_LOOP,-0.0,-1e-05,-6e-05,-1e-05,0.0,-7e-05,0.5922,0.5922,0.5922,,0.67,,False,0.0,0.0,0.0,0.0,0.0,-174.5653,-174.5553,0.008,True,False,Mode(963497464),0.5874,12,0.592
0.62,THRUST_SEARCH,OPEN_LOOP,-0.0,-1e-05,-3e-05,-1e-05,0.0,-8e-05,0.5924,0.5924,0.5924,,0.67,,False,0.0,0.0,0.0,0.0,0.0,-174.5653,-174.5586,0.001,True,False,Mode(963497464),0.598,12,0.592
0.631,THRUST_SEARCH,OPEN_LOOP,-0.0,-1e-05,-4e-05,-1e-05,0.0,-9e-05,0.5926,0.5926,0.5926,,0.67,,False,0.0,0.0,0.0,0.0,0.0,-174.5653,-174.5544,0.003,True,False,Mode(963497464),0.609,12,0.592
0.641,THRUST_SEARCH,OPEN_LOOP,-0.0,-2e-05,-1e-05,-1e-05,0.0,-9e-05,0.5928,0.5928,0.5928,,0.67,,False,0.0,0.0,0.0,0.0,0.0,-174.5653,-174.5476,0.0045,True,False,Mode(963497464),0.6195,12,0.592
0.652,THRUST_SEARCH,OPEN_LOOP,-0.0,-1e-05,5e-05,5e-05,0.0,-6e-05,0.593,0.593,0.593,,0.67,,False,0.0,0.0,0.0,0.0,0.0,-174.5653,-174.5567,0.0073,True,True,Mode(963497464),0.6308,12,0.592
0.663,THRUST_SEARCH,OPEN_LOOP,-0.0,-1e-05,-1e-05,-1e-05,0.0,-7e-05,0.5933,0.5933,0.5933,,0.67,,False,0.0,0.0,0.0,0.0,0.0,-174.5653,-174.5531,0.003,True,False,Mode(963497464),0.6418,13,0.593
0.674,THRUST_SEARCH,OPEN_LOOP,-0.0,-1e-05,1e-05,1e-05,0.0,-6e-05,0.5935,0.5935,0.5935,,0.67,,False,0.0,0.0,0.0,0.0,0.0,-174.5653,-174.5521,0.005,True,False,Mode(963497464),0.6527,13,0.593
0.685,THRUST_SEARCH,OPEN_LOOP,-0.0,-0.0,9e-05,9e-05,0.0,-2e-05,0.5937,0.5937,0.5937,,0.67,,False,0.0,0.0,0.0,0.0,0.0,-174.5653,-174.5594,0.0071,True,False,Mode(963497464),0.6634,13,0.593
0.696,THRUST_SEARCH,OPEN_LOOP,-0.0,-0.0,-3e-05,-0.0,0.0,-3e-05,0.5939,0.5939,0.5939,,0.67,,False,0.0,0.0,0.0,0.0,0.0,-174.5653,-174.5565,0.009,True,False,Mode(963497464),0.6744,13,0.593
0.707,THRUST_SEARCH,OPEN_LOOP,0.0,1e-05,0.00011,0.00011,0.0,1e-05,0.5941,0.5941,0.5941,,0.67,,False,0.0,0.0,0.0,0.0,0.0,-174.5653,-174.553,0.004,True,True,Mode(963497464),0.6854,13,0.593
0.718,THRUST_SEARCH,OPEN_LOOP,0.0,0.0,-5e-05,0.0,0.0,-1e-05,0.5944,0.5944,0.5944,,0.67,,False,0.0,0.0,0.0,0.0,0.0,-174.5653,-174.5539,0.009,True,False,Mode(963497464),0.6963,14,0.5941
0.728,THRUST_SEARCH,OPEN_LOOP,-0.0,-0.0,-5e-05,-0.0,0.0,-3e-05,0.5946,0.5946,0.5946,,0.67,,False,0.0,0.0,0.0,0.0,0.0,-174.5653,-174.5523,0.0015,True,False,Mode(963497464),0.7068,14,0.5941
0.739,THRUST_SEARCH,OPEN_LOOP,0.0,0.0,6e-05,6e-05,0.0,-0.0,0.5948,0.5948,0.5948,,0.67,,False,0.0,0.0,0.0,0.0,0.0,-174.5653,-174.5628,0.003,True,False,Mode(963497464),0.7178,14,0.5941
0.75,THRUST_SEARCH,OPEN_LOOP,0.0,1e-05,0.00011,0.00011,0.0,4e-05,0.595,0.595,0.595,,0.67,,False,0.0,0.0,0.0,0.0,0.0,-174.5653,-174.5723,0.005,True,False,Mode(963497464),0.7288,14,0.5941
0.761,THRUST_SEARCH,OPEN_LOOP,0.0,2e-05,6e-05,6e-05,0.0,5e-05,0.5952,0.5952,0.5952,,0.67,,False,0.0,0.0,0.0,0.0,0.0,-174.5653,-174.5747,0.001,True,True,Mode(963497464),0.7394,14,0.5941
0.772,THRUST_SEARCH,OPEN_LOOP,0.0,1e-05,-6e-05,1e-05,0.0,3e-05,0.5954,0.5954,0.5954,,0.67,,False,0.0,0.0,0.0,0.0,0.0,-174.5653,-174.5628,0.004,True,False,Mode(963497464),0.7508,15,0.5952
0.783,THRUST_SEARCH,OPEN_LOOP,0.0,2e-05,0.0001,0.0001,0.0,6e-05,0.5957,0.5957,0.5957,,0.67,,False,0.0,0.0,0.0,0.0,0.0,-174.5653,-174.5675,0.006,True,False,Mode(963497464),0.7618,15,0.5952
0.794,THRUST_SEARCH,OPEN_LOOP,0.0,1e-05,-8e-05,1e-05,0.0,3e-05,0.5959,0.5959,0.5959,,0.67,,False,0.0,0.0,0.0,0.0,0.0,-174.5653,-174.5638,0.002,True,False,Mode(963497464),0.7728,15,0.5952
0.805,THRUST_SEARCH,OPEN_LOOP,0.0,1e-05,-3e-05,1e-05,0.0,1e-05,0.5961,0.5961,0.5961,,0.67,,False,0.0,0.0,0.0,0.0,0.0,-174.5653,-174.567,0.004,True,False,Mode(963497464),0.7835,15,0.5952
0.816,THRUST_SEARCH,OPEN_LOOP,0.0,0.0,-4e-05,0.0,0.0,-1e-05,0.5963,0.5963,0.5963,,0.67,,False,0.0,0.0,0.0,0.0,0.0,-174.5653,-174.5629,0.006,True,True,Mode(963497464),0.7945,15,0.5952
0.827,THRUST_SEARCH,OPEN_LOOP,-0.0,-0.0,-7e-05,-0.0,0.0,-4e-05,0.5965,0.5965,0.5965,,0.67,,False,0.0,0.0,0.0,0.0,0.0,-174.5653,-174.5593,0.008,True,False,Mode(963497464),0.8055,16,0.5963
0.838,THRUST_SEARCH,OPEN_LOOP,-0.0,-1e-05,-3e-05,-1e-05,0.0,-5e-05,0.5968,0.5968,0.5968,,0.67,,False,0.0,0.0,0.0,0.0,0.0,-174.5653,-174.5568,0.001,True,False,Mode(963497464),0.8164,16,0.5963
0.849,THRUST_SEARCH,OPEN_LOOP,-0.0,-1e-05,-1e-05,-1e-05,0.0,-5e-05,0.597,0.597,0.597,,0.67,,False,0.0,0.0,0.0,0.0,0.0,-174.5653,-174.5576,0.006,True,False,Mode(963497464),0.8274,16,0.5963
0.86,THRUST_SEARCH,OPEN_LOOP,-0.0,-1e-05,-2e-05,-1e-05,0.0,-5e-05,0.5972,0.5972,0.5972,,0.67,,False,0.0,0.0,0.0,0.0,0.0,-174.5653,-174.5548,0.001,True,False,Mode(963497464),0.8384,16,0.5963
0.871,THRUST_SEARCH,OPEN_LOOP,-0.0,-1e-05,-1e-05,-1e-05,0.0,-5e-05,0.5974,0.5974,0.5974,,0.67,,False,0.0,0.0,0.0,0.0,0.0,-174.5653,-174.5504,0.003,True,True,Mode(963497464),0.8493,16,0.5963
0.882,THRUST_SEARCH,OPEN_LOOP,-0.0,-2e-05,-8e-05,-2e-05,0.0,-8e-05,0.5976,0.5976,0.5976,,0.67,,False,0.0,0.0,0.0,0.0,0.0,-174.5653,-174.5504,0.005,True,False,Mode(963497464),0.8603,17,0.5974
0.893,THRUST_SEARCH,OPEN_LOOP,-0.0,-1e-05,6e-05,6e-05,0.0,-5e-05,0.5979,0.5979,0.5979,,0.67,,False,0.0,0.0,0.0,0.0,0.0,-174.5653,-174.5632,0.005,True,False,Mode(963497464),0.8713,17,0.5974
0.904,THRUST_SEARCH,OPEN_LOOP,-0.0,-1e-05,-1e-05,-1e-05,0.0,-5e-05,0.5981,0.5981,0.5981,,0.67,,False,0.0,0.0,0.0,0.0,0.0,-174.5653,-174.5537,0.001,True,False,Mode(963497464),0.8823,17,0.5974
0.915,THRUST_SEARCH,OPEN_LOOP,-0.0,-1e-05,-5e-05,-1e-05,0.0,-6e-05,0.5983,0.5983,0.5983,,0.67,,False,0.0,0.0,0.0,0.0,0.0,-174.5653,-174.5459,0.006,True,False,Mode(963497464),0.8932,17,0.5974
0.926,THRUST_SEARCH,OPEN_LOOP,-0.0,-2e-05,-4e-05,-2e-05,0.0,-7e-05,0.5985,0.5985,0.5985,,0.67,,False,0.0,0.0,0.0,0.0,0.0,-174.5653,-174.5398,0.008,True,True,Mode(963497464),0.9042,17,0.5974
0.937,THRUST_SEARCH,OPEN_LOOP,-0.0,-2e-05,-3e-05,-2e-05,0.0,-8e-05,0.5987,0.5987,0.5987,,0.67,,False,0.0,0.0,0.0,0.0,0.0,-174.5653,-174.5417,0.001,True,False,Mode(963497464),0.9152,18,0.5985
0.947,THRUST_SEARCH,OPEN_LOOP,-0.0,-2e-05,-3e-05,-2e-05,0.0,-8e-05,0.5989,0.5989,0.5989,,0.67,,False,0.0,0.0,0.0,0.0,0.0,-174.5653,-174.5358,0.003,True,False,Mode(963497464),0.9257,18,0.5985
0.958,THRUST_SEARCH,OPEN_LOOP,-0.0,-2e-05,-5e-05,-2e-05,0.0,-9e-05,0.5992,0.5992,0.5992,,0.67,,False,0.0,0.0,0.0,0.0,0.0,-174.5653,-174.5343,0.005,True,False,Mode(963497464),0.9366,18,0.5985
0.969,THRUST_SEARCH,OPEN_LOOP,-0.0,-1e-05,0.00019,0.00019,0.0,-1e-05,0.5994,0.5994,0.5994,,0.67,,False,0.0,0.0,0.0,0.0,0.0,-174.5653,-174.5513,0.001,True,False,Mode(963497464),0.9476,18,0.5985
0.98,THRUST_SEARCH,OPEN_LOOP,0.0,1e-05,0.00016,0.00016,0.0,5e-05,0.5996,0.5996,0.5996,,0.67,,False,0.0,0.0,0.0,0.0,0.0,-174.5653,-174.5513,0.003,True,True,Mode(963497464),0.9586,18,0.5985
0.991,THRUST_SEARCH,OPEN_LOOP,0.0,2e-05,0.00014,0.00014,0.0,9e-05,0.5998,0.5998,0.5998,,0.67,,False,0.0,0.0,0.0,0.0,0.0,-174.5653,-174.5464,0.005,True,False,Mode(963497464),0.9695,19,0.5996
1.002,THRUST_SEARCH,OPEN_LOOP,0.0001,6e-05,0.00043,0.00043,0.0,0.00024,0.6,0.6,0.6,,0.67,,False,0.0,0.0,0.0,0.0,0.0,-174.5653,-174.5427,0.0014,True,False,Mode(963497464),0.0,19,0.5996
1.013,THRUST_SEARCH,OPEN_LOOP,0.0001,0.00015,0.0011,0.0011,0.0,0.00061,0.6003,0.6003,0.6003,,0.67,,False,0.0,0.0,0.0,0.0,0.0,-174.5653,-174.5126,0.003,True,False,Mode(963497464),0.011,19,0.5996
1.024,THRUST_SEARCH,OPEN_LOOP,0.0003,0.00029,0.00173,0.00173,0.0,0.00118,0.6005,0.6005,0.6005,,0.67,,False,0.0,0.0,0.0,0.0,0.0,-174.5653,-174.4815,0.0045,True,False,Mode(963497464),0.0214,19,0.5996
1.035,THRUST_SEARCH,OPEN_LOOP,0.0005,0.00048,0.0024,0.0024,0.0,0.00192,0.6007,0.6007,0.6007,,0.67,,False,0.0,0.0,0.0,0.0,0.0,-174.5653,-174.4651,0.007,True,True,Mode(963497464),0.0324,19,0.5996
1.046,THRUST_SEARCH,OPEN_LOOP,0.0009,0.00085,0.00451,0.00451,0.0,0.00336,0.6009,0.6009,0.6009,,0.67,,False,0.0,0.0,0.0,0.0,0.0,-174.5653,-174.6055,0.001,True,False,Mode(963497464),0.0439,20,0.6007
1.058,THRUST_SEARCH,OPEN_LOOP,0.0013,0.00129,0.00536,0.00536,0.0,0.00498,0.6012,0.6012,0.6012,,0.67,,False,0.0,0.0,0.0,0.0,0.0,-174.5653,-174.777,0.007,True,False,Mode(963497464),0.0559,20,0.6007
1.07,THRUST_SEARCH,OPEN_LOOP,0.0019,0.00187,0.00738,0.00738,0.0,0.00718,0.6014,0.6014,0.6014,,0.67,,False,0.0,0.0,0.0,0.0,0.0,-174.5653,-175.0693,0.01,True,False,Mode(963497464),0.0673,20,0.6007
1.08,THRUST_SEARCH,OPEN_LOOP,0.0026,0.00256,0.00891,0.00891,0.0,0.0097,0.6016,0.6016,0.6016,,0.67,,False,0.0,0.0,0.0,0.0,0.0,-174.5653,-175.7154,0.0045,True,False,Mode(963497464),0.0778,20,0.6007
1.091,THRUST_SEARCH,OPEN_LOOP,0.0032,0.00323,0.00923,0.00923,0.0,0.01207,0.6018,0.6018,0.6018,,0.67,,False,0.0,0.0,0.0,0.0,0.0,-174.5653,-176.0693,0.0037,True,True,Mode(963497464),0.0885,20,0.6007
1.102,THRUST_SEARCH,OPEN_LOOP,0.0041,0.00407,0.0115,0.0115,0.0,0.015,0.602,0.602,0.602,,0.67,,False,0.0,0.0,0.0,0.0,0.0,-174.5653,-176.4207,0.009,True,False,Mode(963497464),0.0995,21,0.6018
1.113,THRUST_SEARCH,OPEN_LOOP,0.005,0.00501,0.01311,0.01311,0.0,0.0182,0.6023,0.6023,0.6023,,0.67,,False,0.0,0.0,0.0,0.0,0.0,-174.5653,-177.2625,0.002,True,False,Mode(963497464),0.1104,21,0.6018
1.124,THRUST_SEARCH,OPEN_LOOP,0.0061,0.0061,0.01547,0.01547,0.0,0.0219,0.6025,0.6025,0.6025,,0.67,,False,0.0,0.0,0.0,0.0,0.0,-174.5653,-177.7089,0.004,True,False,Mode(963497464),0.1214,21,0.6018
1.135,THRUST_SEARCH,OPEN_LOOP,0.0072,0.00718,0.01593,0.01593,0.0,0.02536,0.6027,0.6027,0.6027,,0.67,,False,0.0,0.0,0.0,0.0,0.0,-174.5653,-178.0845,0.009,True,False,Mode(963497464),0.1324,21,0.6018
1.147,THRUST_SEARCH,OPEN_LOOP,0.0084,0.00836,0.01754,0.01754,0.0,0.02901,0.6029,0.6029,0.6029,,0.67,,False,0.0,0.0,0.0,0.0,0.0,-174.5653,-178.3626,0.003,True,True,Mode(963497464),0.1444,21,0.6018
1.158,THRUST_SEARCH,OPEN_LOOP,0.0095,0.0095,0.01783,0.01783,0.0,0.03234,0.6032,0.6032,0.6032,,0.67,,False,0.0,0.0,0.0,0.0,0.0,-174.5653,-178.1461,0.006,True,False,Mode(963497464),0.1559,22,0.6029
1.169,THRUST_SEARCH,OPEN_LOOP,0.0106,0.01061,0.01863,0.01863,0.0,0.03553,0.6034,0.6034,0.6034,,0.67,,False,0.0,0.0,0.0,0.0,0.0,-174.5653,-177.8063,0.0075,True,False,Mode(963497464),0.1664,22,0.6029
1.18,THRUST_SEARCH,OPEN_LOOP,0.0118,0.01178,0.01994,0.01994,0.0,0.03877,0.6036,0.6036,0.6036,,0.67,,False,0.0,0.0,0.0,0.0,0.0,-174.5653,-177.3735,0.004,True,False,Mode(963497464),0.1774,22,0.6029
1.19,THRUST_SEARCH,OPEN_LOOP,0.0129,0.01288,0.02006,0.02006,0.0,0.04161,0.6038,0.6038,0.6038,,0.67,,False,0.0,0.0,0.0,0.0,0.0,-174.5653,-177.351,0.006,True,False,Mode(963497464),0.1878,22,0.6029
1.201,THRUST_SEARCH,OPEN_LOOP,0.0139,0.01392,0.02027,0.02027,0.0,0.04411,0.604,0.604,0.604,,0.67,,False,0.0,0.0,0.0,0.0,0.0,-174.5653,-177.4821,0.0075,True,True,Mode(963497464),0.1983,22,0.6029
1.212,THRUST_SEARCH,OPEN_LOOP,0.0148,0.01485,0.01954,0.01954,0.0,0.04596,0.6042,0.6042,0.6042,,0.67,,False,0.0,0.0,0.0,0.0,0.0,-174.5653,-177.6332,0.001,True,False,Mode(963497464),0.2093,23,0.604
1.223,THRUST_SEARCH,OPEN_LOOP,0.0157,0.01568,0.01916,0.01916,0.0,0.04733,0.6045,0.6045,0.6045,,0.67,,False,0.0,0.0,0.0,0.0,0.0,-174.5653,-177.5107,0.003,True,False,Mode(963497464),0.2203,23,0.604
1.233,THRUST_SEARCH,OPEN_LOOP,0.0164,0.01643,0.01914,0.01914,0.0,0.04839,0.6047,0.6047,0.6047,,0.67,,False,0.0,0.0,0.0,0.0,0.0,-174.5653,-177.1401,0.0045,True,False,Mode(963497464),0.2308,23,0.604
1.244,THRUST_SEARCH,OPEN_LOOP,0.0171,0.01707,0.01813,0.01813,0.0,0.0488,0.6049,0.6049,0.6049,,0.67,,False,0.0,0.0,0.0,0.0,0.0,-174.5653,-176.2409,0.001,True,False,Mode(963497464),0.2417,23,0.604
1.255,THRUST_SEARCH,OPEN_LOOP,0.0176,0.01756,0.01711,0.01756,0.0,0.04863,0.6051,0.6051,0.6051,,0.67,,False,0.0,0.0,0.0,0.0,0.0,-174.5653,-175.9173,0.003,True,True,Mode(963497464),0.2527,23,0.604
1.266,THRUST_SEARCH,OPEN_LOOP,0.018,0.01802,0.01731,0.01802,0.0,0.04835,0.6053,0.6053,0.6053,,0.67,,False,0.0,0.0,0.0,0.0,0.0,-174.5653,-175.8123,0.005,True,False,Mode(963497464),0.2637,24,0.6051
1.277,THRUST_SEARCH,OPEN_LOOP,0.0184,0.01841,0.01685,0.01841,0.0,0.04774,0.6055,0.6055,0.6055,,0.67,,False,0.0,0.0,0.0,0.0,0.0,-174.5653,-176.0525,0.001,True,False,Mode(963497464),0.2746,24,0.6051
1.288,THRUST_SEARCH,OPEN_LOOP,0.0187,0.01874,0.01668,0.01874,0.0,0.04693,0.6058,0.6058,0.6058,,0.67,,False,0.0,0.0,0.0,0.0,0.0,-174.5653,-176.3487,0.003,True,False,Mode(963497464),0.2856,24,0.6051
1.298,THRUST_SEARCH,OPEN_LOOP,0.0189,0.0189,0.01544,0.0189,0.0,0.04558,0.606,0.606,0.606,,0.67,,False,0.0,0.0,0.0,0.0,0.0,-174.5653,-176.7334,0.0045,True,False,Mode(963497464),0.2961,24,0.6051
1.309,THRUST_SEARCH,OPEN_LOOP,0.019,0.01895,0.01418,0.01895,0.0,0.04371,0.6062,0.6062,0.6062,,0.67,,False,0.0,0.0,0.0,0.0,0.0,-174.5653,-177.1692,0.007,True,True,Mode(963497464),0.3071,24,0.6051
1.321,THRUST_SEARCH,OPEN_LOOP,0.0188,0.01876,0.01142,0.01876,0.0,0.04082,0.6064,0.6064,0.6064,,0.67,,False,0.0,0.0,0.0,0.0,0.0,-174.5653,-177.808,0.001,True,False,Mode(963497464),0.3185,25,0.6062
1.332,THRUST_SEARCH,OPEN_LOOP,0.0185,0.01847,0.01079,0.01847,0.0,0.0378,0.6066,0.6066,0.6066,,0.67,,False,0.0,0.0,0.0,0.0,0.0,-174.5653,-178.0734,0.0061,True,False,Mode(963497464),0.3297,25,0.6062
1.342,THRUST_SEARCH,OPEN_LOOP,0.0181,0.01809,0.00981,0.01809,0.0,0.03456,0.6068,0.6068,0.6068,,0.67,,False,0.0,0.0,0.0,0.0,0.0,-174.5653,-178.2433,0.0075,True,False,Mode(963497464),0.34,25,0.6062
1.353,THRUST_SEARCH,OPEN_LOOP,0.0176,0.01758,0.00828,0.01758,0.0,0.03091,0.6071,0.6071,0.6071,,0.67,,False,0.0,0.0,0.0,0.0,0.0,-174.5653,-178.54,0.001,True,False,Mode(963497464),0.351,25,0.6062
1.364,THRUST_SEARCH,OPEN_LOOP,0.017,0.01699,0.00727,0.01699,0.0,0.02711,0.6073,0.6073,0.6073,,0.67,,False,0.0,0.0,0.0,0.0,0.0,-174.5653,-178.589,0.003,True,True,Mode(963497464),0.3614,25,0.6062
1.375,THRUST_SEARCH,OPEN_LOOP,0.0164,0.01637,0.00664,0.01637,0.0,0.02331,0.6075,0.6075,0.6075,,0.67,,False,0.0,0.0,0.0,0.0,0.0,-174.5653,-178.7109,0.005,True,False,Mode(963497464),0.3724,26,0.6073
1.385,THRUST_SEARCH,OPEN_LOOP,0.0156,0.01562,0.00504,0.01562,0.0,0.01918,0.6077,0.6077,0.6077,,0.67,,False,0.0,0.0,0.0,0.0,0.0,-174.5653,-178.7305,0.001,True,False,Mode(963497464),0.3832,26,0.6073
1.396,THRUST_SEARCH,OPEN_LOOP,0.0147,0.0147,0.00274,0.0147,0.0,0.0145,0.6079,0.6079,0.6079,,0.67,,False,0.0,0.0,0.0,0.0,0.0,-174.5653,-178.4033,0.003,True,False,Mode(963497464),0.3942,26,0.6073
1.407,THRUST_SEARCH,OPEN_LOOP,0.0138,0.01382,0.00278,0.01382,0.0,0.01019,0.6081,0.6081,0.6081,,0.67,,False,0.0,0.0,0.0,0.0,0.0,-174.5653,-178.0897,0.005,True,False,Mode(963497464),0.4051,26,0.6073
1.418,THRUST_SEARCH,OPEN_LOOP,0.0131,0.01308,0.00408,0.01308,0.0,0.00667,0.6084,0.6084,0.6084,,0.67,,False,0.0,0.0,0.0,0.0,0.0,-174.5653,-177.9289,0.0067,True,True,Mode(963497464),0.4158,26,0.6073
1.429,THRUST_SEARCH,OPEN_LOOP,0.0124,0.0124,0.00438,0.0124,0.0,0.00353,0.6086,0.6086,0.6086,,0.67,,False,0.0,0.0,0.0,0.0,0.0,-174.5653,-178.1472,0.0033,True,False,Mode(963497464),0.4271,27,0.6084
1.44,THRUST_SEARCH,OPEN_LOOP,0.0118,0.01176,0.00463,0.01176,0.0,0.00075,0.6088,0.6088,0.6088,,0.67,,False,0.0,0.0,0.0,0.0,0.0,-174.5653,-178.5251,0.005,True,False,Mode(963497464),0.4378,27,0.6084
1.451,THRUST_SEARCH,OPEN_LOOP,0.0113,0.01126,0.00582,0.01126,0.0,-0.00138,0.609,0.609,0.609,,0.67,,False,0.0,0.0,0.0,0.0,0.0,-174.5653,-179.1195,0.007,True,False,Mode(963497464),0.4487,27,0.6084
1.462,THRUST_SEARCH,OPEN_LOOP,0.0109,0.01092,0.00751,0.01092,0.0,-0.00272,0.6092,0.6092,0.6092,,0.67,,False,0.0,0.0,0.0,0.0,0.0,-174.5653,-179.641,0.001,True,False,Mode(963497464),0.46,27,0.6084
1.473,THRUST_SEARCH,OPEN_LOOP,0.0107,0.01069,0.00856,0.01069,0.0,-0.00355,0.6095,0.6095,0.6095,,0.67,,False,0.0,0.0,0.0,0.0,0.0,-174.5653,-179.5155,0.0031,True,True,Mode(963497464),0.471,27,0.6084
1.484,THRUST_SEARCH,OPEN_LOOP,0.0106,0.01058,0.00984,0.01058,0.0,-0.00384,0.6097,0.6097,0.6097,,0.67,,False,0.0,0.0,0.0,0.0,0.0,-174.5653,-179.1872,0.008,True,False,Mode(963497464),0.4819,28,0.6095
1.495,THRUST_SEARCH,OPEN_LOOP,0.0107,0.01065,0.01184,0.01184,0.0,-0.00337,0.6099,0.6099,0.6099,,0.67,,False,0.0,0.0,0.0,0.0,0.0,-174.5653,-178.4696,0.0007,True,False,Mode(963497464),0.4926,28,0.6095
1.506,THRUST_SEARCH,OPEN_LOOP,0.0108,0.01085,0.01332,0.01332,0.0,-0.0024,0.6101,0.6101,0.6101,,0.67,,False,0.0,0.0,0.0,0.0,0.0,-174.5653,-178.2575,0.003,True,False,Mode(963497464),0.5035,28,0.6095
1.517,THRUST_SEARCH,OPEN_LOOP,0.0111,0.01106,0.01354,0.01354,0.0,-0.00143,0.6103,0.6103,0.6103,,0.67,,False,0.0,0.0,0.0,0.0,0.0,-174.5653,-178.3444,0.005,True,False,Mode(963497464),0.5145,28,0.6095
1.528,THRUST_SEARCH,OPEN_LOOP,0.0113,0.01132,0.01423,0.01423,0.0,-0.00029,0.6106,0.6106,0.6106,,0.67,,False,0.0,0.0,0.0,0.0,0.0,-174.5653,-179.3087,0.001,True,True,Mode(963497464),0.5255,28,0.6095
1.539,THRUST_SEARCH,OPEN_LOOP,0.0115,0.01154,0.01398,0.01398,0.0,0.00067,0.6108,0.6108,0.6108,,0.67,,False,0.0,0.0,0.0,0.0,0.0,-174.5653,-179.9621,0.003,True,False,Mode(963497464),0.5365,29,0.6106
1.549,THRUST_SEARCH,OPEN_LOOP,0.0118,0.01184,0.01485,0.01485,0.0,0.00185,0.611,0.611,0.611,,0.67,,False,0.0,0.0,0.0,0.0,0.0,-174.5653,179.5301,0.0045,True,False,Mode(963497464),0.5469,29,0.6106
1.56,THRUST_SEARCH,OPEN_LOOP,0.0121,0.0121,0.0147,0.0147,0.0,0.00286,0.6112,0.6112,0.6112,,0.67,,False,0.0,0.0,0.0,0.0,0.0,-174.5653,179.2995,0.001,True,False,Mode(963497464),0.5579,29,0.6106
1.571,THRUST_SEARCH,OPEN_LOOP,0.0124,0.01235,0.01465,0.01465,0.0,0.00376,0.6114,0.6114,0.6114,,0.67,,False,0.0,0.0,0.0,0.0,0.0,-174.5653,179.4483,0.003,True,False,Mode(963497464),0.5689,29,0.6106
1.582,THRUST_SEARCH,OPEN_LOOP,0.0126,0.01264,0.01529,0.01529,0.0,0.0048,0.6116,0.6116,0.6116,,0.67,,False,0.0,0.0,0.0,0.0,0.0,-174.5653,179.6539,0.005,True,True,Mode(963497464),0.5799,29,0.6106
1.593,THRUST_SEARCH,OPEN_LOOP,0.0129,0.01292,0.01527,0.01527,0.0,0.00572,0.6119,0.6119,0.6119,,0.67,,False,0.0,0.0,0.0,0.0,0.0,-174.5653,179.698,0.007,True,False,Mode(963497464),0.5908,30,0.6116
1.604,THRUST_SEARCH,OPEN_LOOP,0.0131,0.01308,0.01414,0.01414,0.0,0.00614,0.6121,0.6121,0.6121,,0.67,,False,0.0,0.0,0.0,0.0,0.0,-174.5653,178.8286,0.003,True,False,Mode(963497464),0.6018,30,0.6116
1.615,THRUST_SEARCH,OPEN_LOOP,0.0131,0.01312,0.01281,0.01312,0.0,0.00602,0.6123,0.6123,0.6123,,0.67,,False,0.0,0.0,0.0,0.0,0.0,-174.5653,178.1595,0.0045,True,False,Mode(963497464),0.6123,30,0.6116
1.625,THRUST_SEARCH,OPEN_LOOP,0.0132,0.0132,0.01343,0.01343,0.0,0.00611,0.6125,0.6125,0.6125,,0.67,,False,0.0,0.0,0.0,0.0,0.0,-174.5653,177.5441,0.0068,True,False,Mode(963497464),0.6231,30,0.6116
1.637,THRUST_SEARCH,OPEN_LOOP,0.0132,0.0132,0.01248,0.0132,0.0,0.00583,0.6127,0.6127,0.6127,,0.67,,False,0.0,0.0,0.0,0.0,0.0,-174.5653,177.1278,0.009,True,True,Mode(963497464),0.6341,30,0.6116
1.646,THRUST_SEARCH,OPEN_LOOP,0.0131,0.01309,0.01127,0.01309,0.0,0.00512,0.6129,0.6129,0.6129,,0.67,,False,0.0,0.0,0.0,0.0,0.0,-174.5653,177.3349,0.0041,True,False,Mode(963497464),0.6441,31,0.6127
1.657,THRUST_SEARCH,OPEN_LOOP,0.0129,0.01288,0.01006,0.01288,0.0,0.00402,0.6131,0.6131,0.6131,,0.67,,False,0.0,0.0,0.0,0.0,0.0,-174.5653,177.6729,0.004,True,False,Mode(963497464),0.6551,31,0.6127
1.668,THRUST_SEARCH,OPEN_LOOP,0.0126,0.01263,0.00951,0.01263,0.0,0.00281,0.6134,0.6134,0.6134,,0.67,,False,0.0,0.0,0.0,0.0,0.0,-174.5653,178.1352,0.009,True,False,Mode(963497464),0.6661,31,0.6127
1.679,THRUST_SEARCH,OPEN_LOOP,0.0121,0.01213,0.00645,0.01213,0.0,0.0006,0.6136,0.6136,0.6136,,0.67,,False,0.0,0.0,0.0,0.0,0.0,-174.5653,178.2205,0.002,True,False,Mode(963497464),0.6771,31,0.6127
1.69,THRUST_SEARCH,OPEN_LOOP,0.0117,0.01165,0.00654,0.01165,0.0,-0.0014,0.6138,0.6138,0.6138,,0.67,,False,0.0,0.0,0.0,0.0,0.0,-174.5653,177.8837,0.003,True,True,Mode(963497464),0.6881,31,0.6127
1.701,THRUST_SEARCH,OPEN_LOOP,0.0112,0.01117,0.00618,0.01117,0.0,-0.00334,0.614,0.614,0.614,,0.67,,False,0.0,0.0,0.0,0.0,0.0,-174.5653,177.5359,0.008,True,False,Mode(963497464),0.699,32,0.6138
1.714,THRUST_SEARCH,OPEN_LOOP,0.0105,0.01054,0.00427,0.01054,0.0,-0.00579,0.6143,0.6143,0.6143,,0.67,,False,0.0,0.0,0.0,0.0,0.0,-174.5653,176.9797,0.001,True,False,Mode(963497464),0.71,32,0.6138
1.723,THRUST_SEARCH,OPEN_LOOP,0.0099,0.00991,0.0039,0.00991,0.0,-0.00814,0.6145,0.6145,0.6145,,0.67,,False,0.0,0.0,0.0,0.0,0.0,-174.5653,177.0874,0.003,True,False,Mode(963497464),0.721,32,0.6138
1.734,THRUST_SEARCH,OPEN_LOOP,0.0092,0.00924,0.00306,0.00924,0.0,-0.01055,0.6147,0.6147,0.6147,,0.67,,False,0.0,0.0,0.0,0.0,0.0,-174.5653,177.2371,0.008,True,False,Mode(963497464),0.732,32,0.6138
1.745,THRUST_SEARCH,OPEN_LOOP,0.0086,0.00858,0.00285,0.00858,0.0,-0.01279,0.6149,0.6149,0.6149,,0.67,,False,0.0,0.0,0.0,0.0,0.0,-174.5653,177.5294,0.001,True,True,Mode(963497464),0.7429,32,0.6138
1.757,THRUST_SEARCH,OPEN_LOOP,0.0078,0.00775,0.00058,0.00775,0.0,-0.01561,0.6151,0.6151,0.6151,,0.67,,False,0.0,0.0,0.0,0.0,0.0,-174.5653,177.4001,0.004,True,False,Mode(963497464),0.7544,33,0.6149
1.767,THRUST_SEARCH,OPEN_LOOP,0.007,0.007,0.00081,0.007,0.0,-0.01804,0.6153,0.6153,0.6153,,0.67,,False,0.0,0.0,0.0,0.0,0.0,-174.5653,177.1551,0.006,True,False,Mode(963497464),0.7649,33,0.6149
1.778,THRUST_SEARCH,OPEN_LOOP,0.0063,0.00629,0.00071,0.00629,0.0,-0.02021,0.6156,0.6156,0.6156,,0.67,,False,0.0,0.0,0.0,0.0,0.0,-174.5653,176.6563,0.0015,True,False,Mode(963497464),0.7754,33,0.6149
1.789,THRUST_SEARCH,OPEN_LOOP,0.0056,0.00562,0.00094,0.00562,0.0,-0.02204,0.6158,0.6158,0.6158,,0.67,,False,0.0,0.0,0.0,0.0,0.0,-174.5653,176.54,0.004,True,False,Mode(963497464),0.7863,33,0.6149
1.8,THRUST_SEARCH,OPEN_LOOP,0.0051,0.00509,0.002,0.00509,0.0,-0.02325,0.616,0.616,0.616,,0.67,,False,0.0,0.0,0.0,0.0,0.0,-174.5653,176.492,0.006,True,True,Mode(963497464),0.7973,33,0.6149
1.81,THRUST_SEARCH,OPEN_LOOP,0.0048,0.0048,0.00431,0.0048,0.0,-0.02344,0.6162,0.6162,0.6162,,0.67,,False,0.0,0.0,0.0,0.0,0.0,-174.5653,176.5262,0.0075,True,False,Mode(963497464),0.8078,34,0.616
1.821,THRUST_SEARCH,OPEN_LOOP,0.0047,0.0047,0.00635,0.00635,0.0,-0.0228,0.6164,0.6164,0.6164,,0.67,,False,0.0,0.0,0.0,0.0,0.0,-174.5653,176.3378,0.001,True,False,Mode(963497464),0.8188,34,0.616
1.832,THRUST_SEARCH,OPEN_LOOP,0.0046,0.00456,0.00575,0.00575,0.0,-0.02233,0.6166,0.6166,0.6166,,0.67,,False,0.0,0.0,0.0,0.0,0.0,-174.5653,176.1781,0.006,True,False,Mode(963497464),0.8297,34,0.616
1.843,THRUST_SEARCH,OPEN_LOOP,0.0045,0.00453,0.00682,0.00682,0.0,-0.02144,0.6169,0.6169,0.6169,,0.67,,False,0.0,0.0,0.0,0.0,0.0,-174.5653,176.0352,0.008,True,False,Mode(963497464),0.8407,34,0.616
1.854,THRUST_SEARCH,OPEN_LOOP,0.0047,0.00471,0.00902,0.00902,0.0,-0.01976,0.6171,0.6171,0.6171,,0.67,,False,0.0,0.0,0.0,0.0,0.0,-174.5653,175.863,0.0009,True,True,Mode(963497464),0.8515,34,0.616
1.865,THRUST_SEARCH,OPEN_LOOP,0.0049,0.00494,0.00966,0.00966,0.0,-0.01791,0.6173,0.6173,0.6173,,0.67,,False,0.0,0.0,0.0,0.0,0.0,-174.5653,175.9304,0.003,True,False,Mode(963497464),0.8624,35,0.6171
1.876,THRUST_SEARCH,OPEN_LOOP,0.0052,0.00522,0.01026,0.01026,0.0,-0.01594,0.6175,0.6175,0.6175,,0.67,,False,0.0,0.0,0.0,0.0,0.0,-174.5653,176.0336,0.008,True,False,Mode(963497464),0.8734,35,0.6171
1.887,THRUST_SEARCH,OPEN_LOOP,0.0056,0.00558,0.01126,0.01126,0.0,-0.01372,0.6177,0.6177,0.6177,,0.67,,False,0.0,0.0,0.0,0.0,0.0,-174.5653,176.0519,0.0012,True,False,Mode(963497464),0.8845,35,0.6171
1.898,THRUST_SEARCH,OPEN_LOOP,0.006,0.00602,0.01231,0.01231,0.0,-0.01125,0.618,0.618,0.618,,0.67,,False,0.0,0.0,0.0,0.0,0.0,-174.5653,175.8649,0.003,True,False,Mode(963497464),0.8955,35,0.6171
1.91,THRUST_SEARCH,OPEN_LOOP,0.0065,0.0065,0.01287,0.01287,0.0,-0.00876,0.6182,0.6182,0.6182,,0.67,,False,0.0,0.0,0.0,0.0,0.0,-174.5653,175.596,0.008,True,True,Mode(963497464),0.9065,35,0.6171
1.92,THRUST_SEARCH,OPEN_LOOP,0.0072,0.00716,0.01508,0.01508,0.0,-0.00566,0.6184,0.6184,0.6184,,0.67,,False,0.0,0.0,0.0,0.0,0.0,-174.5653,175.1192,0.001,True,False,Mode(963497464),0.9173,36,0.6182
1.931,THRUST_SEARCH,OPEN_LOOP,0.0077,0.00769,0.01398,0.01398,0.0,-0.00319,0.6186,0.6186,0.6186,,0.67,,False,0.0,0.0,0.0,0.0,0.0,-174.5653,175.1963,0.0031,True,False,Mode(963497464),0.9283,36,0.6182
1.941,THRUST_SEARCH,OPEN_LOOP,0.0082,0.0082,0.01402,0.01402,0.0,-0.00091,0.6188,0.6188,0.6188,,0.67,,False,0.0,0.0,0.0,0.0,0.0,-174.5653,175.3706,0.005,True,False,Mode(963497464),0.9392,36,0.6182
1.953,THRUST_SEARCH,OPEN_LOOP,0.0087,0.0087,0.01405,0.01405,0.0,0.00119,0.6191,0.6191,0.6191,,0.67,,False,0.0,0.0,0.0,0.0,0.0,-174.5653,175.8931,0.002,True,False,Mode(963497464),0.9506,36,0.6182
1.964,THRUST_SEARCH,OPEN_LOOP,0.0092,0.00921,0.01438,0.01438,0.0,0.00323,0.6193,0.6193,0.6193,,0.67,,False,0.0,0.0,0.0,0.0,0.0,-174.5653,176.0774,0.004,True,True,Mode(963497464),0.9616,36,0.6182
1.976,THRUST_SEARCH,OPEN_LOOP,0.0096,0.00961,0.0134,0.0134,0.0,0.00473,0.6195,0.6195,0.6195,,0.67,,False,0.0,0.0,0.0,0.0,0.0,-174.5653,176.1109,0.0072,True,False,Mode(963497464),0.9733,37,0.6193
1.986,THRUST_SEARCH,OPEN_LOOP,0.01,0.00998,0.01335,0.01335,0.0,0.00606,0.6197,0.6197,0.6197,,0.67,,False,0.0,0.0,0.0,0.0,0.0,-174.5653,175.83,0.001,True,False,Mode(963497464),0.9842,37,0.6193
1.997,THRUST_SEARCH,OPEN_LOOP,0.0103,0.01034,0.01343,0.01343,0.0,0.00728,0.6199,0.6199,0.6199,,0.67,,False,0.0,0.0,0.0,0.0,0.0,-174.5653,175.5954,0.003,True,False,Mode(963497464),0.9952,37,0.6193
2.008,THRUST_SEARCH,OPEN_LOOP,0.0106,0.01063,0.0128,0.0128,0.0,0.00814,0.6202,0.6202,0.6202,,0.67,,False,0.0,0.0,0.0,0.0,0.0,-174.5653,175.5382,0.005,True,False,Mode(963497464),1.0062,37,0.6193
2.019,THRUST_SEARCH,OPEN_LOOP,0.0108,0.01081,0.0118,0.0118,0.0,0.00853,0.6204,0.6204,0.6204,,0.67,,False,0.0,0.0,0.0,0.0,0.0,-174.5653,175.9598,0.001,True,True,Mode(963497464),1.0172,37,0.6193
2.03,THRUST_SEARCH,OPEN_LOOP,0.0109,0.01095,0.0114,0.0114,0.0,0.00871,0.6206,0.6206,0.6206,,0.67,,False,0.0,0.0,0.0,0.0,0.0,-174.5653,176.326,0.003,True,False,Mode(963497464),0.0,38,0.6204
2.041,THRUST_SEARCH,OPEN_LOOP,0.011,0.01099,0.01036,0.01099,0.0,0.00846,0.6208,0.6208,0.6208,,0.67,,False,0.0,0.0,0.0,0.0,0.0,-174.5653,176.6982,0.005,True,False,Mode(963497464),0.011,38,0.6204
2.052,THRUST_SEARCH,OPEN_LOOP,0.0108,0.0108,0.00784,0.0108,0.0,0.00729,0.621,0.621,0.621,,0.67,,False,0.0,0.0,0.0,0.0,0.0,-174.5653,176.9423,0.001,True,False,Mode(963497464),0.022,38,0.6204
2.063,THRUST_SEARCH,OPEN_LOOP,0.0106,0.01059,0.00758,0.01059,0.0,0.0061,0.6213,0.6213,0.6213,,0.67,,False,0.0,0.0,0.0,0.0,0.0,-174.5653,176.7731,0.003,True,False,Mode(963497464),0.033,38,0.6204
2.074,THRUST_SEARCH,OPEN_LOOP,0.0103,0.01027,0.00622,0.01027,0.0,0.00451,0.6215,0.6215,0.6215,,0.67,,False,0.0,0.0,0.0,0.0,0.0,-174.5653,176.6034,0.0045,True,True,Mode(963497464),0.0435,38,0.6204
2.085,THRUST_SEARCH,OPEN_LOOP,0.0099,0.00987,0.0052,0.00987,0.0,0.00267,0.6217,0.6217,0.6217,,0.67,,False,0.0,0.0,0.0,0.0,0.0,-174.5653,176.4785,0.0069,True,False,Mode(963497464),0.0544,39,0.6215
2.096,THRUST_SEARCH,OPEN_LOOP,0.0094,0.00941,0.00427,0.00941,0.0,0.00064,0.6219,0.6219,0.6219,,0.67,,False,0.0,0.0,0.0,0.0,0.0,-174.5653,176.4777,0.003,True,False,Mode(963497464),0.0654,39,0.6215
2.107,THRUST_SEARCH,OPEN_LOOP,0.0089,0.00895,0.00396,0.00895,0.0,-0.00132,0.6221,0.6221,0.6221,,0.67,,False,0.0,0.0,0.0,0.0,0.0,-174.5653,176.7466,0.005,True,False,Mode(963497464),0.0764,39,0.6215
2.118,THRUST_SEARCH,OPEN_LOOP,0.0086,0.00861,0.0052,0.00861,0.0,-0.00266,0.6224,0.6224,0.6224,,0.67,,False,0.0,0.0,0.0,0.0,0.0,-174.5653,177.1557,0.007,True,False,Mode(963497464),0.0872,39,0.6215
2.129,THRUST_SEARCH,OPEN_LOOP,0.0083,0.00825,0.00481,0.00825,0.0,-0.00401,0.6226,0.6226,0.6226,,0.67,,False,0.0,0.0,0.0,0.0,0.0,-174.5653,177.5806,0.009,True,True,Mode(963497464),0.0981,39,0.6215
2.139,THRUST_SEARCH,OPEN_LOOP,0.008,0.00802,0.00606,0.00802,0.0,-0.00478,0.6228,0.6228,0.6228,,0.67,,False,0.0,0.0,0.0,0.0,0.0,-174.5653,177.7453,0.005,True,False,Mode(963497464),0.1091,40,0.6226
2.151,THRUST_SEARCH,OPEN_LOOP,0.0078,0.00776,0.00555,0.00776,0.0,-0.00565,0.623,0.623,0.623,,0.67,,False,0.0,0.0,0.0,0.0,0.0,-174.5653,177.7114,0.0074,True,False,Mode(963497464),0.1205,40,0.6226
2.162,THRUST_SEARCH,OPEN_LOOP,0.0075,0.00755,0.00601,0.00755,0.0,-0.00626,0.6232,0.6232,0.6232,,0.67,,False,0.0,0.0,0.0,0.0,0.0,-174.5653,177.7129,0.001,True,False,Mode(963497464),0.1316,40,0.6226
2.173,THRUST_SEARCH,OPEN_LOOP,0.0074,0.00737,0.00624,0.00737,0.0,-0.00671,0.6235,0.6235,0.6235,,0.67,,False,0.0,0.0,0.0,0.0,0.0,-174.5653,177.7476,0.003,True,False,Mode(963497464),0.1425,40,0.6226
2.183,THRUST_SEARCH,OPEN_LOOP,0.0072,0.00724,0.00661,0.00724,0.0,-0.00696,0.6237,0.6237,0.6237,,0.67,,False,0.0,0.0,0.0,0.0,0.0,-174.5653,177.8681,0.0075,True,True,Mode(963497464),0.153,40,0.6226
2.194,THRUST_SEARCH,OPEN_LOOP,0.007,0.00703,0.00565,0.00703,0.0,-0.0075,0.6239,0.6239,0.6239,,0.67,,False,0.0,0.0,0.0,0.0,0.0,-174.5653,177.8293,0.001,True,False,Mode(963497464),0.164,41,0.6237
2.205,THRUST_SEARCH,OPEN_LOOP,0.0067,0.00673,0.00435,0.00673,0.0,-0.00843,0.6241,0.6241,0.6241,,0.67,,False,0.0,0.0,0.0,0.0,0.0,-174.5653,177.6326,0.003,True,False,Mode(963497464),0.175,41,0.6237
2.216,THRUST_SEARCH,OPEN_LOOP,0.0065,0.00655,0.00561,0.00655,0.0,-0.0088,0.6243,0.6243,0.6243,,0.67,,False,0.0,0.0,0.0,0.0,0.0,-174.5653,177.3604,0.0045,True,False,Mode(963497464),0.1854,41,0.6237
2.227,THRUST_SEARCH,OPEN_LOOP,0.0062,0.0062,0.00356,0.0062,0.0,-0.00983,0.6245,0.6245,0.6245,,0.67,,False,0.0,0.0,0.0,0.0,0.0,-174.5653,177.1244,0.001,True,False,Mode(963497464),0.1964,41,0.6237
2.237,THRUST_SEARCH,OPEN_LOOP,0.0059,0.00592,0.00397,0.00592,0.0,-0.01059,0.6247,0.6247,0.6247,,0.67,,False,0.0,0.0,0.0,0.0,0.0,-174.5653,177.1817,0.003,True,True,Mode(963497464),0.2069,41,0.6237
2.248,THRUST_SEARCH,OPEN_LOOP,0.0055,0.00555,0.00285,0.00555,0.0,-0.01165,0.625,0.625,0.625,,0.67,,False,0.0,0.0,0.0,0.0,0.0,-174.5653,177.3469,0.005,True,False,Mode(963497464),0.2179,42,0.6247
2.259,THRUST_SEARCH,OPEN_LOOP,0.0052,0.00523,0.00313,0.00523,0.0,-0.01246,0.6252,0.6252,0.6252,,0.67,,False,0.0,0.0,0.0,0.0,0.0,-174.5653,177.514,0.0067,True,False,Mode(963497464),0.2284,42,0.6247
2.27,THRUST_SEARCH,OPEN_LOOP,0.0048,0.00485,0.00224,0.00485,0.0,-0.01348,0.6254,0.6254,0.6254,,0.67,,False,0.0,0.0,0.0,0.0,0.0,-174.5653,177.65,0.009,True,False,Mode(963497464),0.2393,42,0.6247
2.281,THRUST_SEARCH,OPEN_LOOP,0.0045,0.00445,0.00185,0.00445,0.0,-0.01449,0.6256,0.6256,0.6256,,0.67,,False,0.0,0.0,0.0,0.0,0.0,-174.5653,177.5464,0.002,True,False,Mode(963497464),0.2503,42,0.6247
2.292,THRUST_SEARCH,OPEN_LOOP,0.0042,0.00418,0.00304,0.00418,0.0,-0.01494,0.6258,0.6258,0.6258,,0.67,,False,0.0,0.0,0.0,0.0,0.0,-174.5653,177.5786,0.0067,True,True,Mode(963497464),0.2615,42,0.6247
2.304,THRUST_SEARCH,OPEN_LOOP,0.004,0.00397,0.00351,0.00397,0.0,-0.01512,0.6261,0.6261,0.6261,,0.67,,False,0.0,0.0,0.0,0.0,0.0,-174.5653,177.6437,0.009,True,False,Mode(963497464),0.2725,43,0.6258
2.315,THRUST_SEARCH,OPEN_LOOP,0.0038,0.00381,0.00382,0.00382,0.0,-0.01511,0.6263,0.6263,0.6263,,0.67,,False,0.0,0.0,0.0,0.0,0.0,-174.5653,178.3118,0.002,True,False,Mode(963497464),0.2835,43,0.6258
2.325,THRUST_SEARCH,OPEN_LOOP,0.0037,0.00374,0.00482,0.00482,0.0,-0.01469,0.6265,0.6265,0.6265,,0.67,,False,0.0,0.0,0.0,0.0,0.0,-174.5653,178.7221,0.0074,True,False,Mode(963497464),0.2948,43,0.6258
2.336,THRUST_SEARCH,OPEN_LOOP,0.0037,0.00367,0.00459,0.00459,0.0,-0.01433,0.6267,0.6267,0.6267,,0.67,,False,0.0,0.0,0.0,0.0,0.0,-174.5653,179.1981,0.001,True,False,Mode(963497464),0.3058,43,0.6258
2.348,THRUST_SEARCH,OPEN_LOOP,0.0037,0.00368,0.00549,0.00549,0.0,-0.01362,0.627,0.627,0.627,,0.67,,False,0.0,0.0,0.0,0.0,0.0,-174.5653,179.1956,0.003,True,True,Mode(963497464),0.3168,43,0.6258
2.358,THRUST_SEARCH,OPEN_LOOP,0.0037,0.00371,0.00566,0.00566,0.0,-0.01285,0.6272,0.6272,0.6272,,0.67,,False,0.0,0.0,0.0,0.0,0.0,-174.5653,179.2039,0.0042,True,False,Mode(963497464),0.3279,44,0.627
2.369,THRUST_SEARCH,OPEN_LOOP,0.0038,0.00381,0.00624,0.00624,0.0,-0.01189,0.6274,0.6274,0.6274,,0.67,,False,0.0,0.0,0.0,0.0,0.0,-174.5653,179.2851,0.009,True,False,Mode(963497464),0.3388,44,0.627
2.38,THRUST_SEARCH,OPEN_LOOP,0.004,0.00402,0.00766,0.00766,0.0,-0.01046,0.6276,0.6276,0.6276,,0.67,,False,0.0,0.0,0.0,0.0,0.0,-174.5653,-179.9799,0.002,True,False,Mode(963497464),0.3498,44,0.627
2.391,THRUST_SEARCH,OPEN_LOOP,0.0043,0.00428,0.00825,0.00825,0.0,-0.0089,0.6278,0.6278,0.6278,,0.67,,False,0.0,0.0,0.0,0.0,0.0,-174.5653,-179.5025,0.004,True,False,Mode(963497464),0.3608,44,0.627
2.403,THRUST_SEARCH,OPEN_LOOP,0.0046,0.0046,0.00894,0.00894,0.0,-0.0072,0.628,0.628,0.628,,0.67,,False,0.0,0.0,0.0,0.0,0.0,-174.5653,-179.1166,0.0085,True,True,Mode(963497464),0.3712,44,0.627
2.412,THRUST_SEARCH,OPEN_LOOP,0.0049,0.00495,0.00939,0.00939,0.0,-0.00546,0.6282,0.6282,0.6282,,0.67,,False,0.0,0.0,0.0,0.0,0.0,-174.5653,-178.7666,0.0015,True,False,Mode(963497464),0.3817,45,0.628
2.423,THRUST_SEARCH,OPEN_LOOP,0.0053,0.00533,0.01004,0.01004,0.0,-0.00362,0.6285,0.6285,0.6285,,0.67,,False,0.0,0.0,0.0,0.0,0.0,-174.5653,-178.7359,0.003,True,False,Mode(963497464),0.3927,45,0.628
2.434,THRUST_SEARCH,OPEN_LOOP,0.0057,0.00572,0.01025,0.01025,0.0,-0.00185,0.6287,0.6287,0.6287,,0.67,,False,0.0,0.0,0.0,0.0,0.0,-174.5653,-178.698,0.0075,True,False,Mode(963497464),0.4032,45,0.628
2.445,THRUST_SEARCH,OPEN_LOOP,0.0061,0.00609,0.01028,0.01028,0.0,-0.00022,0.6289,0.6289,0.6289,,0.67,,False,0.0,0.0,0.0,0.0,0.0,-174.5653,-178.2632,0.001,True,False,Mode(963497464),0.4142,45,0.628
2.456,THRUST_SEARCH,OPEN_LOOP,0.0064,0.00643,0.01002,0.01002,0.0,0.00118,0.6291,0.6291,0.6291,,0.67,,False,0.0,0.0,0.0,0.0,0.0,-174.5653,-177.7513,0.0031,True,True,Mode(963497464),0.4252,45,0.628
2.466,THRUST_SEARCH,OPEN_LOOP,0.0067,0.00671,0.00951,0.00951,0.0,0.00227,0.6293,0.6293,0.6293,,0.67,,False,0.0,0.0,0.0,0.0,0.0,-174.5653,-177.1597,0.005,True,False,Mode(963497464),0.4361,46,0.6291
2.478,THRUST_SEARCH,OPEN_LOOP,0.0069,0.0069,0.00868,0.00868,0.0,0.00297,0.6296,0.6296,0.6296,,0.67,,False,0.0,0.0,0.0,0.0,0.0,-174.5653,-176.3696,0.001,True,False,Mode(963497464),0.4472,46,0.6291
2.489,THRUST_SEARCH,OPEN_LOOP,0.0071,0.00712,0.00906,0.00906,0.0,0.00373,0.6298,0.6298,0.6298,,0.67,,False,0.0,0.0,0.0,0.0,0.0,-174.5653,-176.3273,0.0031,True,False,Mode(963497464),0.4583,46,0.6291
2.499,THRUST_SEARCH,OPEN_LOOP,0.0073,0.00733,0.00919,0.00919,0.0,0.00446,0.63,0.63,0.63,,0.67,,False,0.0,0.0,0.0,0.0,0.0,-174.5653,-176.4007,0.005,True,False,Mode(963497464),0.4691,46,0.6291
2.51,THRUST_SEARCH,OPEN_LOOP,0.0075,0.00745,0.0082,0.0082,0.0,0.00475,0.6302,0.6302,0.6302,,0.67,,False,0.0,0.0,0.0,0.0,0.0,-174.5653,-176.654,0.0008,True,True,Mode(963497464),0.4799,46,0.6291
2.521,THRUST_SEARCH,OPEN_LOOP,0.0075,0.00747,0.00716,0.00747,0.0,0.00463,0.6304,0.6304,0.6304,,0.67,,False,0.0,0.0,0.0,0.0,0.0,-174.5653,-176.6593,0.003,True,False,Mode(963497464),0.4909,47,0.6302
2.532,THRUST_SEARCH,OPEN_LOOP,0.0075,0.00745,0.0067,0.00745,0.0,0.00434,0.6306,0.6306,0.6306,,0.67,,False,0.0,0.0,0.0,0.0,0.0,-174.5653,-176.5434,0.0045,True,False,Mode(963497464),0.5013,47,0.6302
2.543,THRUST_SEARCH,OPEN_LOOP,0.0073,0.00733,0.00557,0.00733,0.0,0.00365,0.6309,0.6309,0.6309,,0.67,,False,0.0,0.0,0.0,0.0,0.0,-174.5653,-176.3324,0.0071,True,False,Mode(963497464),0.5124,47,0.6302
2.554,THRUST_SEARCH,OPEN_LOOP,0.0071,0.00705,0.00366,0.00705,0.0,0.00232,0.6311,0.6311,0.6311,,0.67,,False,0.0,0.0,0.0,0.0,0.0,-174.5653,-176.1277,0.009,True,False,Mode(963497464),0.5234,47,0.6302
2.565,THRUST_SEARCH,OPEN_LOOP,0.0067,0.0067,0.00268,0.0067,0.0,0.00075,0.6313,0.6313,0.6313,,0.67,,False,0.0,0.0,0.0,0.0,0.0,-174.5653,-175.8238,0.005,True,True,Mode(963497464),0.5344,47,0.6302
2.575,THRUST_SEARCH,OPEN_LOOP,0.0063,0.00633,0.00229,0.00633,0.0,-0.00082,0.6315,0.6315,0.6315,,0.67,,False,0.0,0.0,0.0,0.0,0.0,-174.5653,-175.7563,0.0069,True,False,Mode(963497464),0.5448,48,0.6313
2.586,THRUST_SEARCH,OPEN_LOOP,0.0059,0.00589,0.00139,0.00589,0.0,-0.00258,0.6317,0.6317,0.6317,,0.67,,False,0.0,0.0,0.0,0.0,0.0,-174.5653,-175.7585,0.009,True,False,Mode(963497464),0.5558,48,0.6313
2.597,THRUST_SEARCH,OPEN_LOOP,0.0053,0.00532,-0.00049,0.00532,0.0,-0.00485,0.6319,0.6319,0.6319,,0.67,,False,0.0,0.0,0.0,0.0,0.0,-174.5653,-175.7187,0.002,True,False,Mode(963497464),0.5667,48,0.6313
2.608,THRUST_SEARCH,OPEN_LOOP,0.0047,0.00468,-0.00148,0.00468,0.0,-0.00725,0.6322,0.6322,0.6322,,0.67,,False,0.0,0.0,0.0,0.0,0.0,-174.5653,-175.476,0.007,True,False,Mode(963497464),0.5774,48,0.6313
2.62,THRUST_SEARCH,OPEN_LOOP,0.004,0.004,-0.00242,0.004,0.0,-0.00975,0.6324,0.6324,0.6324,,0.67,,False,0.0,0.0,0.0,0.0,0.0,-174.5653,-175.294,0.009,True,True,Mode(963497464),0.5884,48,0.6313
2.629,THRUST_SEARCH,OPEN_LOOP,0.0033,0.00325,-0.00365,0.00325,0.0,-0.01244,0.6326,0.6326,0.6326,,0.67,,False,0.0,0.0,0.0,0.0,0.0,-174.5653,-175.0714,0.0035,True,False,Mode(963497464),0.5989,49,0.6324
2.64,THRUST_SEARCH,OPEN_LOOP,0.0026,0.0026,-0.00286,0.0026,0.0,-0.01456,0.6328,0.6328,0.6328,,0.67,,False,0.0,0.0,0.0,0.0,0.0,-174.5653,-175.1604,0.0061,True,False,Mode(963497464),0.61,49,0.6324
2.651,THRUST_SEARCH,OPEN_LOOP,0.002,0.00203,-0.00239,0.00203,0.0,-0.01628,0.633,0.633,0.633,,0.67,,False,0.0,0.0,0.0,0.0,0.0,-174.5653,-175.1485,0.0075,True,False,Mode(963497464),0.6203,49,0.6324
2.662,THRUST_SEARCH,OPEN_LOOP,0.0015,0.00148,-0.00245,0.00148,0.0,-0.01781,0.6332,0.6332,0.6332,,0.67,,False,0.0,0.0,0.0,0.0,0.0,-174.5653,-174.978,0.001,True,False,Mode(963497464),0.6313,49,0.6324
2.673,THRUST_SEARCH,OPEN_LOOP,0.0011,0.0011,-0.00097,0.0011,0.0,-0.01861,0.6335,0.6335,0.6335,,0.67,,False,0.0,0.0,0.0,0.0,0.0,-174.5653,-174.6509,0.003,True,True,Mode(963497464),0.6423,49,0.6324
2.684,THRUST_SEARCH,OPEN_LOOP,0.0007,0.0007,-0.00135,0.0007,0.0,-0.01941,0.6337,0.6337,0.6337,,0.67,,False,0.0,0.0,0.0,0.0,0.0,-174.5653,-174.2164,0.005,True,False,Mode(963497464),0.6533,50,0.6335
2.695,THRUST_SEARCH,OPEN_LOOP,0.0004,0.00044,-6e-05,0.00044,0.0,-0.0196,0.6339,0.6339,0.6339,,0.67,,False,0.0,0.0,0.0,0.0,0.0,-174.5653,-173.3901,0.001,True,False,Mode(963497464),0.6643,50,0.6335
2.706,THRUST_SEARCH,OPEN_LOOP,0.0002,0.00017,-0.00036,0.00017,0.0,-0.01981,0.6341,0.6341,0.6341,,0.67,,False,0.0,0.0,0.0,0.0,0.0,-174.5653,-173.0951,0.003,True,False,Mode(963497464),0.6753,50,0.6335
2.716,THRUST_SEARCH,OPEN_LOOP,0.0002,0.00019,0.00263,0.00263,0.0,-0.01886,0.6343,0.6343,0.6343,,0.67,,False,0.0,0.0,0.0,0.0,0.0,-174.5653,-172.8346,0.0045,True,False,Mode(963497464),0.6857,50,0.6335
2.727,THRUST_SEARCH,OPEN_LOOP,0.0003,0.0003,0.00363,0.00363,0.0,-0.01756,0.6345,0.6345,0.6345,,0.67,,False,0.0,0.0,0.0,0.0,0.0,-174.5653,-172.0935,0.001,True,True,Mode(963497464),0.6967,50,0.6335
2.738,THRUST_SEARCH,OPEN_LOOP,0.0004,0.00043,0.00391,0.00391,0.0,-0.01621,0.6348,0.6348,0.6348,,0.67,,False,0.0,0.0,0.0,0.0,0.0,-174.5653,-171.6153,0.003,True,False,Mode(963497464),0.7077,51,0.6345
2.748,THRUST_SEARCH,OPEN_LOOP,0.0007,0.00066,0.00484,0.00484,0.0,-0.01459,0.635,0.635,0.635,,0.67,,False,0.0,0.0,0.0,0.0,0.0,-174.5653,-171.0503,0.0045,True,False,Mode(963497464),0.7181,51,0.6345
2.759,THRUST_SEARCH,OPEN_LOOP,0.0008,0.00083,0.00433,0.00433,0.0,-0.01323,0.6352,0.6352,0.6352,,0.67,,False,0.0,0.0,0.0,0.0,0.0,-174.5653,-170.5483,0.007,True,False,Mode(963497464),0.7291,51,0.6345
2.771,THRUST_SEARCH,OPEN_LOOP,0.001,0.00103,0.00477,0.00477,0.0,-0.01176,0.6354,0.6354,0.6354,,0.67,,False,0.0,0.0,0.0,0.0,0.0,-174.5653,-169.7662,0.001,True,False,Mode(963497464),0.7406,51,0.6345
2.782,THRUST_SEARCH,OPEN_LOOP,0.0013,0.00126,0.00499,0.00499,0.0,-0.01031,0.6356,0.6356,0.6356,,0.67,,False,0.0,0.0,0.0,0.0,0.0,-174.5653,-169.6484,0.003,True,True,Mode(963497464),0.7511,51,0.6345
2.792,THRUST_SEARCH,OPEN_LOOP,0.0016,0.00162,0.00669,0.00669,0.0,-0.00834,0.6358,0.6358,0.6358,,0.67,,False,0.0,0.0,0.0,0.0,0.0,-174.5653,-169.7185,0.0074,True,False,Mode(963497464),0.7615,52,0.6356
2.803,THRUST_SEARCH,OPEN_LOOP,0.0019,0.00192,0.00608,0.00608,0.0,-0.00672,0.6361,0.6361,0.6361,,0.67,,False,0.0,0.0,0.0,0.0,0.0,-174.5653,-169.9738,0.001,True,False,Mode(963497464),0.7725,52,0.6356
2.814,THRUST_SEARCH,OPEN_LOOP,0.0023,0.00226,0.00663,0.00663,0.0,-0.00502,0.6363,0.6363,0.6363,,0.67,,False,0.0,0.0,0.0,0.0,0.0,-174.5653,-169.9676,0.003,True,False,Mode(963497464),0.7834,52,0.6356
2.825,THRUST_SEARCH,OPEN_LOOP,0.0025,0.00253,0.00596,0.00596,0.0,-0.00369,0.6365,0.6365,0.6365,,0.67,,False,0.0,0.0,0.0,0.0,0.0,-174.5653,-169.7798,0.005,True,False,Mode(963497464),0.7944,52,0.6356
2.836,THRUST_SEARCH,OPEN_LOOP,0.0027,0.00274,0.00544,0.00544,0.0,-0.00263,0.6367,0.6367,0.6367,,0.67,,False,0.0,0.0,0.0,0.0,0.0,-174.5653,-169.0161,0.001,True,True,Mode(963497464),0.8054,52,0.6356
2.847,THRUST_SEARCH,OPEN_LOOP,0.003,0.00296,0.00556,0.00556,0.0,-0.00162,0.6369,0.6369,0.6369,,0.67,,False,0.0,0.0,0.0,0.0,0.0,-174.5653,-168.6596,0.003,True,False,Mode(963497464),0.8164,53,0.6367
2.858,THRUST_SEARCH,OPEN_LOOP,0.0032,0.0032,0.00596,0.00596,0.0,-0.00054,0.6372,0.6372,0.6372,,0.67,,False,0.0,0.0,0.0,0.0,0.0,-174.5653,-168.4908,0.005,True,False,Mode(963497464),0.8273,53,0.6367
2.869,THRUST_SEARCH,OPEN_LOOP,0.0034,0.00337,0.00528,0.00528,0.0,0.0002,0.6374,0.6374,0.6374,,0.67,,False,0.0,0.0,0.0,0.0,0.0,-174.5653,-168.5121,0.001,True,False,Mode(963497464),0.8387,53,0.6367
2.88,THRUST_SEARCH,OPEN_LOOP,0.0035,0.00351,0.00496,0.00496,0.0,0.00077,0.6376,0.6376,0.6376,,0.67,,False,0.0,0.0,0.0,0.0,0.0,-174.5653,-168.5176,0.003,True,False,Mode(963497464),0.8497,53,0.6367
2.891,THRUST_SEARCH,OPEN_LOOP,0.0036,0.00362,0.00467,0.00467,0.0,0.00118,0.6378,0.6378,0.6378,,0.67,,False,0.0,0.0,0.0,0.0,0.0,-174.5653,-168.3928,0.005,True,True,Mode(963497464),0.8606,53,0.6367
2.902,THRUST_SEARCH,OPEN_LOOP,0.0036,0.00363,0.0036,0.00363,0.0,0.00117,0.638,0.638,0.638,,0.67,,False,0.0,0.0,0.0,0.0,0.0,-174.5653,-167.4605,0.001,True,False,Mode(963497464),0.8715,54,0.6378
2.914,THRUST_SEARCH,OPEN_LOOP,0.0035,0.00353,0.00233,0.00353,0.0,0.0007,0.6383,0.6383,0.6383,,0.67,,False,0.0,0.0,0.0,0.0,0.0,-174.5653,-166.8141,0.003,True,False,Mode(963497464),0.8825,54,0.6378
2.923,THRUST_SEARCH,OPEN_LOOP,0.0035,0.00346,0.00262,0.00346,0.0,0.00037,0.6385,0.6385,0.6385,,0.67,,False,0.0,0.0,0.0,0.0,0.0,-174.5653,-166.0635,0.0045,True,False,Mode(963497464),0.893,54,0.6378
2.934,THRUST_SEARCH,OPEN_LOOP,0.0034,0.00337,0.00244,0.00337,0.0,1e-05,0.6387,0.6387,0.6387,,0.67,,False,0.0,0.0,0.0,0.0,0.0,-174.5653,-165.4318,0.007,True,False,Mode(963497464),0.904,54,0.6378
2.947,THRUST_SEARCH,OPEN_LOOP,0.0032,0.00321,0.00146,0.00321,0.0,-0.00067,0.6389,0.6389,0.6389,,0.67,,False,0.0,0.0,0.0,0.0,0.0,-174.5653,-164.9075,0.01,True,True,Mode(963497464),0.0,54,0.6378
2.956,THRUST_SEARCH,OPEN_LOOP,0.003,0.00296,0.00036,0.00296,0.0,-0.00169,0.6391,0.6391,0.6391,,0.67,,False,0.0,0.0,0.0,0.0,0.0,-174.5653,-164.0392,0.002,True,False,Mode(963497464),0.0096,55,0.6389
2.967,THRUST_SEARCH,OPEN_LOOP,0.0027,0.00269,6e-05,0.00269,0.0,-0.00272,0.6393,0.6393,0.6393,,0.67,,False,0.0,0.0,0.0,0.0,0.0,-174.5653,-163.6642,0.007,True,False,Mode(963497464),0.0208,55,0.6389
2.978,THRUST_SEARCH,OPEN_LOOP,0.0023,0.00232,-0.0013,0.00232,0.0,-0.00413,0.6396,0.6396,0.6396,,0.67,,False,0.0,0.0,0.0,0.0,0.0,-174.5653,-163.2353,0.009,True,False,Mode(963497464),0.0318,55,0.6389
2.989,THRUST_SEARCH,OPEN_LOOP,0.0018,0.00183,-0.00285,0.00183,0.0,-0.00597,0.6398,0.6398,0.6398,,0.67,,False,0.0,0.0,0.0,0.0,0.0,-174.5653,-162.462,0.002,True,False,Mode(963497464),0.0427,55,0.6389
3.0,THRUST_SEARCH,OPEN_LOOP,0.0012,0.00125,-0.0042,0.00125,0.0,-0.0081,0.64,0.64,0.64,,0.67,,False,0.0,0.0,0.0,0.0,0.0,-174.5653,-162.2964,0.0072,True,True,Mode(963497464),0.0539,55,0.6389
3.011,THRUST_SEARCH,OPEN_LOOP,0.0008,0.00076,-0.00342,0.00076,0.0,-0.00975,0.6402,0.6402,0.6402,,0.67,,False,0.0,0.0,0.0,0.0,0.0,-174.5653,-162.6423,0.001,True,False,Mode(963497464),0.0649,56,0.64
3.022,THRUST_SEARCH,OPEN_LOOP,0.0003,0.00027,-0.00378,0.00027,0.0,-0.01134,0.6404,0.6404,0.6404,,0.67,,False,0.0,0.0,0.0,0.0,0.0,-174.5653,-162.7742,0.003,True,False,Mode(963497464),0.0759,56,0.64
3.033,THRUST_SEARCH,OPEN_LOOP,-0.0001,-6e-05,-0.00225,-6e-05,0.0,-0.0122,0.6407,0.6407,0.6407,,0.67,,False,0.0,0.0,0.0,0.0,0.0,-174.5653,-162.5908,0.005,True,False,Mode(963497464),0.0869,56,0.64
3.044,THRUST_SEARCH,OPEN_LOOP,-0.0003,-0.00026,-0.001,-0.00026,0.0,-0.01249,0.6409,0.6409,0.6409,,0.67,,False,0.0,0.0,0.0,0.0,0.0,-174.5653,-162.0143,0.001,True,False,Mode(963497464),0.0976,56,0.64
3.055,THRUST_SEARCH,OPEN_LOOP,-0.0004,-0.00039,-0.00026,-0.00026,0.0,-0.01244,0.6411,0.6411,0.6411,,0.67,,False,0.0,0.0,0.0,0.0,0.0,-174.5653,-162.0437,0.003,True,True,Mode(963497464),0.1085,56,0.64
3.066,THRUST_SEARCH,OPEN_LOOP,-0.0005,-0.00046,0.00025,0.00025,0.0,-0.01216,0.6413,0.6413,0.6413,,0.67,,False,0.0,0.0,0.0,0.0,0.0,-174.5653,-162.2214,0.005,True,False,Mode(963497464),0.1195,57,0.6411
3.076,THRUST_SEARCH,OPEN_LOOP,-0.0004,-0.00038,0.00177,0.00177,0.0,-0.01132,0.6415,0.6415,0.6415,,0.67,,False,0.0,0.0,0.0,0.0,0.0,-174.5653,-162.4162,0.006,True,False,Mode(963497464),0.1299,57,0.6411
3.087,THRUST_SEARCH,OPEN_LOOP,-0.0001,-0.00014,0.0037,0.0037,0.0,-0.00982,0.6417,0.6417,0.6417,,0.67,,False,0.0,0.0,0.0,0.0,0.0,-174.5653,-162.949,0.001,True,False,Mode(963497464),0.1409,57,0.6411
3.098,THRUST_SEARCH,OPEN_LOOP,0.0002,0.00024,0.00542,0.00542,0.0,-0.00779,0.642,0.642,0.642,,0.67,,False,0.0,0.0,0.0,0.0,0.0,-174.5653,-163.0161,0.003,True,False,Mode(963497464),0.1518,57,0.6411
3.109,THRUST_SEARCH,OPEN_LOOP,0.0006,0.00062,0.00553,0.00553,0.0,-0.00588,0.6422,0.6422,0.6422,,0.67,,False,0.0,0.0,0.0,0.0,0.0,-174.5653,-163.0198,0.0075,True,True,Mode(963497464),0.1623,57,0.6411
3.12,THRUST_SEARCH,OPEN_LOOP,0.0011,0.00107,0.00656,0.00656,0.0,-0.00373,0.6424,0.6424,0.6424,,0.67,,False,0.0,0.0,0.0,0.0,0.0,-174.5653,-162.647,0.0011,True,False,Mode(963497464),0.1734,58,0.6422
3.131,THRUST_SEARCH,OPEN_LOOP,0.0015,0.00147,0.00613,0.00613,0.0,-0.00191,0.6426,0.6426,0.6426,,0.67,,False,0.0,0.0,0.0,0.0,0.0,-174.5653,-162.4778,0.003,True,False,Mode(963497464),0.1844,58,0.6422
3.142,THRUST_SEARCH,OPEN_LOOP,0.002,0.00196,0.00731,0.00731,0.0,0.00018,0.6428,0.6428,0.6428,,0.67,,False,0.0,0.0,0.0,0.0,0.0,-174.5653,-162.4038,0.005,True,False,Mode(963497464),0.1953,58,0.6422
3.152,THRUST_SEARCH,OPEN_LOOP,0.0024,0.00238,0.00689,0.00689,0.0,0.00194,0.643,0.643,0.643,,0.67,,False,0.0,0.0,0.0,0.0,0.0,-174.5653,-162.4809,0.007,True,False,Mode(963497464),0.2059,58,0.6422
3.163,THRUST_SEARCH,OPEN_LOOP,0.0029,0.00292,0.00843,0.00843,0.0,0.00408,0.6433,0.6433,0.6433,,0.67,,False,0.0,0.0,0.0,0.0,0.0,-174.5653,-162.5855,0.003,True,True,Mode(963497464),0.2168,58,0.6422
3.174,THRUST_SEARCH,OPEN_LOOP,0.0034,0.00342,0.0082,0.0082,0.0,0.00595,0.6435,0.6435,0.6435,,0.67,,False,0.0,0.0,0.0,0.0,0.0,-174.5653,-162.5004,0.005,True,False,Mode(963497464),0.2278,59,0.6433
3.185,THRUST_SEARCH,OPEN_LOOP,0.0039,0.00388,0.00807,0.00807,0.0,0.00759,0.6437,0.6437,0.6437,,0.67,,False,0.0,0.0,0.0,0.0,0.0,-174.5653,-162.2898,0.007,True,False,Mode(963497464),0.2389,59,0.6433
3.197,THRUST_SEARCH,OPEN_LOOP,0.0043,0.00428,0.0076,0.0076,0.0,0.00889,0.6439,0.6439,0.6439,,0.67,,False,0.0,0.0,0.0,0.0,0.0,-174.5653,-161.6244,0.004,True,False,Mode(963497464),0.2504,59,0.6433
3.208,THRUST_SEARCH,OPEN_LOOP,0.0045,0.00453,0.00605,0.00605,0.0,0.00949,0.6442,0.6442,0.6442,,0.67,,False,0.0,0.0,0.0,0.0,0.0,-174.5653,-161.106,0.006,True,False,Mode(963497464),0.2614,59,0.6433
3.219,THRUST_SEARCH,OPEN_LOOP,0.0048,0.00476,0.00618,0.00618,0.0,0.01005,0.6444,0.6444,0.6444,,0.67,,False,0.0,0.0,0.0,0.0,0.0,-174.5653,-160.644,0.008,True,True,Mode(963497464),0.2723,59,0.6433
3.23,THRUST_SEARCH,OPEN_LOOP,0.0049,0.00492,0.00542,0.00542,0.0,0.01025,0.6446,0.6446,0.6446,,0.67,,False,0.0,0.0,0.0,0.0,0.0,-174.5653,-160.0595,0.001,True,False,Mode(963497464),0.2833,60,0.6444
3.241,THRUST_SEARCH,OPEN_LOOP,0.0051,0.00514,0.0062,0.0062,0.0,0.01067,0.6448,0.6448,0.6448,,0.67,,False,0.0,0.0,0.0,0.0,0.0,-174.5653,-159.7922,0.006,True,False,Mode(963497464),0.2943,60,0.6444
3.252,THRUST_SEARCH,OPEN_LOOP,0.0052,0.00521,0.00472,0.00521,0.0,0.01048,0.645,0.645,0.645,,0.67,,False,0.0,0.0,0.0,0.0,0.0,-174.5653,-159.5091,0.008,True,False,Mode(963497464),0.3053,60,0.6444
3.263,THRUST_SEARCH,OPEN_LOOP,0.0052,0.00515,0.00339,0.00515,0.0,0.00978,0.6453,0.6453,0.6453,,0.67,,False,0.0,0.0,0.0,0.0,0.0,-174.5653,-158.7976,0.001,True,False,Mode(963497464),0.3162,60,0.6444
3.273,THRUST_SEARCH,OPEN_LOOP,0.005,0.00498,0.00198,0.00498,0.0,0.0086,0.6455,0.6455,0.6455,,0.67,,False,0.0,0.0,0.0,0.0,0.0,-174.5653,-158.4011,0.003,True,True,Mode(963497464),0.3272,60,0.6444
3.284,THRUST_SEARCH,OPEN_LOOP,0.0047,0.00472,0.00108,0.00472,0.0,0.00717,0.6457,0.6457,0.6457,,0.67,,False,0.0,0.0,0.0,0.0,0.0,-174.5653,-158.0397,0.008,True,False,Mode(963497464),0.3382,61,0.6455
3.296,THRUST_SEARCH,OPEN_LOOP,0.0044,0.00441,0.00024,0.00441,0.0,0.00552,0.6459,0.6459,0.6459,,0.67,,False,0.0,0.0,0.0,0.0,0.0,-174.5653,-157.4162,0.001,True,False,Mode(963497464),0.3494,61,0.6455
3.307,THRUST_SEARCH,OPEN_LOOP,0.0042,0.00418,0.00114,0.00418,0.0,0.00433,0.6461,0.6461,0.6461,,0.67,,False,0.0,0.0,0.0,0.0,0.0,-174.5653,-157.2073,0.003,True,False,Mode(963497464),0.3603,61,0.6455
3.317,THRUST_SEARCH,OPEN_LOOP,0.0038,0.00383,-0.0003,0.00383,0.0,0.0027,0.6463,0.6463,0.6463,,0.67,,False,0.0,0.0,0.0,0.0,0.0,-174.5653,-156.9997,0.0075,True,False,Mode(963497464),0.3708,61,0.6455
3.328,THRUST_SEARCH,OPEN_LOOP,0.0034,0.00338,-0.00164,0.00338,0.0,0.00073,0.6466,0.6466,0.6466,,0.67,,False,0.0,0.0,0.0,0.0,0.0,-174.5653,-156.4265,0.0011,True,True,Mode(963497464),0.3819,61,0.6455
3.339,THRUST_SEARCH,OPEN_LOOP,0.0029,0.0029,-0.00233,0.0029,0.0,-0.00133,0.6468,0.6468,0.6468,,0.67,,False,0.0,0.0,0.0,0.0,0.0,-174.5653,-156.1573,0.0031,True,False,Mode(963497464),0.393,62,0.6466
