time,state,controller_mode,target_z,curr_z,raw_z,height_for_safety,target_vz,curr_vz,thrust,raw_thrust,search_thrust,liftoff_thrust,hover_thrust_est,thrust_no_floor,floor_applied,a_cmd_z,v_cmd_z,z_integral,roll_cmd_deg,pitch_cmd_deg,yaw_cmd_deg,yaw_mocap_deg,mocap_age,kf_used_measurement,mavlink_sent,mav_mode,mav_heartbeat_age,mav_send_count,mav_last_thrust
0.001,THRUST_SEARCH,OPEN_LOOP,0.0001,9e-05,5e-05,9e-05,0.0,-2e-05,0.58,0.58,0.58,,0.67,,False,0.0,0.0,0.0,0.0,0.0,-109.8061,-109.7356,0.001,True,True,Mode(963497464),0.0,0,
0.01,THRUST_SEARCH,OPEN_LOOP,0.0001,0.00012,0.00016,0.00016,0.0,7e-05,0.5802,0.5802,0.5802,,0.67,,False,0.0,0.0,0.0,0.0,0.0,-109.8061,-109.7221,0.0075,True,False,Mode(963497464),0.0105,1,0.58
0.022,THRUST_SEARCH,OPEN_LOOP,0.0001,0.00012,0.00012,0.00012,0.0,6e-05,0.5804,0.5804,0.5804,,0.67,,False,0.0,0.0,0.0,0.0,0.0,-109.8061,-109.7233,0.0013,True,False,Mode(963497464),0.0217,1,0.58
0.032,THRUST_SEARCH,OPEN_LOOP,0.0002,0.00019,0.00034,0.00034,0.0,0.00084,0.5806,0.5806,0.5806,,0.67,,False,0.0,0.0,0.0,0.0,0.0,-109.8061,-109.776,0.0015,True,False,Mode(963497464),0.0322,1,0.58
0.043,THRUST_SEARCH,OPEN_LOOP,0.0001,0.00012,-6e-05,0.00012,0.0,-0.00026,0.5809,0.5809,0.5809,,0.67,,False,0.0,0.0,0.0,0.0,0.0,-109.8061,-109.8139,0.006,True,False,Mode(963497464),0.0432,1,0.58
0.054,THRUST_SEARCH,OPEN_LOOP,-0.0,-1e-05,-0.00034,-1e-05,0.0,-0.00231,0.5811,0.5811,0.5811,,0.67,,False,0.0,0.0,0.0,0.0,0.0,-109.8061,-109.8394,0.0075,True,True,Mode(963497464),0.0537,1,0.58
0.064,THRUST_SEARCH,OPEN_LOOP,-0.0001,-0.00012,-0.00031,-0.00012,0.0,-0.00353,0.5813,0.5813,0.5813,,0.67,,False,0.0,0.0,0.0,0.0,0.0,-109.8061,-109.8427,0.001,True,False,Mode(963497464),0.0644,2,0.5811
0.075,THRUST_SEARCH,OPEN_LOOP,-0.0002,-0.00015,-0.00015,-0.00015,0.0,-0.0035,0.5815,0.5815,0.5815,,0.67,,False,0.0,0.0,0.0,0.0,0.0,-109.8061,-109.8455,0.006,True,False,Mode(963497464),0.0754,2,0.5811
0.086,THRUST_SEARCH,OPEN_LOOP,-0.0001,-0.00011,8e-05,8e-05,0.0,-0.00244,0.5817,0.5817,0.5817,,0.67,,False,0.0,0.0,0.0,0.0,0.0,-109.8061,-109.8464,0.008,True,False,Mode(963497464),0.0864,2,0.5811
0.097,THRUST_SEARCH,OPEN_LOOP,-0.0001,-0.00013,-0.0001,-0.0001,0.0,-0.00229,0.5819,0.5819,0.5819,,0.67,,False,0.0,0.0,0.0,0.0,0.0,-109.8061,-109.8745,0.0011,True,False,Mode(963497464),0.0974,2,0.5811
0.108,THRUST_SEARCH,OPEN_LOOP,-0.0002,-0.00018,-0.00026,-0.00018,0.0,-0.00261,0.5822,0.5822,0.5822,,0.67,,False,0.0,0.0,0.0,0.0,0.0,-109.8061,-109.8805,0.003,True,True,Mode(963497464),0.1084,2,0.5811
0.119,THRUST_SEARCH,OPEN_LOOP,-0.0001,-9e-05,0.00027,0.00027,0.0,-0.00126,0.5824,0.5824,0.5824,,0.67,,False,0.0,0.0,0.0,0.0,0.0,-109.8061,-109.8768,0.008,True,False,Mode(963497464),0.1194,3,0.5822
0.13,THRUST_SEARCH,OPEN_LOOP,0.0002,0.00022,0.00122,0.00122,0.0,0.00208,0.5826,0.5826,0.5826,,0.67,,False,0.0,0.0,0.0,0.0,0.0,-109.8061,-109.8817,0.001,True,False,Mode(963497464),0.1304,3,0.5822
0.141,THRUST_SEARCH,OPEN_LOOP,0.0006,0.0006,0.00178,0.00178,0.0,0.00555,0.5828,0.5828,0.5828,,0.67,,False,0.0,0.0,0.0,0.0,0.0,-109.8061,-109.8794,0.003,True,False,Mode(963497464),0.1413,3,0.5822
0.152,THRUST_SEARCH,OPEN_LOOP,0.001,0.00101,0.00226,0.00226,0.0,0.00879,0.583,0.583,0.583,,0.67,,False,0.0,0.0,0.0,0.0,0.0,-109.8061,-109.7767,0.0045,True,False,Mode(963497464),0.1518,3,0.5822
0.162,THRUST_SEARCH,OPEN_LOOP,0.0017,0.00165,0.00369,0.00369,0.0,0.01348,0.5832,0.5832,0.5832,,0.67,,False,0.0,0.0,0.0,0.0,0.0,-109.8061,-109.2006,0.0007,True,True,Mode(963497464),0.1625,3,0.5822
0.173,THRUST_SEARCH,OPEN_LOOP,0.0024,0.00235,0.00455,0.00455,0.0,0.01802,0.5835,0.5835,0.5835,,0.67,,False,0.0,0.0,0.0,0.0,0.0,-109.8061,-108.9018,0.003,True,False,Mode(963497464),0.1734,4,0.5832
0.184,THRUST_SEARCH,OPEN_LOOP,0.0029,0.00289,0.00433,0.00433,0.0,0.0207,0.5837,0.5837,0.5837,,0.67,,False,0.0,0.0,0.0,0.0,0.0,-109.8061,-108.6589,0.0045,True,False,Mode(963497464),0.1839,4,0.5832
0.195,THRUST_SEARCH,OPEN_LOOP,0.0036,0.00356,0.0055,0.0055,0.0,0.02397,0.5839,0.5839,0.5839,,0.67,,False,0.0,0.0,0.0,0.0,0.0,-109.8061,-108.5296,0.007,True,False,Mode(963497464),0.1949,4,0.5832
0.206,THRUST_SEARCH,OPEN_LOOP,0.0046,0.00456,0.00797,0.00797,0.0,0.02918,0.5841,0.5841,0.5841,,0.67,,False,0.0,0.0,0.0,0.0,0.0,-109.8061,-108.8353,0.003,True,False,Mode(963497464),0.2058,4,0.5832
0.217,THRUST_SEARCH,OPEN_LOOP,0.0057,0.00566,0.00941,0.00941,0.0,0.03442,0.5843,0.5843,0.5843,,0.67,,False,0.0,0.0,0.0,0.0,0.0,-109.8061,-109.0757,0.005,True,True,Mode(963497464),0.2168,4,0.5832
0.228,THRUST_SEARCH,OPEN_LOOP,0.0068,0.00678,0.01049,0.01049,0.0,0.03918,0.5846,0.5846,0.5846,,0.67,,False,0.0,0.0,0.0,0.0,0.0,-109.8061,-109.2929,0.007,True,False,Mode(963497464),0.2278,5,0.5843
0.239,THRUST_SEARCH,OPEN_LOOP,0.008,0.00796,0.01193,0.01193,0.0,0.04386,0.5848,0.5848,0.5848,,0.67,,False,0.0,0.0,0.0,0.0,0.0,-109.8061,-109.5041,0.009,True,False,Mode(963497464),0.2388,5,0.5843
0.249,THRUST_SEARCH,OPEN_LOOP,0.0091,0.00908,0.01269,0.01269,0.0,0.04778,0.585,0.585,0.585,,0.67,,False,0.0,0.0,0.0,0.0,0.0,-109.8061,-109.4645,0.0045,True,False,Mode(963497464),0.2492,5,0.5843
0.26,THRUST_SEARCH,OPEN_LOOP,0.01,0.00996,0.01203,0.01203,0.0,0.04987,0.5852,0.5852,0.5852,,0.67,,False,0.0,0.0,0.0,0.0,0.0,-109.8061,-109.3037,0.007,True,False,Mode(963497464),0.2602,5,0.5843
0.271,THRUST_SEARCH,OPEN_LOOP,0.0109,0.01092,0.01331,0.01331,0.0,0.05213,0.5854,0.5854,0.5854,,0.67,,False,0.0,0.0,0.0,0.0,0.0,-109.8061,-109.3318,0.0015,True,True,Mode(963497464),0.2712,5,0.5843
0.282,THRUST_SEARCH,OPEN_LOOP,0.0118,0.01175,0.0134,0.0134,0.0,0.05358,0.5856,0.5856,0.5856,,0.67,,False,0.0,0.0,0.0,0.0,0.0,-109.8061,-109.5457,0.003,True,False,Mode(963497464),0.2822,6,0.5854
0.293,THRUST_SEARCH,OPEN_LOOP,0.0126,0.01261,0.01451,0.01451,0.0,0.05514,0.5859,0.5859,0.5859,,0.67,,False,0.0,0.0,0.0,0.0,0.0,-109.8061,-109.8316,0.0045,True,False,Mode(963497464),0.2927,6,0.5854
0.304,THRUST_SEARCH,OPEN_LOOP,0.0134,0.01342,0.01466,0.01466,0.0,0.0561,0.5861,0.5861,0.5861,,0.67,,False,0.0,0.0,0.0,0.0,0.0,-109.8061,-110.1266,0.0042,True,False,Mode(963497464),0.3038,6,0.5854
0.315,THRUST_SEARCH,OPEN_LOOP,0.0141,0.01411,0.01466,0.01466,0.0,0.05651,0.5863,0.5863,0.5863,,0.67,,False,0.0,0.0,0.0,0.0,0.0,-109.8061,-110.591,0.003,True,False,Mode(963497464),0.3148,6,0.5854
0.326,THRUST_SEARCH,OPEN_LOOP,0.0149,0.01487,0.01579,0.01579,0.0,0.05715,0.5865,0.5865,0.5865,,0.67,,False,0.0,0.0,0.0,0.0,0.0,-109.8061,-110.6739,0.005,True,True,Mode(963497464),0.3258,6,0.5854
0.337,THRUST_SEARCH,OPEN_LOOP,0.0153,0.01529,0.01374,0.01529,0.0,0.05612,0.5867,0.5867,0.5867,,0.67,,False,0.0,0.0,0.0,0.0,0.0,-109.8061,-110.615,0.007,True,False,Mode(963497464),0.337,7,0.5865
0.347,THRUST_SEARCH,OPEN_LOOP,0.0155,0.01554,0.01307,0.01554,0.0,0.05456,0.5869,0.5869,0.5869,,0.67,,False,0.0,0.0,0.0,0.0,0.0,-109.8061,-110.5717,0.009,True,False,Mode(963497464),0.3474,7,0.5865
0.358,THRUST_SEARCH,OPEN_LOOP,0.0157,0.01574,0.01284,0.01574,0.0,0.05281,0.5872,0.5872,0.5872,,0.67,,False,0.0,0.0,0.0,0.0,0.0,-109.8061,-110.7375,0.0045,True,False,Mode(963497464),0.3579,7,0.5865
0.369,THRUST_SEARCH,OPEN_LOOP,0.016,0.01597,0.01338,0.01597,0.0,0.0513,0.5874,0.5874,0.5874,,0.67,,False,0.0,0.0,0.0,0.0,0.0,-109.8061,-110.967,0.0067,True,False,Mode(963497464),0.3686,7,0.5865
0.381,THRUST_SEARCH,OPEN_LOOP,0.0162,0.01621,0.01366,0.01621,0.0,0.04988,0.5876,0.5876,0.5876,,0.67,,False,0.0,0.0,0.0,0.0,0.0,-109.8061,-111.2241,0.009,True,True,Mode(963497464),0.3796,7,0.5865
0.391,THRUST_SEARCH,OPEN_LOOP,0.0165,0.01645,0.01396,0.01645,0.0,0.04853,0.5878,0.5878,0.5878,,0.67,,False,0.0,0.0,0.0,0.0,0.0,-109.8061,-111.6912,0.001,True,False,Mode(963497464),0.3906,8,0.5876
0.402,THRUST_SEARCH,OPEN_LOOP,0.0166,0.01664,0.01373,0.01664,0.0,0.04701,0.588,0.588,0.588,,0.67,,False,0.0,0.0,0.0,0.0,0.0,-109.8061,-111.7948,0.006,True,False,Mode(963497464),0.4015,8,0.5876
0.413,THRUST_SEARCH,OPEN_LOOP,0.0167,0.01669,0.01277,0.01669,0.0,0.04503,0.5883,0.5883,0.5883,,0.67,,False,0.0,0.0,0.0,0.0,0.0,-109.8061,-111.7591,0.008,True,False,Mode(963497464),0.4125,8,0.5876
0.423,THRUST_SEARCH,OPEN_LOOP,0.0166,0.01661,0.01168,0.01661,0.0,0.04259,0.5885,0.5885,0.5885,,0.67,,False,0.0,0.0,0.0,0.0,0.0,-109.8061,-111.7453,0.001,True,False,Mode(963497464),0.4235,8,0.5876
0.435,THRUST_SEARCH,OPEN_LOOP,0.0166,0.01661,0.01252,0.01661,0.0,0.04062,0.5887,0.5887,0.5887,,0.67,,False,0.0,0.0,0.0,0.0,0.0,-109.8061,-111.8127,0.0031,True,True,Mode(963497464),0.4346,8,0.5876
0.445,THRUST_SEARCH,OPEN_LOOP,0.0166,0.01661,0.01266,0.01661,0.0,0.03876,0.5889,0.5889,0.5889,,0.67,,False,0.0,0.0,0.0,0.0,0.0,-109.8061,-111.9192,0.008,True,False,Mode(963497464),0.0,9,0.5887
0.456,THRUST_SEARCH,OPEN_LOOP,0.0167,0.01675,0.01409,0.01675,0.0,0.03754,0.5891,0.5891,0.5891,,0.67,,False,0.0,0.0,0.0,0.0,0.0,-109.8061,-112.3389,0.001,True,False,Mode(963497464),0.011,9,0.5887
0.467,THRUST_SEARCH,OPEN_LOOP,0.0168,0.0168,0.01363,0.0168,0.0,0.03611,0.5893,0.5893,0.5893,,0.67,,False,0.0,0.0,0.0,0.0,0.0,-109.8061,-112.432,0.002,True,False,Mode(963497464),0.0214,9,0.5887
0.478,THRUST_SEARCH,OPEN_LOOP,0.0169,0.01691,0.01424,0.01691,0.0,0.03493,0.5896,0.5896,0.5896,,0.67,,False,0.0,0.0,0.0,0.0,0.0,-109.8061,-112.4647,0.007,True,False,Mode(963497464),0.0324,9,0.5887
0.49,THRUST_SEARCH,OPEN_LOOP,0.0169,0.01685,0.01273,0.01685,0.0,0.03314,0.5898,0.5898,0.5898,,0.67,,False,0.0,0.0,0.0,0.0,0.0,-109.8061,-112.3562,0.009,True,True,Mode(963497464),0.0434,9,0.5887
0.499,THRUST_SEARCH,OPEN_LOOP,0.0168,0.01684,0.01343,0.01684,0.0,0.03167,0.59,0.59,0.59,,0.67,,False,0.0,0.0,0.0,0.0,0.0,-109.8061,-112.3221,0.0015,True,False,Mode(963497464),0.0539,10,0.5898
0.51,THRUST_SEARCH,OPEN_LOOP,0.0168,0.01679,0.01289,0.01679,0.0,0.03002,0.5902,0.5902,0.5902,,0.67,,False,0.0,0.0,0.0,0.0,0.0,-109.8061,-112.3339,0.006,True,False,Mode(963497464),0.0648,10,0.5898
0.521,THRUST_SEARCH,OPEN_LOOP,0.0167,0.01671,0.01279,0.01671,0.0,0.02838,0.5904,0.5904,0.5904,,0.67,,False,0.0,0.0,0.0,0.0,0.0,-109.8061,-112.3326,0.008,True,False,Mode(963497464),0.0758,10,0.5898
0.532,THRUST_SEARCH,OPEN_LOOP,0.0167,0.01673,0.01381,0.01673,0.0,0.02717,0.5906,0.5906,0.5906,,0.67,,False,0.0,0.0,0.0,0.0,0.0,-109.8061,-112.3574,0.004,True,False,Mode(963497464),0.0868,10,0.5898
0.543,THRUST_SEARCH,OPEN_LOOP,0.0167,0.01667,0.01317,0.01667,0.0,0.02573,0.5909,0.5909,0.5909,,0.67,,False,0.0,0.0,0.0,0.0,0.0,-109.8061,-112.2148,0.006,True,True,Mode(963497464),0.0978,10,0.5898
0.554,THRUST_SEARCH,OPEN_LOOP,0.0166,0.01656,0.01267,0.01656,0.0,0.02414,0.5911,0.5911,0.5911,,0.67,,False,0.0,0.0,0.0,0.0,0.0,-109.8061,-111.8822,0.008,True,False,Mode(963497464),0.1087,11,0.5909
0.565,THRUST_SEARCH,OPEN_LOOP,0.0164,0.01641,0.01225,0.01641,0.0,0.02246,0.5913,0.5913,0.5913,,0.67,,False,0.0,0.0,0.0,0.0,0.0,-109.8061,-111.1984,0.001,True,False,Mode(963497464),0.1197,11,0.5909
0.576,THRUST_SEARCH,OPEN_LOOP,0.0162,0.01618,0.01138,0.01618,0.0,0.02052,0.5915,0.5915,0.5915,,0.67,,False,0.0,0.0,0.0,0.0,0.0,-109.8061,-111.133,0.006,True,False,Mode(963497464),0.1307,11,0.5909
0.587,THRUST_SEARCH,OPEN_LOOP,0.0161,0.01606,0.01251,0.01606,0.0,0.01909,0.5917,0.5917,0.5917,,0.67,,False,0.0,0.0,0.0,0.0,0.0,-109.8061,-111.1896,0.008,True,False,Mode(963497464),0.1417,11,0.5909
0.598,THRUST_SEARCH,OPEN_LOOP,0.0158,0.01582,0.01126,0.01582,0.0,0.01727,0.592,0.592,0.592,,0.67,,False,0.0,0.0,0.0,0.0,0.0,-109.8061,-111.4178,0.001,True,True,Mode(963497464),0.1526,11,0.5909
0.609,THRUST_SEARCH,OPEN_LOOP,0.0155,0.01555,0.01084,0.01555,0.0,0.01539,0.5922,0.5922,0.5922,,0.67,,False,0.0,0.0,0.0,0.0,0.0,-109.8061,-111.5789,0.006,True,False,Mode(963497464),0.1636,12,0.592
0.62,THRUST_SEARCH,OPEN_LOOP,0.0154,0.0154,0.01213,0.0154,0.0,0.01409,0.5924,0.5924,0.5924,,0.67,,False,0.0,0.0,0.0,0.0,0.0,-109.8061,-111.6462,0.008,True,False,Mode(963497464),0.1746,12,0.592
0.631,THRUST_SEARCH,OPEN_LOOP,0.0152,0.01519,0.01147,0.01519,0.0,0.01263,0.5926,0.5926,0.5926,,0.67,,False,0.0,0.0,0.0,0.0,0.0,-109.8061,-111.4973,0.01,True,False,Mode(963497464),0.1851,12,0.592
0.642,THRUST_SEARCH,OPEN_LOOP,0.0149,0.01486,0.01002,0.01486,0.0,0.01072,0.5928,0.5928,0.5928,,0.67,,False,0.0,0.0,0.0,0.0,0.0,-109.8061,-110.962,0.003,True,False,Mode(963497464),0.1961,12,0.592
0.652,THRUST_SEARCH,OPEN_LOOP,0.0144,0.01443,0.00882,0.01443,0.0,0.00852,0.593,0.593,0.593,,0.67,,False,0.0,0.0,0.0,0.0,0.0,-109.8061,-110.9511,0.0045,True,True,Mode(963497464),0.2066,12,0.592
0.663,THRUST_SEARCH,OPEN_LOOP,0.0141,0.01407,0.00925,0.01407,0.0,0.00663,0.5933,0.5933,0.5933,,0.67,,False,0.0,0.0,0.0,0.0,0.0,-109.8061,-111.5234,0.001,True,False,Mode(963497464),0.2175,13,0.593
0.674,THRUST_SEARCH,OPEN_LOOP,0.0137,0.01372,0.00927,0.01372,0.0,0.00489,0.5935,0.5935,0.5935,,0.67,,False,0.0,0.0,0.0,0.0,0.0,-109.8061,-111.9458,0.003,True,False,Mode(963497464),0.2285,13,0.593
0.685,THRUST_SEARCH,OPEN_LOOP,0.0134,0.0134,0.00957,0.0134,0.0,0.00338,0.5937,0.5937,0.5937,,0.67,,False,0.0,0.0,0.0,0.0,0.0,-109.8061,-112.3387,0.0045,True,False,Mode(963497464),0.2399,13,0.593
0.696,THRUST_SEARCH,OPEN_LOOP,0.0131,0.01309,0.00947,0.01309,0.0,0.00196,0.5939,0.5939,0.5939,,0.67,,False,0.0,0.0,0.0,0.0,0.0,-109.8061,-112.6768,0.001,True,False,Mode(963497464),0.2509,13,0.593
0.707,THRUST_SEARCH,OPEN_LOOP,0.0126,0.01263,0.00754,0.01263,0.0,-4e-05,0.5941,0.5941,0.5941,,0.67,,False,0.0,0.0,0.0,0.0,0.0,-109.8061,-112.5557,0.003,True,True,Mode(963497464),0.262,13,0.593
0.718,THRUST_SEARCH,OPEN_LOOP,0.0123,0.01228,0.00862,0.01228,0.0,-0.00148,0.5944,0.5944,0.5944,,0.67,,False,0.0,0.0,0.0,0.0,0.0,-109.8061,-112.4565,0.005,True,False,Mode(963497464),0.2729,14,0.5941
0.729,THRUST_SEARCH,OPEN_LOOP,0.0119,0.01187,0.00779,0.01187,0.0,-0.00309,0.5946,0.5946,0.5946,,0.67,,False,0.0,0.0,0.0,0.0,0.0,-109.8061,-112.7232,0.001,True,False,Mode(963497464),0.2841,14,0.5941
0.741,THRUST_SEARCH,OPEN_LOOP,0.0115,0.01153,0.00833,0.01153,0.0,-0.00435,0.5948,0.5948,0.5948,,0.67,,False,0.0,0.0,0.0,0.0,0.0,-109.8061,-112.9539,0.0031,True,False,Mode(963497464),0.2951,14,0.5941
0.751,THRUST_SEARCH,OPEN_LOOP,0.0112,0.01118,0.00799,0.01118,0.0,-0.0056,0.595,0.595,0.595,,0.67,,False,0.0,0.0,0.0,0.0,0.0,-109.8061,-113.1751,0.0045,True,False,Mode(963497464),0.3055,14,0.5941
0.762,THRUST_SEARCH,OPEN_LOOP,0.0109,0.01093,0.00894,0.01093,0.0,-0.00638,0.5952,0.5952,0.5952,,0.67,,False,0.0,0.0,0.0,0.0,0.0,-109.8061,-113.4219,0.0075,True,True,Mode(963497464),0.317,14,0.5941
0.773,THRUST_SEARCH,OPEN_LOOP,0.0107,0.01068,0.00882,0.01068,0.0,-0.00711,0.5955,0.5955,0.5955,,0.67,,False,0.0,0.0,0.0,0.0,0.0,-109.8061,-113.7161,0.0031,True,False,Mode(963497464),0.328,15,0.5952
0.784,THRUST_SEARCH,OPEN_LOOP,0.0103,0.01033,0.00742,0.01033,0.0,-0.00826,0.5957,0.5957,0.5957,,0.67,,False,0.0,0.0,0.0,0.0,0.0,-109.8061,-113.625,0.0045,True,False,Mode(963497464),0.3384,15,0.5952
0.795,THRUST_SEARCH,OPEN_LOOP,0.01,0.00999,0.00729,0.00999,0.0,-0.00931,0.5959,0.5959,0.5959,,0.67,,False,0.0,0.0,0.0,0.0,0.0,-109.8061,-113.6059,0.007,True,False,Mode(963497464),0.3494,15,0.5952
0.805,THRUST_SEARCH,OPEN_LOOP,0.0096,0.00964,0.00699,0.00964,0.0,-0.01035,0.5961,0.5961,0.5961,,0.67,,False,0.0,0.0,0.0,0.0,0.0,-109.8061,-113.8455,0.009,True,False,Mode(963497464),0.3599,15,0.5952
0.817,THRUST_SEARCH,OPEN_LOOP,0.0094,0.00938,0.00781,0.00938,0.0,-0.01096,0.5963,0.5963,0.5963,,0.67,,False,0.0,0.0,0.0,0.0,0.0,-109.8061,-114.2661,0.005,True,True,Mode(963497464),0.3708,15,0.5952
0.827,THRUST_SEARCH,OPEN_LOOP,0.0091,0.00907,0.00702,0.00907,0.0,-0.01176,0.5965,0.5965,0.5965,,0.67,,False,0.0,0.0,0.0,0.0,0.0,-109.8061,-114.3345,0.007,True,False,Mode(963497464),0.3814,16,0.5963
0.838,THRUST_SEARCH,OPEN_LOOP,0.0087,0.00868,0.006,0.00868,0.0,-0.01281,0.5968,0.5968,0.5968,,0.67,,False,0.0,0.0,0.0,0.0,0.0,-109.8061,-114.3792,0.0015,True,False,Mode(963497464),0.3924,16,0.5963
0.849,THRUST_SEARCH,OPEN_LOOP,0.0083,0.00833,0.00606,0.00833,0.0,-0.0137,0.597,0.597,0.597,,0.67,,False,0.0,0.0,0.0,0.0,0.0,-109.8061,-114.4677,0.0031,True,False,Mode(963497464),0.4035,16,0.5963
0.86,THRUST_SEARCH,OPEN_LOOP,0.008,0.008,0.00607,0.008,0.0,-0.01445,0.5972,0.5972,0.5972,,0.67,,False,0.0,0.0,0.0,0.0,0.0,-109.8061,-114.6198,0.005,True,False,Mode(963497464),0.4143,16,0.5963
0.871,THRUST_SEARCH,OPEN_LOOP,0.0075,0.00745,0.00333,0.00745,0.0,-0.01606,0.5974,0.5974,0.5974,,0.67,,False,0.0,0.0,0.0,0.0,0.0,-109.8061,-114.7098,0.005,True,True,Mode(963497464),0.4253,16,0.5963
0.882,THRUST_SEARCH,OPEN_LOOP,0.007,0.00703,0.00445,0.00703,0.0,-0.01707,0.5976,0.5976,0.5976,,0.67,,False,0.0,0.0,0.0,0.0,0.0,-109.8061,-114.9553,0.001,True,False,Mode(963497464),0.4363,17,0.5974
0.893,THRUST_SEARCH,OPEN_LOOP,0.0066,0.00664,0.00455,0.00664,0.0,-0.01789,0.5979,0.5979,0.5979,,0.67,,False,0.0,0.0,0.0,0.0,0.0,-109.8061,-115.0242,0.006,True,False,Mode(963497464),0.4473,17,0.5974
0.904,THRUST_SEARCH,OPEN_LOOP,0.0063,0.00631,0.00483,0.00631,0.0,-0.01847,0.5981,0.5981,0.5981,,0.67,,False,0.0,0.0,0.0,0.0,0.0,-109.8061,-115.0679,0.005,True,False,Mode(963497464),0.4582,17,0.5974
0.915,THRUST_SEARCH,OPEN_LOOP,0.0061,0.00608,0.00583,0.00608,0.0,-0.01857,0.5983,0.5983,0.5983,,0.67,,False,0.0,0.0,0.0,0.0,0.0,-109.8061,-114.9718,0.001,True,False,Mode(963497464),0.4692,17,0.5974
0.926,THRUST_SEARCH,OPEN_LOOP,0.0058,0.00583,0.00535,0.00583,0.0,-0.01876,0.5985,0.5985,0.5985,,0.67,,False,0.0,0.0,0.0,0.0,0.0,-109.8061,-115.0598,0.006,True,True,Mode(963497464),0.4802,17,0.5974
0.937,THRUST_SEARCH,OPEN_LOOP,0.0056,0.00561,0.00541,0.00561,0.0,-0.01884,0.5987,0.5987,0.5987,,0.67,,False,0.0,0.0,0.0,0.0,0.0,-109.8061,-115.2002,0.008,True,False,Mode(963497464),0.4911,18,0.5985
0.948,THRUST_SEARCH,OPEN_LOOP,0.0055,0.00547,0.00624,0.00624,0.0,-0.01854,0.599,0.599,0.599,,0.67,,False,0.0,0.0,0.0,0.0,0.0,-109.8061,-115.5082,0.001,True,False,Mode(963497464),0.5021,18,0.5985
0.959,THRUST_SEARCH,OPEN_LOOP,0.0054,0.00535,0.00621,0.00621,0.0,-0.0182,0.5992,0.5992,0.5992,,0.67,,False,0.0,0.0,0.0,0.0,0.0,-109.8061,-115.8925,0.003,True,False,Mode(963497464),0.5131,18,0.5985
0.969,THRUST_SEARCH,OPEN_LOOP,0.0054,0.00539,0.00786,0.00786,0.0,-0.01724,0.5994,0.5994,0.5994,,0.67,,False,0.0,0.0,0.0,0.0,0.0,-109.8061,-116.2687,0.0045,True,False,Mode(963497464),0.5236,18,0.5985
0.98,THRUST_SEARCH,OPEN_LOOP,0.0055,0.00555,0.00919,0.00919,0.0,-0.01581,0.5996,0.5996,0.5996,,0.67,,False,0.0,0.0,0.0,0.0,0.0,-109.8061,-116.4119,0.001,True,True,Mode(963497464),0.5345,18,0.5985
0.991,THRUST_SEARCH,OPEN_LOOP,0.0058,0.00579,0.0102,0.0102,0.0,-0.01408,0.5998,0.5998,0.5998,,0.67,,False,0.0,0.0,0.0,0.0,0.0,-109.8061,-116.4034,0.003,True,False,Mode(963497464),0.5455,19,0.5996
1.001,THRUST_SEARCH,OPEN_LOOP,0.006,0.00599,0.0097,0.0097,0.0,-0.01264,0.6,0.6,0.6,,0.67,,False,0.0,0.0,0.0,0.0,0.0,-109.8061,-116.5375,0.0045,True,False,Mode(963497464),0.556,19,0.5996
1.012,THRUST_SEARCH,OPEN_LOOP,0.0062,0.00623,0.01025,0.01025,0.0,-0.01107,0.6002,0.6002,0.6002,,0.67,,False,0.0,0.0,0.0,0.0,0.0,-109.8061,-116.7407,0.007,True,False,Mode(963497464),0.567,19,0.5996
1.023,THRUST_SEARCH,OPEN_LOOP,0.0065,0.00648,0.0103,0.0103,0.0,-0.00958,0.6005,0.6005,0.6005,,0.67,,False,0.0,0.0,0.0,0.0,0.0,-109.8061,-117.2822,0.003,True,False,Mode(963497464),0.5774,19,0.5996
1.033,THRUST_SEARCH,OPEN_LOOP,0.0068,0.00681,0.01139,0.01139,0.0,-0.0078,0.6007,0.6007,0.6007,,0.67,,False,0.0,0.0,0.0,0.0,0.0,-109.8061,-117.5335,0.0045,True,True,Mode(963497464),0.5879,19,0.5996
1.044,THRUST_SEARCH,OPEN_LOOP,0.0071,0.00715,0.0117,0.0117,0.0,-0.00603,0.6009,0.6009,0.6009,,0.67,,False,0.0,0.0,0.0,0.0,0.0,-109.8061,-117.8231,0.007,True,False,Mode(963497464),0.5989,20,0.6007
1.055,THRUST_SEARCH,OPEN_LOOP,0.0076,0.00758,0.01286,0.01286,0.0,-0.00397,0.6011,0.6011,0.6011,,0.67,,False,0.0,0.0,0.0,0.0,0.0,-109.8061,-118.1385,0.009,True,False,Mode(963497464),0.6099,20,0.6007
1.067,THRUST_SEARCH,OPEN_LOOP,0.008,0.00796,0.01246,0.01246,0.0,-0.00221,0.6013,0.6013,0.6013,,0.67,,False,0.0,0.0,0.0,0.0,0.0,-109.8061,-118.4339,0.0108,True,False,Mode(963497464),0.6211,20,0.6007
1.077,THRUST_SEARCH,OPEN_LOOP,0.0083,0.00834,0.01262,0.01262,0.0,-0.00054,0.6015,0.6015,0.6015,,0.67,,False,0.0,0.0,0.0,0.0,0.0,-109.8061,-118.7263,0.005,True,False,Mode(963497464),0.6321,20,0.6007
1.089,THRUST_SEARCH,OPEN_LOOP,0.0088,0.00878,0.01348,0.01348,0.0,0.0013,0.6018,0.6018,0.6018,,0.67,,False,0.0,0.0,0.0,0.0,0.0,-109.8061,-118.953,0.001,True,True,Mode(963497464),0.6433,20,0.6007
1.1,THRUST_SEARCH,OPEN_LOOP,0.0092,0.0092,0.01348,0.01348,0.0,0.00298,0.602,0.602,0.602,,0.67,,False,0.0,0.0,0.0,0.0,0.0,-109.8061,-118.953,0.012,True,False,Mode(963497464),0.6543,21,0.6018
1.111,THRUST_SEARCH,OPEN_LOOP,0.0096,0.00959,0.01335,0.01335,0.0,0.00445,0.6022,0.6022,0.6022,,0.67,,False,0.0,0.0,0.0,0.0,0.0,-109.8061,-118.8441,0.005,True,False,Mode(963497464),0.6652,21,0.6018
1.122,THRUST_SEARCH,OPEN_LOOP,0.01,0.01002,0.01409,0.01409,0.0,0.00605,0.6024,0.6024,0.6024,,0.67,,False,0.0,0.0,0.0,0.0,0.0,-109.8061,-118.9944,0.001,True,False,Mode(963497464),0.6763,21,0.6018
1.133,THRUST_SEARCH,OPEN_LOOP,0.0104,0.01043,0.01402,0.01402,0.0,0.00746,0.6027,0.6027,0.6027,,0.67,,False,0.0,0.0,0.0,0.0,0.0,-109.8061,-119.1817,0.0031,True,False,Mode(963497464),0.6874,21,0.6018
1.143,THRUST_SEARCH,OPEN_LOOP,0.0107,0.01071,0.01289,0.01289,0.0,0.00831,0.6029,0.6029,0.6029,,0.67,,False,0.0,0.0,0.0,0.0,0.0,-109.8061,-119.4349,0.0045,True,True,Mode(963497464),0.6977,21,0.6018
1.154,THRUST_SEARCH,OPEN_LOOP,0.0109,0.0109,0.01191,0.01191,0.0,0.00871,0.6031,0.6031,0.6031,,0.67,,False,0.0,0.0,0.0,0.0,0.0,-109.8061,-120.0508,0.001,True,False,Mode(963497464),0.7087,22,0.6029
1.165,THRUST_SEARCH,OPEN_LOOP,0.011,0.01099,0.01092,0.01099,0.0,0.00868,0.6033,0.6033,0.6033,,0.67,,False,0.0,0.0,0.0,0.0,0.0,-109.8061,-120.3163,0.003,True,False,Mode(963497464),0.7197,22,0.6029
1.176,THRUST_SEARCH,OPEN_LOOP,0.011,0.01104,0.01054,0.01104,0.0,0.00849,0.6035,0.6035,0.6035,,0.67,,False,0.0,0.0,0.0,0.0,0.0,-109.8061,-120.4625,0.005,True,False,Mode(963497464),0.7306,22,0.6029
1.187,THRUST_SEARCH,OPEN_LOOP,0.011,0.01102,0.00988,0.01102,0.0,0.00804,0.6037,0.6037,0.6037,,0.67,,False,0.0,0.0,0.0,0.0,0.0,-109.8061,-120.5477,0.0066,True,False,Mode(963497464),0.7412,22,0.6029
1.199,THRUST_SEARCH,OPEN_LOOP,0.011,0.01101,0.00995,0.01101,0.0,0.00763,0.604,0.604,0.604,,0.67,,False,0.0,0.0,0.0,0.0,0.0,-109.8061,-120.6735,0.009,True,True,Mode(963497464),0.7522,22,0.6029
1.208,THRUST_SEARCH,OPEN_LOOP,0.0109,0.01091,0.00903,0.01091,0.0,0.0069,0.6042,0.6042,0.6042,,0.67,,False,0.0,0.0,0.0,0.0,0.0,-109.8061,-120.9356,0.0045,True,False,Mode(963497464),0.7627,23,0.604
1.219,THRUST_SEARCH,OPEN_LOOP,0.0108,0.0108,0.0088,0.0108,0.0,0.00612,0.6044,0.6044,0.6044,,0.67,,False,0.0,0.0,0.0,0.0,0.0,-109.8061,-121.1267,0.0067,True,False,Mode(963497464),0.7734,23,0.604
1.23,THRUST_SEARCH,OPEN_LOOP,0.0105,0.01053,0.00694,0.01053,0.0,0.00473,0.6046,0.6046,0.6046,,0.67,,False,0.0,0.0,0.0,0.0,0.0,-109.8061,-121.4443,0.009,True,False,Mode(963497464),0.7844,23,0.604
1.241,THRUST_SEARCH,OPEN_LOOP,0.0102,0.01021,0.0063,0.01021,0.0,0.0032,0.6048,0.6048,0.6048,,0.67,,False,0.0,0.0,0.0,0.0,0.0,-109.8061,-122.2945,0.004,True,False,Mode(963497464),0.7954,23,0.604
1.252,THRUST_SEARCH,OPEN_LOOP,0.0098,0.00985,0.00564,0.00985,0.0,0.00156,0.605,0.605,0.605,,0.67,,False,0.0,0.0,0.0,0.0,0.0,-109.8061,-122.6841,0.006,True,True,Mode(963497464),0.8063,23,0.604
1.264,THRUST_SEARCH,OPEN_LOOP,0.0095,0.00951,0.00573,0.00951,0.0,8e-05,0.6053,0.6053,0.6053,,0.67,,False,0.0,0.0,0.0,0.0,0.0,-109.8061,-123.0536,0.0095,True,False,Mode(963497464),0.8188,24,0.605
1.274,THRUST_SEARCH,OPEN_LOOP,0.0092,0.00921,0.00605,0.00921,0.0,-0.00116,0.6055,0.6055,0.6055,,0.67,,False,0.0,0.0,0.0,0.0,0.0,-109.8061,-123.4433,0.002,True,False,Mode(963497464),0.8288,24,0.605
1.285,THRUST_SEARCH,OPEN_LOOP,0.0089,0.00894,0.00628,0.00894,0.0,-0.00221,0.6057,0.6057,0.6057,,0.67,,False,0.0,0.0,0.0,0.0,0.0,-109.8061,-123.5325,0.0044,True,False,Mode(963497464),0.84,24,0.605
1.296,THRUST_SEARCH,OPEN_LOOP,0.0087,0.00865,0.00587,0.00865,0.0,-0.00331,0.6059,0.6059,0.6059,,0.67,,False,0.0,0.0,0.0,0.0,0.0,-109.8061,-123.7269,0.01,True,False,Mode(963497464),0.851,24,0.605
1.309,THRUST_SEARCH,OPEN_LOOP,0.0085,0.00846,0.00685,0.00846,0.0,-0.00394,0.6062,0.6062,0.6062,,0.67,,False,0.0,0.0,0.0,0.0,0.0,-109.8061,-124.1399,0.003,True,True,Mode(963497464),0.8625,24,0.605
1.318,THRUST_SEARCH,OPEN_LOOP,0.0083,0.00827,0.00665,0.00827,0.0,-0.00458,0.6064,0.6064,0.6064,,0.67,,False,0.0,0.0,0.0,0.0,0.0,-109.8061,-124.2915,0.0045,True,False,Mode(963497464),0.873,25,0.6062
1.329,THRUST_SEARCH,OPEN_LOOP,0.0081,0.00808,0.00669,0.00808,0.0,-0.00513,0.6066,0.6066,0.6066,,0.67,,False,0.0,0.0,0.0,0.0,0.0,-109.8061,-124.4204,0.001,True,False,Mode(963497464),0.8839,25,0.6062
1.34,THRUST_SEARCH,OPEN_LOOP,0.008,0.00802,0.00788,0.00802,0.0,-0.00518,0.6068,0.6068,0.6068,,0.67,,False,0.0,0.0,0.0,0.0,0.0,-109.8061,-124.5628,0.003,True,False,Mode(963497464),0.8949,25,0.6062
1.351,THRUST_SEARCH,OPEN_LOOP,0.0079,0.00791,0.00746,0.00791,0.0,-0.00536,0.607,0.607,0.607,,0.67,,False,0.0,0.0,0.0,0.0,0.0,-109.8061,-124.7737,0.005,True,False,Mode(963497464),0.9059,25,0.6062
1.362,THRUST_SEARCH,OPEN_LOOP,0.0078,0.0078,0.00714,0.0078,0.0,-0.00562,0.6072,0.6072,0.6072,,0.67,,False,0.0,0.0,0.0,0.0,0.0,-109.8061,-125.0051,0.0068,True,True,Mode(963497464),0.9165,25,0.6062
1.373,THRUST_SEARCH,OPEN_LOOP,0.0077,0.00774,0.00778,0.00778,0.0,-0.0056,0.6075,0.6075,0.6075,,0.67,,False,0.0,0.0,0.0,0.0,0.0,-109.8061,-125.7845,0.003,True,False,Mode(963497464),0.9275,26,0.6072
1.383,THRUST_SEARCH,OPEN_LOOP,0.0077,0.00772,0.00819,0.00819,0.0,-0.00542,0.6077,0.6077,0.6077,,0.67,,False,0.0,0.0,0.0,0.0,0.0,-109.8061,-126.2173,0.0045,True,False,Mode(963497464),0.938,26,0.6072
1.394,THRUST_SEARCH,OPEN_LOOP,0.0078,0.00777,0.00892,0.00892,0.0,-0.00497,0.6079,0.6079,0.6079,,0.67,,False,0.0,0.0,0.0,0.0,0.0,-109.8061,-126.5976,0.007,True,False,Mode(963497464),0.9489,26,0.6072
1.405,THRUST_SEARCH,OPEN_LOOP,0.0077,0.00768,0.00724,0.00768,0.0,-0.00514,0.6081,0.6081,0.6081,,0.67,,False,0.0,0.0,0.0,0.0,0.0,-109.8061,-126.9039,0.009,True,False,Mode(963497464),0.9599,26,0.6072
1.416,THRUST_SEARCH,OPEN_LOOP,0.0077,0.00771,0.00865,0.00865,0.0,-0.00478,0.6083,0.6083,0.6083,,0.67,,False,0.0,0.0,0.0,0.0,0.0,-109.8061,-127.3446,0.0015,True,True,Mode(963497464),0.9704,26,0.6072
1.427,THRUST_SEARCH,OPEN_LOOP,0.0077,0.00771,0.00824,0.00824,0.0,-0.00457,0.6085,0.6085,0.6085,,0.67,,False,0.0,0.0,0.0,0.0,0.0,-109.8061,-127.5793,0.006,True,False,Mode(963497464),0.9813,27,0.6083
1.438,THRUST_SEARCH,OPEN_LOOP,0.0077,0.00773,0.00847,0.00847,0.0,-0.00428,0.6088,0.6088,0.6088,,0.67,,False,0.0,0.0,0.0,0.0,0.0,-109.8061,-127.8124,0.008,True,False,Mode(963497464),0.9923,27,0.6083
1.449,THRUST_SEARCH,OPEN_LOOP,0.0078,0.00777,0.00866,0.00866,0.0,-0.00393,0.609,0.609,0.609,,0.67,,False,0.0,0.0,0.0,0.0,0.0,-109.8061,-128.3035,0.001,True,False,Mode(963497464),1.0033,27,0.6083
1.46,THRUST_SEARCH,OPEN_LOOP,0.0078,0.00779,0.00848,0.00848,0.0,-0.00366,0.6092,0.6092,0.6092,,0.67,,False,0.0,0.0,0.0,0.0,0.0,-109.8061,-128.4245,0.006,True,False,Mode(963497464),1.0143,27,0.6083
1.472,THRUST_SEARCH,OPEN_LOOP,0.0079,0.00786,0.00904,0.00904,0.0,-0.0032,0.6094,0.6094,0.6094,,0.67,,False,0.0,0.0,0.0,0.0,0.0,-109.8061,-128.3378,0.006,True,True,Mode(963497464),0.0,27,0.6083
1.482,THRUST_SEARCH,OPEN_LOOP,0.0079,0.00789,0.00855,0.00855,0.0,-0.00294,0.6096,0.6096,0.6096,,0.67,,False,0.0,0.0,0.0,0.0,0.0,-109.8061,-127.9236,0.001,True,False,Mode(963497464),0.011,28,0.6094
1.493,THRUST_SEARCH,OPEN_LOOP,0.0079,0.0079,0.00836,0.00836,0.0,-0.00276,0.6099,0.6099,0.6099,,0.67,,False,0.0,0.0,0.0,0.0,0.0,-109.8061,-127.8936,0.006,True,False,Mode(963497464),0.0219,28,0.6094
1.505,THRUST_SEARCH,OPEN_LOOP,0.0079,0.00786,0.00775,0.00786,0.0,-0.0028,0.6101,0.6101,0.6101,,0.67,,False,0.0,0.0,0.0,0.0,0.0,-109.8061,-128.0841,0.003,True,False,Mode(963497464),0.0329,28,0.6094
1.515,THRUST_SEARCH,OPEN_LOOP,0.0078,0.00783,0.00789,0.00789,0.0,-0.00278,0.6103,0.6103,0.6103,,0.67,,False,0.0,0.0,0.0,0.0,0.0,-109.8061,-128.8333,0.002,True,False,Mode(963497464),0.0439,28,0.6094
1.525,THRUST_SEARCH,OPEN_LOOP,0.0079,0.00785,0.00838,0.00838,0.0,-0.00258,0.6105,0.6105,0.6105,,0.67,,False,0.0,0.0,0.0,0.0,0.0,-109.8061,-129.2446,0.0039,True,True,Mode(963497464),0.0547,28,0.6094
1.536,THRUST_SEARCH,OPEN_LOOP,0.0079,0.00793,0.00907,0.00907,0.0,-0.00213,0.6107,0.6107,0.6107,,0.67,,False,0.0,0.0,0.0,0.0,0.0,-109.8061,-129.4191,0.006,True,False,Mode(963497464),0.0657,29,0.6105
1.547,THRUST_SEARCH,OPEN_LOOP,0.0081,0.00813,0.01047,0.01047,0.0,-0.00121,0.6109,0.6109,0.6109,,0.67,,False,0.0,0.0,0.0,0.0,0.0,-109.8061,-129.2076,0.002,True,False,Mode(963497464),0.0767,29,0.6105
1.558,THRUST_SEARCH,OPEN_LOOP,0.0084,0.00842,0.01161,0.01161,0.0,4e-05,0.6112,0.6112,0.6112,,0.67,,False,0.0,0.0,0.0,0.0,0.0,-109.8061,-129.1166,0.0036,True,False,Mode(963497464),0.0873,29,0.6105
1.569,THRUST_SEARCH,OPEN_LOOP,0.0087,0.00872,0.01195,0.01195,0.0,0.0013,0.6114,0.6114,0.6114,,0.67,,False,0.0,0.0,0.0,0.0,0.0,-109.8061,-129.2162,0.006,True,False,Mode(963497464),0.0982,29,0.6105
1.579,THRUST_SEARCH,OPEN_LOOP,0.0091,0.00909,0.01281,0.01281,0.0,0.00275,0.6116,0.6116,0.6116,,0.67,,False,0.0,0.0,0.0,0.0,0.0,-109.8061,-129.5938,0.0075,True,True,Mode(963497464),0.1087,29,0.6105
1.59,THRUST_SEARCH,OPEN_LOOP,0.0096,0.00959,0.01458,0.01458,0.0,0.0047,0.6118,0.6118,0.6118,,0.67,,False,0.0,0.0,0.0,0.0,0.0,-109.8061,-130.8599,0.004,True,False,Mode(963497464),0.1197,30,0.6116
1.601,THRUST_SEARCH,OPEN_LOOP,0.0101,0.01013,0.01531,0.01531,0.0,0.00672,0.612,0.612,0.612,,0.67,,False,0.0,0.0,0.0,0.0,0.0,-109.8061,-131.4972,0.0061,True,False,Mode(963497464),0.1308,30,0.6116
1.612,THRUST_SEARCH,OPEN_LOOP,0.0107,0.01066,0.01555,0.01555,0.0,0.00863,0.6122,0.6122,0.6122,,0.67,,False,0.0,0.0,0.0,0.0,0.0,-109.8061,-132.072,0.0075,True,False,Mode(963497464),0.1412,30,0.6116
1.623,THRUST_SEARCH,OPEN_LOOP,0.0112,0.01115,0.01539,0.01539,0.0,0.01028,0.6125,0.6125,0.6125,,0.67,,False,0.0,0.0,0.0,0.0,0.0,-109.8061,-132.513,0.0031,True,False,Mode(963497464),0.1522,30,0.6116
1.634,THRUST_SEARCH,OPEN_LOOP,0.0116,0.0116,0.0152,0.0152,0.0,0.01168,0.6127,0.6127,0.6127,,0.67,,False,0.0,0.0,0.0,0.0,0.0,-109.8061,-132.441,0.0049,True,True,Mode(963497464),0.163,30,0.6116
1.644,THRUST_SEARCH,OPEN_LOOP,0.0119,0.01194,0.01413,0.01413,0.0,0.01253,0.6129,0.6129,0.6129,,0.67,,False,0.0,0.0,0.0,0.0,0.0,-109.8061,-132.3245,0.0068,True,False,Mode(963497464),0.1738,31,0.6127
1.655,THRUST_SEARCH,OPEN_LOOP,0.0123,0.01232,0.01493,0.01493,0.0,0.01355,0.6131,0.6131,0.6131,,0.67,,False,0.0,0.0,0.0,0.0,0.0,-109.8061,-132.4565,0.009,True,False,Mode(963497464),0.1848,31,0.6127
1.666,THRUST_SEARCH,OPEN_LOOP,0.0127,0.01269,0.01509,0.01509,0.0,0.01448,0.6133,0.6133,0.6133,,0.67,,False,0.0,0.0,0.0,0.0,0.0,-109.8061,-132.7697,0.0105,True,False,Mode(963497464),0.1953,31,0.6127
1.677,THRUST_SEARCH,OPEN_LOOP,0.0131,0.01313,0.01619,0.01619,0.0,0.01568,0.6135,0.6135,0.6135,,0.67,,False,0.0,0.0,0.0,0.0,0.0,-109.8061,-133.4848,0.006,True,False,Mode(963497464),0.2063,31,0.6127
1.688,THRUST_SEARCH,OPEN_LOOP,0.0135,0.01354,0.01601,0.01601,0.0,0.01664,0.6138,0.6138,0.6138,,0.67,,False,0.0,0.0,0.0,0.0,0.0,-109.8061,-134.3153,0.001,True,True,Mode(963497464),0.2172,31,0.6127
1.699,THRUST_SEARCH,OPEN_LOOP,0.0139,0.01389,0.01573,0.01573,0.0,0.01736,0.614,0.614,0.614,,0.67,,False,0.0,0.0,0.0,0.0,0.0,-109.8061,-134.4845,0.002,True,False,Mode(963497464),0.2282,32,0.6138
1.71,THRUST_SEARCH,OPEN_LOOP,0.0142,0.01418,0.01517,0.01517,0.0,0.01774,0.6142,0.6142,0.6142,,0.67,,False,0.0,0.0,0.0,0.0,0.0,-109.8061,-134.5169,0.004,True,False,Mode(963497464),0.2391,32,0.6138
1.721,THRUST_SEARCH,OPEN_LOOP,0.0145,0.0145,0.01591,0.01591,0.0,0.01829,0.6144,0.6144,0.6144,,0.67,,False,0.0,0.0,0.0,0.0,0.0,-109.8061,-134.5635,0.009,True,False,Mode(963497464),0.2501,32,0.6138
1.732,THRUST_SEARCH,OPEN_LOOP,0.0148,0.01481,0.01598,0.01598,0.0,0.01875,0.6146,0.6146,0.6146,,0.67,,False,0.0,0.0,0.0,0.0,0.0,-109.8061,-134.8911,0.002,True,False,Mode(963497464),0.2611,32,0.6138
1.743,THRUST_SEARCH,OPEN_LOOP,0.0151,0.01507,0.01563,0.01563,0.0,0.01896,0.6149,0.6149,0.6149,,0.67,,False,0.0,0.0,0.0,0.0,0.0,-109.8061,-135.1638,0.004,True,True,Mode(963497464),0.2721,32,0.6138
1.754,THRUST_SEARCH,OPEN_LOOP,0.0153,0.01529,0.01542,0.01542,0.0,0.01901,0.6151,0.6151,0.6151,,0.67,,False,0.0,0.0,0.0,0.0,0.0,-109.8061,-136.0088,0.0005,True,False,Mode(963497464),0.2835,33,0.6149
1.764,THRUST_SEARCH,OPEN_LOOP,0.0154,0.01541,0.01451,0.01541,0.0,0.01866,0.6153,0.6153,0.6153,,0.67,,False,0.0,0.0,0.0,0.0,0.0,-109.8061,-136.4538,0.0015,True,False,Mode(963497464),0.2935,33,0.6149
1.775,THRUST_SEARCH,OPEN_LOOP,0.0154,0.01535,0.01259,0.01535,0.0,0.01759,0.6155,0.6155,0.6155,,0.67,,False,0.0,0.0,0.0,0.0,0.0,-109.8061,-136.7764,0.0031,True,False,Mode(963497464),0.3046,33,0.6149
1.786,THRUST_SEARCH,OPEN_LOOP,0.0152,0.0152,0.0116,0.0152,0.0,0.01618,0.6157,0.6157,0.6157,,0.67,,False,0.0,0.0,0.0,0.0,0.0,-109.8061,-137.058,0.0045,True,False,Mode(963497464),0.315,33,0.6149
1.797,THRUST_SEARCH,OPEN_LOOP,0.015,0.01499,0.01084,0.01499,0.0,0.01457,0.6159,0.6159,0.6159,,0.67,,False,0.0,0.0,0.0,0.0,0.0,-109.8061,-137.6346,0.001,True,True,Mode(963497464),0.326,33,0.6149
1.808,THRUST_SEARCH,OPEN_LOOP,0.0148,0.01479,0.01103,0.01479,0.0,0.01311,0.6162,0.6162,0.6162,,0.67,,False,0.0,0.0,0.0,0.0,0.0,-109.8061,-137.9417,0.003,True,False,Mode(963497464),0.3369,34,0.6159
1.818,THRUST_SEARCH,OPEN_LOOP,0.0146,0.01457,0.01077,0.01457,0.0,0.01163,0.6164,0.6164,0.6164,,0.67,,False,0.0,0.0,0.0,0.0,0.0,-109.8061,-138.2757,0.0045,True,False,Mode(963497464),0.3475,34,0.6159
1.829,THRUST_SEARCH,OPEN_LOOP,0.0143,0.0143,0.01003,0.0143,0.0,0.00997,0.6166,0.6166,0.6166,,0.67,,False,0.0,0.0,0.0,0.0,0.0,-109.8061,-138.671,0.0066,True,False,Mode(963497464),0.3581,34,0.6159
1.84,THRUST_SEARCH,OPEN_LOOP,0.0138,0.01385,0.00788,0.01385,0.0,0.00765,0.6168,0.6168,0.6168,,0.67,,False,0.0,0.0,0.0,0.0,0.0,-109.8061,-139.2975,0.003,True,False,Mode(963497464),0.3691,34,0.6159
1.85,THRUST_SEARCH,OPEN_LOOP,0.0134,0.01343,0.00814,0.01343,0.0,0.0056,0.617,0.617,0.617,,0.67,,False,0.0,0.0,0.0,0.0,0.0,-109.8061,-139.544,0.0045,True,True,Mode(963497464),0.3795,34,0.6159
1.861,THRUST_SEARCH,OPEN_LOOP,0.013,0.01305,0.00833,0.01305,0.0,0.00377,0.6172,0.6172,0.6172,,0.67,,False,0.0,0.0,0.0,0.0,0.0,-109.8061,-139.7965,0.007,True,False,Mode(963497464),0.3905,35,0.617
1.873,THRUST_SEARCH,OPEN_LOOP,0.0126,0.01261,0.00753,0.01261,0.0,0.00179,0.6175,0.6175,0.6175,,0.67,,False,0.0,0.0,0.0,0.0,0.0,-109.8061,-140.0737,0.009,True,False,Mode(963497464),0.4015,35,0.617
1.883,THRUST_SEARCH,OPEN_LOOP,0.0123,0.01234,0.0092,0.01234,0.0,0.00058,0.6177,0.6177,0.6177,,0.67,,False,0.0,0.0,0.0,0.0,0.0,-109.8061,-140.5018,0.0015,True,False,Mode(963497464),0.412,35,0.617
1.895,THRUST_SEARCH,OPEN_LOOP,0.0121,0.01208,0.0093,0.01208,0.0,-0.0005,0.6179,0.6179,0.6179,,0.67,,False,0.0,0.0,0.0,0.0,0.0,-109.8061,-140.7232,0.007,True,False,Mode(963497464),0.4239,35,0.617
1.906,THRUST_SEARCH,OPEN_LOOP,0.0118,0.01179,0.00874,0.01179,0.0,-0.00169,0.6181,0.6181,0.6181,,0.67,,False,0.0,0.0,0.0,0.0,0.0,-109.8061,-140.8749,0.006,True,True,Mode(963497464),0.4339,35,0.617
1.916,THRUST_SEARCH,OPEN_LOOP,0.0115,0.01148,0.00833,0.01148,0.0,-0.00291,0.6183,0.6183,0.6183,,0.67,,False,0.0,0.0,0.0,0.0,0.0,-109.8061,-140.8387,0.002,True,False,Mode(963497464),0.4449,36,0.6181
1.927,THRUST_SEARCH,OPEN_LOOP,0.0113,0.0113,0.00971,0.0113,0.0,-0.00353,0.6185,0.6185,0.6185,,0.67,,False,0.0,0.0,0.0,0.0,0.0,-109.8061,-140.8073,0.004,True,False,Mode(963497464),0.4559,36,0.6181
1.937,THRUST_SEARCH,OPEN_LOOP,0.0111,0.01108,0.00915,0.01108,0.0,-0.00428,0.6187,0.6187,0.6187,,0.67,,False,0.0,0.0,0.0,0.0,0.0,-109.8061,-140.9613,0.005,True,False,Mode(963497464),0.4668,36,0.6181
1.948,THRUST_SEARCH,OPEN_LOOP,0.0111,0.01107,0.01147,0.01147,0.0,-0.00413,0.619,0.619,0.619,,0.67,,False,0.0,0.0,0.0,0.0,0.0,-109.8061,-141.8982,0.0006,True,False,Mode(963497464),0.4774,36,0.6181
1.959,THRUST_SEARCH,OPEN_LOOP,0.011,0.01103,0.01113,0.01113,0.0,-0.00409,0.6192,0.6192,0.6192,,0.67,,False,0.0,0.0,0.0,0.0,0.0,-109.8061,-142.3854,0.006,True,True,Mode(963497464),0.4883,36,0.6181
1.97,THRUST_SEARCH,OPEN_LOOP,0.0111,0.01111,0.01242,0.01242,0.0,-0.00358,0.6194,0.6194,0.6194,,0.67,,False,0.0,0.0,0.0,0.0,0.0,-109.8061,-142.9417,0.008,True,False,Mode(963497464),0.4993,37,0.6192
1.981,THRUST_SEARCH,OPEN_LOOP,0.0112,0.01116,0.01208,0.01208,0.0,-0.00322,0.6196,0.6196,0.6196,,0.67,,False,0.0,0.0,0.0,0.0,0.0,-109.8061,-143.7788,0.0011,True,False,Mode(963497464),0.5104,37,0.6192
1.992,THRUST_SEARCH,OPEN_LOOP,0.0111,0.01115,0.0114,0.0114,0.0,-0.00312,0.6198,0.6198,0.6198,,0.67,,False,0.0,0.0,0.0,0.0,0.0,-109.8061,-144.1185,0.003,True,False,Mode(963497464),0.5214,37,0.6192
2.003,THRUST_SEARCH,OPEN_LOOP,0.0111,0.01108,0.01076,0.01108,0.0,-0.00325,0.6201,0.6201,0.6201,,0.67,,False,0.0,0.0,0.0,0.0,0.0,-109.8061,-144.4749,0.005,True,False,Mode(963497464),0.5324,37,0.6192
2.014,THRUST_SEARCH,OPEN_LOOP,0.011,0.01105,0.01106,0.01106,0.0,-0.00324,0.6203,0.6203,0.6203,,0.67,,False,0.0,0.0,0.0,0.0,0.0,-109.8061,-145.4985,0.0007,True,True,Mode(963497464),0.5431,37,0.6192
2.025,THRUST_SEARCH,OPEN_LOOP,0.011,0.01103,0.01123,0.01123,0.0,-0.00316,0.6205,0.6205,0.6205,,0.67,,False,0.0,0.0,0.0,0.0,0.0,-109.8061,-146.1134,0.003,True,False,Mode(963497464),0.5541,38,0.6203
2.035,THRUST_SEARCH,OPEN_LOOP,0.011,0.01096,0.01052,0.01096,0.0,-0.00333,0.6207,0.6207,0.6207,,0.67,,False,0.0,0.0,0.0,0.0,0.0,-109.8061,-146.7677,0.0045,True,False,Mode(963497464),0.5645,38,0.6203
2.046,THRUST_SEARCH,OPEN_LOOP,0.0109,0.01086,0.01022,0.01086,0.0,-0.00359,0.6209,0.6209,0.6209,,0.67,,False,0.0,0.0,0.0,0.0,0.0,-109.8061,-148.2633,0.001,True,False,Mode(963497464),0.5755,38,0.6203
2.057,THRUST_SEARCH,OPEN_LOOP,0.0106,0.01065,0.00881,0.01065,0.0,-0.0043,0.6211,0.6211,0.6211,,0.67,,False,0.0,0.0,0.0,0.0,0.0,-109.8061,-148.9207,0.003,True,False,Mode(963497464),0.5865,38,0.6203
2.068,THRUST_SEARCH,OPEN_LOOP,0.0104,0.0104,0.00833,0.0104,0.0,-0.00511,0.6214,0.6214,0.6214,,0.67,,False,0.0,0.0,0.0,0.0,0.0,-109.8061,-149.454,0.004,True,True,Mode(963497464),0.5975,38,0.6203
2.079,THRUST_SEARCH,OPEN_LOOP,0.01,0.01004,0.00679,0.01004,0.0,-0.00639,0.6216,0.6216,0.6216,,0.67,,False,0.0,0.0,0.0,0.0,0.0,-109.8061,-149.8983,0.0089,True,False,Mode(963497464),0.6085,39,0.6214
2.09,THRUST_SEARCH,OPEN_LOOP,0.0097,0.00973,0.00723,0.00973,0.0,-0.00736,0.6218,0.6218,0.6218,,0.67,,False,0.0,0.0,0.0,0.0,0.0,-109.8061,-150.5041,0.002,True,False,Mode(963497464),0.6195,39,0.6214
2.101,THRUST_SEARCH,OPEN_LOOP,0.0094,0.00944,0.00723,0.00944,0.0,-0.00823,0.622,0.622,0.622,,0.67,,False,0.0,0.0,0.0,0.0,0.0,-109.8061,-150.5041,0.013,True,False,Mode(963497464),0.6305,39,0.6214
2.112,THRUST_SEARCH,OPEN_LOOP,0.0091,0.00912,0.00668,0.00912,0.0,-0.00919,0.6222,0.6222,0.6222,,0.67,,False,0.0,0.0,0.0,0.0,0.0,-109.8061,-151.2938,0.007,True,False,Mode(963497464),0.6414,39,0.6214
2.123,THRUST_SEARCH,OPEN_LOOP,0.0088,0.00883,0.00675,0.00883,0.0,-0.01,0.6225,0.6225,0.6225,,0.67,,False,0.0,0.0,0.0,0.0,0.0,-109.8061,-152.5746,0.003,True,True,Mode(963497464),0.6522,39,0.6214
2.134,THRUST_SEARCH,OPEN_LOOP,0.0085,0.00851,0.00633,0.00851,0.0,-0.01086,0.6227,0.6227,0.6227,,0.67,,False,0.0,0.0,0.0,0.0,0.0,-109.8061,-153.0964,0.002,True,False,Mode(963497464),0.6632,40,0.6225
2.145,THRUST_SEARCH,OPEN_LOOP,0.0083,0.00826,0.00684,0.00826,0.0,-0.01141,0.6229,0.6229,0.6229,,0.67,,False,0.0,0.0,0.0,0.0,0.0,-109.8061,-153.2565,0.007,True,False,Mode(963497464),0.6742,40,0.6225
2.156,THRUST_SEARCH,OPEN_LOOP,0.0081,0.00811,0.00786,0.00811,0.0,-0.01151,0.6231,0.6231,0.6231,,0.67,,False,0.0,0.0,0.0,0.0,0.0,-109.8061,-153.3045,0.009,True,False,Mode(963497464),0.6851,40,0.6225
2.167,THRUST_SEARCH,OPEN_LOOP,0.0082,0.00822,0.0107,0.0107,0.0,-0.01053,0.6233,0.6233,0.6233,,0.67,,False,0.0,0.0,0.0,0.0,0.0,-109.8061,-153.8111,0.005,True,False,Mode(963497464),0.6961,40,0.6225
2.177,THRUST_SEARCH,OPEN_LOOP,0.0085,0.00846,0.01223,0.01223,0.0,-0.00906,0.6235,0.6235,0.6235,,0.67,,False,0.0,0.0,0.0,0.0,0.0,-109.8061,-154.2018,0.0066,True,True,Mode(963497464),0.7067,40,0.6225
2.188,THRUST_SEARCH,OPEN_LOOP,0.0087,0.00867,0.01195,0.01195,0.0,-0.00778,0.6238,0.6238,0.6238,,0.67,,False,0.0,0.0,0.0,0.0,0.0,-109.8061,-154.6686,0.009,True,False,Mode(963497464),0.7177,41,0.6235
2.199,THRUST_SEARCH,OPEN_LOOP,0.009,0.00902,0.01355,0.01355,0.0,-0.006,0.624,0.624,0.624,,0.67,,False,0.0,0.0,0.0,0.0,0.0,-109.8061,-155.8773,0.002,True,False,Mode(963497464),0.7286,41,0.6235
2.21,THRUST_SEARCH,OPEN_LOOP,0.0094,0.00938,0.01393,0.01393,0.0,-0.00423,0.6242,0.6242,0.6242,,0.67,,False,0.0,0.0,0.0,0.0,0.0,-109.8061,-156.3866,0.007,True,False,Mode(963497464),0.7392,41,0.6235
2.221,THRUST_SEARCH,OPEN_LOOP,0.0098,0.00983,0.01511,0.01511,0.0,-0.00217,0.6244,0.6244,0.6244,,0.67,,False,0.0,0.0,0.0,0.0,0.0,-109.8061,-156.7425,0.009,True,False,Mode(963497464),0.7502,41,0.6235
2.233,THRUST_SEARCH,OPEN_LOOP,0.0104,0.01039,0.01659,0.01659,0.0,0.00026,0.6246,0.6246,0.6246,,0.67,,False,0.0,0.0,0.0,0.0,0.0,-109.8061,-157.0891,0.003,True,True,Mode(963497464),0.7614,41,0.6235
2.243,THRUST_SEARCH,OPEN_LOOP,0.011,0.01095,0.01687,0.01687,0.0,0.00257,0.6249,0.6249,0.6249,,0.67,,False,0.0,0.0,0.0,0.0,0.0,-109.8061,-157.203,0.0045,True,False,Mode(963497464),0.7719,42,0.6246
2.254,THRUST_SEARCH,OPEN_LOOP,0.0115,0.01154,0.01748,0.01748,0.0,0.00489,0.6251,0.6251,0.6251,,0.67,,False,0.0,0.0,0.0,0.0,0.0,-109.8061,-157.3672,0.0072,True,False,Mode(963497464),0.783,42,0.6246
2.265,THRUST_SEARCH,OPEN_LOOP,0.0121,0.01212,0.01766,0.01766,0.0,0.00705,0.6253,0.6253,0.6253,,0.67,,False,0.0,0.0,0.0,0.0,0.0,-109.8061,-158.2461,0.001,True,False,Mode(963497464),0.794,42,0.6246
2.276,THRUST_SEARCH,OPEN_LOOP,0.0127,0.01268,0.0178,0.0178,0.0,0.00906,0.6255,0.6255,0.6255,,0.67,,False,0.0,0.0,0.0,0.0,0.0,-109.8061,-158.7696,0.006,True,False,Mode(963497464),0.805,42,0.6246
2.287,THRUST_SEARCH,OPEN_LOOP,0.0132,0.01325,0.0182,0.0182,0.0,0.011,0.6257,0.6257,0.6257,,0.67,,False,0.0,0.0,0.0,0.0,0.0,-109.8061,-159.3151,0.005,True,True,Mode(963497464),0.8159,42,0.6246
2.299,THRUST_SEARCH,OPEN_LOOP,0.0138,0.01377,0.01795,0.01795,0.0,0.01263,0.626,0.626,0.626,,0.67,,False,0.0,0.0,0.0,0.0,0.0,-109.8061,-159.8677,0.0,True,False,Mode(963497464),0.8269,43,0.6257
2.308,THRUST_SEARCH,OPEN_LOOP,0.0143,0.01428,0.0183,0.0183,0.0,0.0142,0.6262,0.6262,0.6262,,0.67,,False,0.0,0.0,0.0,0.0,0.0,-109.8061,-159.7859,0.0045,True,False,Mode(963497464),0.8374,43,0.6257
2.319,THRUST_SEARCH,OPEN_LOOP,0.0148,0.01476,0.01822,0.01822,0.0,0.01555,0.6264,0.6264,0.6264,,0.67,,False,0.0,0.0,0.0,0.0,0.0,-109.8061,-159.6507,0.0067,True,False,Mode(963497464),0.8481,43,0.6257
2.33,THRUST_SEARCH,OPEN_LOOP,0.0152,0.01519,0.01798,0.01798,0.0,0.01664,0.6266,0.6266,0.6266,,0.67,,False,0.0,0.0,0.0,0.0,0.0,-109.8061,-159.5445,0.009,True,False,Mode(963497464),0.8591,43,0.6257
2.341,THRUST_SEARCH,OPEN_LOOP,0.0156,0.0156,0.01804,0.01804,0.0,0.01759,0.6268,0.6268,0.6268,,0.67,,False,0.0,0.0,0.0,0.0,0.0,-109.8061,-159.7492,0.003,True,True,Mode(963497464),0.8701,43,0.6257
2.352,THRUST_SEARCH,OPEN_LOOP,0.0159,0.0159,0.01701,0.01701,0.0,0.01803,0.627,0.627,0.627,,0.67,,False,0.0,0.0,0.0,0.0,0.0,-109.8061,-160.0844,0.005,True,False,Mode(963497464),0.881,44,0.6268
2.362,THRUST_SEARCH,OPEN_LOOP,0.0162,0.01622,0.0176,0.0176,0.0,0.01856,0.6272,0.6272,0.6272,,0.67,,False,0.0,0.0,0.0,0.0,0.0,-109.8061,-160.6225,0.007,True,False,Mode(963497464),0.8916,44,0.6268
2.373,THRUST_SEARCH,OPEN_LOOP,0.0164,0.01643,0.01661,0.01661,0.0,0.01864,0.6275,0.6275,0.6275,,0.67,,False,0.0,0.0,0.0,0.0,0.0,-109.8061,-161.5496,0.003,True,False,Mode(963497464),0.9021,44,0.6268
2.383,THRUST_SEARCH,OPEN_LOOP,0.0166,0.01659,0.0162,0.01659,0.0,0.01849,0.6277,0.6277,0.6277,,0.67,,False,0.0,0.0,0.0,0.0,0.0,-109.8061,-161.813,0.0045,True,False,Mode(963497464),0.9126,44,0.6268
2.394,THRUST_SEARCH,OPEN_LOOP,0.0167,0.0167,0.01575,0.0167,0.0,0.01811,0.6279,0.6279,0.6279,,0.67,,False,0.0,0.0,0.0,0.0,0.0,-109.8061,-162.0258,0.007,True,True,Mode(963497464),0.9235,44,0.6268
2.406,THRUST_SEARCH,OPEN_LOOP,0.0167,0.01671,0.01461,0.01671,0.0,0.0173,0.6281,0.6281,0.6281,,0.67,,False,0.0,0.0,0.0,0.0,0.0,-109.8061,-162.4639,0.001,True,False,Mode(963497464),0.9349,45,0.6279
2.416,THRUST_SEARCH,OPEN_LOOP,0.0166,0.01664,0.01386,0.01664,0.0,0.01621,0.6283,0.6283,0.6283,,0.67,,False,0.0,0.0,0.0,0.0,0.0,-109.8061,-162.8254,0.003,True,False,Mode(963497464),0.9458,45,0.6279
2.427,THRUST_SEARCH,OPEN_LOOP,0.0165,0.01653,0.01354,0.01653,0.0,0.01505,0.6285,0.6285,0.6285,,0.67,,False,0.0,0.0,0.0,0.0,0.0,-109.8061,-163.4687,0.0045,True,False,Mode(963497464),0.9563,45,0.6279
2.438,THRUST_SEARCH,OPEN_LOOP,0.0163,0.01626,0.01161,0.01626,0.0,0.01324,0.6288,0.6288,0.6288,,0.67,,False,0.0,0.0,0.0,0.0,0.0,-109.8061,-164.7999,0.001,True,False,Mode(963497464),0.9673,45,0.6279
2.449,THRUST_SEARCH,OPEN_LOOP,0.016,0.01599,0.01164,0.01599,0.0,0.01155,0.629,0.629,0.629,,0.67,,False,0.0,0.0,0.0,0.0,0.0,-109.8061,-165.3568,0.003,True,True,Mode(963497464),0.9783,45,0.6279
2.46,THRUST_SEARCH,OPEN_LOOP,0.0157,0.01567,0.01087,0.01567,0.0,0.00968,0.6292,0.6292,0.6292,,0.67,,False,0.0,0.0,0.0,0.0,0.0,-109.8061,-165.774,0.005,True,False,Mode(963497464),0.9892,46,0.629
2.471,THRUST_SEARCH,OPEN_LOOP,0.0152,0.01524,0.00953,0.01524,0.0,0.00745,0.6294,0.6294,0.6294,,0.67,,False,0.0,0.0,0.0,0.0,0.0,-109.8061,-166.4471,0.001,True,False,Mode(963497464),1.0002,46,0.629
2.482,THRUST_SEARCH,OPEN_LOOP,0.0147,0.01466,0.00766,0.01466,0.0,0.00472,0.6296,0.6296,0.6296,,0.67,,False,0.0,0.0,0.0,0.0,0.0,-109.8061,-166.8378,0.003,True,False,Mode(963497464),1.0112,46,0.629
2.494,THRUST_SEARCH,OPEN_LOOP,0.0141,0.01407,0.00734,0.01407,0.0,0.00209,0.6299,0.6299,0.6299,,0.67,,False,0.0,0.0,0.0,0.0,0.0,-109.8061,-167.2736,0.006,True,False,Mode(963497464),0.0,46,0.629
2.504,THRUST_SEARCH,OPEN_LOOP,0.0135,0.01346,0.00675,0.01346,0.0,-0.00054,0.6301,0.6301,0.6301,,0.67,,False,0.0,0.0,0.0,0.0,0.0,-109.8061,-167.7135,0.004,True,True,Mode(963497464),0.011,46,0.629
2.515,THRUST_SEARCH,OPEN_LOOP,0.0127,0.01274,0.00513,0.01274,0.0,-0.00352,0.6303,0.6303,0.6303,,0.67,,False,0.0,0.0,0.0,0.0,0.0,-109.8061,-168.4355,0.0008,True,False,Mode(963497464),0.0222,47,0.6301
2.526,THRUST_SEARCH,OPEN_LOOP,0.0122,0.01216,0.00645,0.01216,0.0,-0.00576,0.6305,0.6305,0.6305,,0.67,,False,0.0,0.0,0.0,0.0,0.0,-109.8061,-168.582,0.006,True,False,Mode(963497464),0.0332,47,0.6301
2.537,THRUST_SEARCH,OPEN_LOOP,0.0115,0.01155,0.00577,0.01155,0.0,-0.00803,0.6307,0.6307,0.6307,,0.67,,False,0.0,0.0,0.0,0.0,0.0,-109.8061,-168.7322,0.008,True,False,Mode(963497464),0.0441,47,0.6301
2.548,THRUST_SEARCH,OPEN_LOOP,0.0109,0.01092,0.00523,0.01092,0.0,-0.01026,0.631,0.631,0.631,,0.67,,False,0.0,0.0,0.0,0.0,0.0,-109.8061,-168.9818,0.001,True,False,Mode(963497464),0.0551,47,0.6301
2.559,THRUST_SEARCH,OPEN_LOOP,0.0103,0.01035,0.00548,0.01035,0.0,-0.01217,0.6312,0.6312,0.6312,,0.67,,False,0.0,0.0,0.0,0.0,0.0,-109.8061,-169.209,0.003,True,True,Mode(963497464),0.0661,47,0.6301
2.57,THRUST_SEARCH,OPEN_LOOP,0.0098,0.00978,0.00521,0.00978,0.0,-0.01396,0.6314,0.6314,0.6314,,0.67,,False,0.0,0.0,0.0,0.0,0.0,-109.8061,-169.5245,0.006,True,False,Mode(963497464),0.0771,48,0.6312
2.58,THRUST_SEARCH,OPEN_LOOP,0.0094,0.00942,0.00717,0.00942,0.0,-0.01484,0.6316,0.6316,0.6316,,0.67,,False,0.0,0.0,0.0,0.0,0.0,-109.8061,-169.9634,0.0015,True,False,Mode(963497464),0.0875,48,0.6312
2.591,THRUST_SEARCH,OPEN_LOOP,0.0091,0.00912,0.00766,0.00912,0.0,-0.01541,0.6318,0.6318,0.6318,,0.67,,False,0.0,0.0,0.0,0.0,0.0,-109.8061,-170.1003,0.003,True,False,Mode(963497464),0.0985,48,0.6312
2.602,THRUST_SEARCH,OPEN_LOOP,0.0089,0.00887,0.008,0.00887,0.0,-0.01575,0.632,0.632,0.632,,0.67,,False,0.0,0.0,0.0,0.0,0.0,-109.8061,-170.2105,0.005,True,False,Mode(963497464),0.1095,48,0.6312
2.613,THRUST_SEARCH,OPEN_LOOP,0.0088,0.00876,0.00945,0.00945,0.0,-0.01548,0.6323,0.6323,0.6323,,0.67,,False,0.0,0.0,0.0,0.0,0.0,-109.8061,-170.6566,0.001,True,True,Mode(963497464),0.1205,48,0.6312
2.624,THRUST_SEARCH,OPEN_LOOP,0.0087,0.00866,0.00939,0.00939,0.0,-0.01519,0.6325,0.6325,0.6325,,0.67,,False,0.0,0.0,0.0,0.0,0.0,-109.8061,-171.0901,0.003,True,False,Mode(963497464),0.1314,49,0.6323
2.635,THRUST_SEARCH,OPEN_LOOP,0.0086,0.00864,0.01017,0.01017,0.0,-0.0146,0.6327,0.6327,0.6327,,0.67,,False,0.0,0.0,0.0,0.0,0.0,-109.8061,-171.6005,0.0045,True,False,Mode(963497464),0.1419,49,0.6323
2.645,THRUST_SEARCH,OPEN_LOOP,0.0086,0.00863,0.01014,0.01014,0.0,-0.01401,0.6329,0.6329,0.6329,,0.67,,False,0.0,0.0,0.0,0.0,0.0,-109.8061,-172.1948,0.0066,True,False,Mode(963497464),0.1525,49,0.6323
2.656,THRUST_SEARCH,OPEN_LOOP,0.0087,0.00871,0.01119,0.01119,0.0,-0.01304,0.6331,0.6331,0.6331,,0.67,,False,0.0,0.0,0.0,0.0,0.0,-109.8061,-173.2656,0.003,True,False,Mode(963497464),0.1635,49,0.6323
2.667,THRUST_SEARCH,OPEN_LOOP,0.0087,0.00868,0.00975,0.00975,0.0,-0.01263,0.6333,0.6333,0.6333,,0.67,,False,0.0,0.0,0.0,0.0,0.0,-109.8061,-173.5997,0.0045,True,True,Mode(963497464),0.174,49,0.6323
2.678,THRUST_SEARCH,OPEN_LOOP,0.0087,0.00866,0.00995,0.00995,0.0,-0.01212,0.6336,0.6336,0.6336,,0.67,,False,0.0,0.0,0.0,0.0,0.0,-109.8061,-173.772,0.0071,True,False,Mode(963497464),0.185,50,0.6333
2.688,THRUST_SEARCH,OPEN_LOOP,0.0086,0.00861,0.00951,0.00951,0.0,-0.01178,0.6338,0.6338,0.6338,,0.67,,False,0.0,0.0,0.0,0.0,0.0,-109.8061,-174.1875,0.0006,True,False,Mode(963497464),0.1956,50,0.6333
2.699,THRUST_SEARCH,OPEN_LOOP,0.0086,0.00863,0.0101,0.0101,0.0,-0.01121,0.634,0.634,0.634,,0.67,,False,0.0,0.0,0.0,0.0,0.0,-109.8061,-174.5185,0.0015,True,False,Mode(963497464),0.2061,50,0.6333
2.71,THRUST_SEARCH,OPEN_LOOP,0.0087,0.00867,0.01042,0.01042,0.0,-0.01053,0.6342,0.6342,0.6342,,0.67,,False,0.0,0.0,0.0,0.0,0.0,-109.8061,-174.9066,0.0037,True,False,Mode(963497464),0.2168,50,0.6333
2.722,THRUST_SEARCH,OPEN_LOOP,0.0087,0.00872,0.01045,0.01045,0.0,-0.00986,0.6344,0.6344,0.6344,,0.67,,False,0.0,0.0,0.0,0.0,0.0,-109.8061,-175.3182,0.006,True,True,Mode(963497464),0.2278,50,0.6333
2.731,THRUST_SEARCH,OPEN_LOOP,0.0087,0.00875,0.01019,0.01019,0.0,-0.0093,0.6346,0.6346,0.6346,,0.67,,False,0.0,0.0,0.0,0.0,0.0,-109.8061,-176.079,0.0015,True,False,Mode(963497464),0.2382,51,0.6344
2.742,THRUST_SEARCH,OPEN_LOOP,0.0087,0.00871,0.00939,0.00939,0.0,-0.00904,0.6348,0.6348,0.6348,,0.67,,False,0.0,0.0,0.0,0.0,0.0,-109.8061,-176.1795,0.003,True,False,Mode(963497464),0.2492,51,0.6344
2.752,THRUST_SEARCH,OPEN_LOOP,0.0086,0.00863,0.00879,0.00879,0.0,-0.00898,0.635,0.635,0.635,,0.67,,False,0.0,0.0,0.0,0.0,0.0,-109.8061,-176.1392,0.0045,True,False,Mode(963497464),0.2597,51,0.6344
2.763,THRUST_SEARCH,OPEN_LOOP,0.0086,0.00862,0.00952,0.00952,0.0,-0.00863,0.6353,0.6353,0.6353,,0.67,,False,0.0,0.0,0.0,0.0,0.0,-109.8061,-176.0609,0.01,True,False,Mode(963497464),0.2707,51,0.6344
2.774,THRUST_SEARCH,OPEN_LOOP,0.0085,0.00849,0.00816,0.00849,0.0,-0.00876,0.6355,0.6355,0.6355,,0.67,,False,0.0,0.0,0.0,0.0,0.0,-109.8061,-176.1168,0.003,True,True,Mode(963497464),0.2816,51,0.6344
2.785,THRUST_SEARCH,OPEN_LOOP,0.0083,0.00834,0.00779,0.00834,0.0,-0.00897,0.6357,0.6357,0.6357,,0.67,,False,0.0,0.0,0.0,0.0,0.0,-109.8061,-176.2469,0.005,True,False,Mode(963497464),0.2926,52,0.6355
2.796,THRUST_SEARCH,OPEN_LOOP,0.0081,0.00815,0.00714,0.00815,0.0,-0.00936,0.6359,0.6359,0.6359,,0.67,,False,0.0,0.0,0.0,0.0,0.0,-109.8061,-176.4337,0.007,True,False,Mode(963497464),0.3036,52,0.6355
2.807,THRUST_SEARCH,OPEN_LOOP,0.0079,0.0079,0.00629,0.0079,0.0,-0.00999,0.6361,0.6361,0.6361,,0.67,,False,0.0,0.0,0.0,0.0,0.0,-109.8061,-176.7726,0.003,True,False,Mode(963497464),0.3146,52,0.6355
2.818,THRUST_SEARCH,OPEN_LOOP,0.0076,0.00755,0.00502,0.00755,0.0,-0.01097,0.6364,0.6364,0.6364,,0.67,,False,0.0,0.0,0.0,0.0,0.0,-109.8061,-176.7628,0.0045,True,False,Mode(963497464),0.325,52,0.6355
2.829,THRUST_SEARCH,OPEN_LOOP,0.0072,0.00719,0.00455,0.00719,0.0,-0.01199,0.6366,0.6366,0.6366,,0.67,,False,0.0,0.0,0.0,0.0,0.0,-109.8061,-176.6871,0.007,True,True,Mode(963497464),0.336,52,0.6355
2.84,THRUST_SEARCH,OPEN_LOOP,0.0067,0.00674,0.00345,0.00674,0.0,-0.01327,0.6368,0.6368,0.6368,,0.67,,False,0.0,0.0,0.0,0.0,0.0,-109.8061,-176.8528,0.001,True,False,Mode(963497464),0.3475,53,0.6366
2.851,THRUST_SEARCH,OPEN_LOOP,0.0063,0.0063,0.00317,0.0063,0.0,-0.01449,0.637,0.637,0.637,,0.67,,False,0.0,0.0,0.0,0.0,0.0,-109.8061,-177.0853,0.006,True,False,Mode(963497464),0.3585,53,0.6366
2.862,THRUST_SEARCH,OPEN_LOOP,0.0059,0.00587,0.00295,0.00587,0.0,-0.01563,0.6372,0.6372,0.6372,,0.67,,False,0.0,0.0,0.0,0.0,0.0,-109.8061,-177.2873,0.0076,True,False,Mode(963497464),0.369,53,0.6366
2.873,THRUST_SEARCH,OPEN_LOOP,0.0056,0.00561,0.00463,0.00561,0.0,-0.01601,0.6375,0.6375,0.6375,,0.67,,False,0.0,0.0,0.0,0.0,0.0,-109.8061,-177.0393,0.001,True,False,Mode(963497464),0.38,53,0.6366
2.883,THRUST_SEARCH,OPEN_LOOP,0.0053,0.00527,0.00344,0.00527,0.0,-0.01672,0.6377,0.6377,0.6377,,0.67,,False,0.0,0.0,0.0,0.0,0.0,-109.8061,-176.7196,0.003,True,True,Mode(963497464),0.3905,53,0.6366
2.894,THRUST_SEARCH,OPEN_LOOP,0.005,0.00499,0.00403,0.00499,0.0,-0.0171,0.6379,0.6379,0.6379,,0.67,,False,0.0,0.0,0.0,0.0,0.0,-109.8061,-176.5523,0.005,True,False,Mode(963497464),0.4014,54,0.6377
2.905,THRUST_SEARCH,OPEN_LOOP,0.0048,0.00483,0.00505,0.00505,0.0,-0.01701,0.6381,0.6381,0.6381,,0.67,,False,0.0,0.0,0.0,0.0,0.0,-109.8061,-177.0585,0.001,True,False,Mode(963497464),0.4124,54,0.6377
2.916,THRUST_SEARCH,OPEN_LOOP,0.0048,0.00475,0.00592,0.00592,0.0,-0.01656,0.6383,0.6383,0.6383,,0.67,,False,0.0,0.0,0.0,0.0,0.0,-109.8061,-177.6908,0.003,True,False,Mode(963497464),0.4234,54,0.6377
2.927,THRUST_SEARCH,OPEN_LOOP,0.0047,0.00467,0.00561,0.00561,0.0,-0.01619,0.6385,0.6385,0.6385,,0.67,,False,0.0,0.0,0.0,0.0,0.0,-109.8061,-178.3646,0.0045,True,False,Mode(963497464),0.4339,54,0.6377
2.938,THRUST_SEARCH,OPEN_LOOP,0.0047,0.00472,0.00722,0.00722,0.0,-0.01522,0.6388,0.6388,0.6388,,0.67,,False,0.0,0.0,0.0,0.0,0.0,-109.8061,-179.304,0.001,True,True,Mode(963497464),0.4448,54,0.6377
2.949,THRUST_SEARCH,OPEN_LOOP,0.0049,0.00488,0.00839,0.00839,0.0,-0.01385,0.639,0.639,0.639,,0.67,,False,0.0,0.0,0.0,0.0,0.0,-109.8061,-179.3762,0.004,True,False,Mode(963497464),0.4563,55,0.6388
2.96,THRUST_SEARCH,OPEN_LOOP,0.005,0.00505,0.00838,0.00838,0.0,-0.01255,0.6392,0.6392,0.6392,,0.67,,False,0.0,0.0,0.0,0.0,0.0,-109.8061,-179.2817,0.006,True,False,Mode(963497464),0.4668,55,0.6388
2.971,THRUST_SEARCH,OPEN_LOOP,0.0052,0.00525,0.00883,0.00883,0.0,-0.01115,0.6394,0.6394,0.6394,,0.67,,False,0.0,0.0,0.0,0.0,0.0,-109.8061,-179.1568,0.008,True,False,Mode(963497464),0.4778,55,0.6388
2.982,THRUST_SEARCH,OPEN_LOOP,0.0056,0.00559,0.01049,0.01049,0.0,-0.00924,0.6396,0.6396,0.6396,,0.67,,False,0.0,0.0,0.0,0.0,0.0,-109.8061,-179.2852,0.001,True,False,Mode(963497464),0.4887,55,0.6388
2.992,THRUST_SEARCH,OPEN_LOOP,0.006,0.00605,0.01198,0.01198,0.0,-0.00692,0.6398,0.6398,0.6398,,0.67,,False,0.0,0.0,0.0,0.0,0.0,-109.8061,-179.6323,0.006,True,True,Mode(963497464),0.4997,55,0.6388
3.003,THRUST_SEARCH,OPEN_LOOP,0.0065,0.00654,0.0126,0.0126,0.0,-0.00455,0.6401,0.6401,0.6401,,0.67,,False,0.0,0.0,0.0,0.0,0.0,-109.8061,179.9388,0.008,True,False,Mode(963497464),0.5107,56,0.6398
3.014,THRUST_SEARCH,OPEN_LOOP,0.007,0.007,0.01233,0.01233,0.0,-0.00247,0.6403,0.6403,0.6403,,0.67,,False,0.0,0.0,0.0,0.0,0.0,-109.8061,179.4647,0.01,True,False,Mode(963497464),0.5216,56,0.6398
3.025,THRUST_SEARCH,OPEN_LOOP,0.0076,0.00755,0.01374,0.01374,0.0,-5e-05,0.6405,0.6405,0.6405,,0.67,,False,0.0,0.0,0.0,0.0,0.0,-109.8061,178.6485,0.004,True,False,Mode(963497464),0.5326,56,0.6398
3.036,THRUST_SEARCH,OPEN_LOOP,0.0081,0.00808,0.01366,0.01366,0.0,0.00213,0.6407,0.6407,0.6407,,0.67,,False,0.0,0.0,0.0,0.0,0.0,-109.8061,178.4233,0.006,True,False,Mode(963497464),0.5431,56,0.6398
3.047,THRUST_SEARCH,OPEN_LOOP,0.0086,0.00861,0.01397,0.01397,0.0,0.00422,0.6409,0.6409,0.6409,,0.67,,False,0.0,0.0,0.0,0.0,0.0,-109.8061,178.0934,0.002,True,True,Mode(963497464),0.5541,56,0.6398
3.058,THRUST_SEARCH,OPEN_LOOP,0.0092,0.00921,0.01505,0.01505,0.0,0.00651,0.6412,0.6412,0.6412,,0.67,,False,0.0,0.0,0.0,0.0,0.0,-109.8061,177.7824,0.004,True,False,Mode(963497464),0.5651,57,0.6409
3.069,THRUST_SEARCH,OPEN_LOOP,0.0098,0.00984,0.01581,0.01581,0.0,0.00884,0.6414,0.6414,0.6414,,0.67,,False,0.0,0.0,0.0,0.0,0.0,-109.8061,177.373,0.0063,True,False,Mode(963497464),0.5763,57,0.6409
3.08,THRUST_SEARCH,OPEN_LOOP,0.0105,0.01051,0.01651,0.01651,0.0,0.0112,0.6416,0.6416,0.6416,,0.67,,False,0.0,0.0,0.0,0.0,0.0,-109.8061,176.8035,0.008,True,False,Mode(963497464),0.5873,57,0.6409
3.091,THRUST_SEARCH,OPEN_LOOP,0.0111,0.01112,0.01633,0.01633,0.0,0.01324,0.6418,0.6418,0.6418,,0.67,,False,0.0,0.0,0.0,0.0,0.0,-109.8061,175.5645,0.004,True,False,Mode(963497464),0.5983,57,0.6409
3.102,THRUST_SEARCH,OPEN_LOOP,0.0117,0.01167,0.016,0.016,0.0,0.01493,0.642,0.642,0.642,,0.67,,False,0.0,0.0,0.0,0.0,0.0,-109.8061,174.9836,0.003,True,True,Mode(963497464),0.6088,57,0.6409
3.113,THRUST_SEARCH,OPEN_LOOP,0.0121,0.01207,0.01459,0.01459,0.0,0.01592,0.6423,0.6423,0.6423,,0.67,,False,0.0,0.0,0.0,0.0,0.0,-109.8061,174.3958,0.008,True,False,Mode(963497464),0.6197,58,0.642
3.123,THRUST_SEARCH,OPEN_LOOP,0.0125,0.01251,0.01523,0.01523,0.0,0.01698,0.6425,0.6425,0.6425,,0.67,,False,0.0,0.0,0.0,0.0,0.0,-109.8061,173.5489,0.003,True,False,Mode(963497464),0.6307,58,0.642
3.134,THRUST_SEARCH,OPEN_LOOP,0.013,0.01299,0.01623,0.01623,0.0,0.01825,0.6427,0.6427,0.6427,,0.67,,False,0.0,0.0,0.0,0.0,0.0,-109.8061,173.2419,0.0015,True,False,Mode(963497464),0.6412,58,0.642
3.145,THRUST_SEARCH,OPEN_LOOP,0.0135,0.01347,0.01648,0.01648,0.0,0.01942,0.6429,0.6429,0.6429,,0.67,,False,0.0,0.0,0.0,0.0,0.0,-109.8061,172.9845,0.006,True,False,Mode(963497464),0.6522,58,0.642
3.155,THRUST_SEARCH,OPEN_LOOP,0.0139,0.01388,0.01604,0.01604,0.0,0.02026,0.6431,0.6431,0.6431,,0.67,,False,0.0,0.0,0.0,0.0,0.0,-109.8061,172.5396,0.0015,True,True,Mode(963497464),0.6626,58,0.642
3.166,THRUST_SEARCH,OPEN_LOOP,0.0142,0.01422,0.01552,0.01552,0.0,0.02077,0.6433,0.6433,0.6433,,0.67,,False,0.0,0.0,0.0,0.0,0.0,-109.8061,172.2813,0.002,True,False,Mode(963497464),0.6736,59,0.6431
3.177,THRUST_SEARCH,OPEN_LOOP,0.0145,0.01451,0.01511,0.01511,0.0,0.021,0.6435,0.6435,0.6435,,0.67,,False,0.0,0.0,0.0,0.0,0.0,-109.8061,172.0372,0.007,True,False,Mode(963497464),0.6846,59,0.6431
3.189,THRUST_SEARCH,OPEN_LOOP,0.0147,0.01469,0.01409,0.01469,0.0,0.02077,0.6438,0.6438,0.6438,,0.67,,False,0.0,0.0,0.0,0.0,0.0,-109.8061,171.6203,0.001,True,False,Mode(963497464),0.6961,59,0.6431
3.2,THRUST_SEARCH,OPEN_LOOP,0.0149,0.01488,0.01445,0.01488,0.0,0.0206,0.644,0.644,0.644,,0.67,,False,0.0,0.0,0.0,0.0,0.0,-109.8061,171.3938,0.0031,True,False,Mode(963497464),0.7071,59,0.6431
3.21,THRUST_SEARCH,OPEN_LOOP,0.015,0.01505,0.0145,0.01505,0.0,0.02039,0.6442,0.6442,0.6442,,0.67,,False,0.0,0.0,0.0,0.0,0.0,-109.8061,171.2205,0.0045,True,True,Mode(963497464),0.7175,59,0.6431
3.221,THRUST_SEARCH,OPEN_LOOP,0.0152,0.01516,0.01404,0.01516,0.0,0.01995,0.6444,0.6444,0.6444,,0.67,,False,0.0,0.0,0.0,0.0,0.0,-109.8061,170.9692,0.001,True,False,Mode(963497464),0.7285,60,0.6442
3.232,THRUST_SEARCH,OPEN_LOOP,0.0152,0.01524,0.01371,0.01524,0.0,0.01935,0.6446,0.6446,0.6446,,0.67,,False,0.0,0.0,0.0,0.0,0.0,-109.8061,170.8462,0.003,True,False,Mode(963497464),0.7395,60,0.6442
3.243,THRUST_SEARCH,OPEN_LOOP,0.0153,0.01526,0.01329,0.01526,0.0,0.01858,0.6449,0.6449,0.6449,,0.67,,False,0.0,0.0,0.0,0.0,0.0,-109.8061,170.8077,0.0045,True,False,Mode(963497464),0.7499,60,0.6442
3.253,THRUST_SEARCH,OPEN_LOOP,0.0152,0.01518,0.01231,0.01518,0.0,0.01747,0.6451,0.6451,0.6451,,0.67,,False,0.0,0.0,0.0,0.0,0.0,-109.8061,170.7044,0.0066,True,False,Mode(963497464),0.7606,60,0.6442
3.266,THRUST_SEARCH,OPEN_LOOP,0.0151,0.0151,0.01213,0.0151,0.0,0.01631,0.6453,0.6453,0.6453,,0.67,,False,0.0,0.0,0.0,0.0,0.0,-109.8061,170.5209,0.009,True,True,Mode(963497464),0.7715,60,0.6442
3.275,THRUST_SEARCH,OPEN_LOOP,0.0149,0.01495,0.01149,0.01495,0.0,0.01496,0.6455,0.6455,0.6455,,0.67,,False,0.0,0.0,0.0,0.0,0.0,-109.8061,169.864,0.004,True,False,Mode(963497464),0.7825,61,0.6453
