time,state,controller_mode,target_z,curr_z,raw_z,height_for_safety,target_vz,curr_vz,thrust,raw_thrust,search_thrust,liftoff_thrust,hover_thrust_est,thrust_no_floor,floor_applied,a_cmd_z,v_cmd_z,z_integral,roll_cmd_deg,pitch_cmd_deg,yaw_cmd_deg,yaw_mocap_deg,mocap_age,kf_used_measurement,mavlink_sent,mav_mode,mav_heartbeat_age,mav_send_count,mav_last_thrust
0.002,THRUST_SEARCH,OPEN_LOOP,0.0005,0.00048,0.0006,0.0006,0.0,6e-05,0.58,0.58,0.58,,0.67,,False,0.0,0.0,0.0,0.0,0.0,-1.9209,-1.9878,0.001,True,True,Mode(963497464),0.0,0,
0.011,THRUST_SEARCH,OPEN_LOOP,0.0005,0.00045,0.00042,0.00045,0.0,-4e-05,0.5802,0.5802,0.5802,,0.67,,False,0.0,0.0,0.0,0.0,0.0,-1.9209,-1.9946,0.003,True,False,Mode(963497464),0.011,1,0.58
0.022,THRUST_SEARCH,OPEN_LOOP,0.0005,0.00051,0.00063,0.00063,0.0,0.00044,0.5804,0.5804,0.5804,,0.67,,False,0.0,0.0,0.0,0.0,0.0,-1.9209,-2.0004,0.005,True,False,Mode(963497464),0.0219,1,0.58
0.032,THRUST_SEARCH,OPEN_LOOP,0.0005,0.00048,0.00039,0.00048,0.0,-1e-05,0.5806,0.5806,0.5806,,0.67,,False,0.0,0.0,0.0,0.0,0.0,-1.9209,-1.9732,0.0007,True,False,Mode(963497464),0.0324,1,0.58
0.043,THRUST_SEARCH,OPEN_LOOP,0.0005,0.00053,0.00066,0.00066,0.0,0.00074,0.5809,0.5809,0.5809,,0.67,,False,0.0,0.0,0.0,0.0,0.0,-1.9209,-1.982,0.0015,True,False,Mode(963497464),0.0429,1,0.58
0.055,THRUST_SEARCH,OPEN_LOOP,0.0006,0.00058,0.00068,0.00068,0.0,0.00138,0.5811,0.5811,0.5811,,0.67,,False,0.0,0.0,0.0,0.0,0.0,-1.9209,-1.9849,0.006,True,True,Mode(963497464),0.0539,1,0.58
0.064,THRUST_SEARCH,OPEN_LOOP,0.0006,0.00064,0.00077,0.00077,0.0,0.00213,0.5813,0.5813,0.5813,,0.67,,False,0.0,0.0,0.0,0.0,0.0,-1.9209,-1.9687,0.0075,True,False,Mode(963497464),0.0644,2,0.5811
0.075,THRUST_SEARCH,OPEN_LOOP,0.0007,0.00067,0.00069,0.00069,0.0,0.00221,0.5815,0.5815,0.5815,,0.67,,False,0.0,0.0,0.0,0.0,0.0,-1.9209,-1.9815,0.001,True,False,Mode(963497464),0.0753,2,0.5811
0.086,THRUST_SEARCH,OPEN_LOOP,0.0007,0.00066,0.00056,0.00066,0.0,0.00168,0.5817,0.5817,0.5817,,0.67,,False,0.0,0.0,0.0,0.0,0.0,-1.9209,-1.9922,0.0031,True,False,Mode(963497464),0.0864,2,0.5811
0.097,THRUST_SEARCH,OPEN_LOOP,0.0006,0.00062,0.00048,0.00062,0.0,0.001,0.5819,0.5819,0.5819,,0.67,,False,0.0,0.0,0.0,0.0,0.0,-1.9209,-1.9918,0.008,True,False,Mode(963497464),0.0973,2,0.5811
0.108,THRUST_SEARCH,OPEN_LOOP,0.0006,0.00061,0.00055,0.00061,0.0,0.00073,0.5822,0.5822,0.5822,,0.67,,False,0.0,0.0,0.0,0.0,0.0,-1.9209,-1.9882,0.001,True,True,Mode(963497464),0.1083,2,0.5811
0.119,THRUST_SEARCH,OPEN_LOOP,0.0006,0.00059,0.00051,0.00059,0.0,0.00041,0.5824,0.5824,0.5824,,0.67,,False,0.0,0.0,0.0,0.0,0.0,-1.9209,-1.9965,0.003,True,False,Mode(963497464),0.1192,3,0.5822
0.13,THRUST_SEARCH,OPEN_LOOP,0.0006,0.00057,0.00048,0.00057,0.0,0.00013,0.5826,0.5826,0.5826,,0.67,,False,0.0,0.0,0.0,0.0,0.0,-1.9209,-2.0031,0.0045,True,False,Mode(963497464),0.1297,3,0.5822
0.141,THRUST_SEARCH,OPEN_LOOP,0.0006,0.00063,0.00084,0.00084,0.0,0.00075,0.5828,0.5828,0.5828,,0.67,,False,0.0,0.0,0.0,0.0,0.0,-1.9209,-2.0173,0.001,True,False,Mode(963497464),0.1407,3,0.5822
0.152,THRUST_SEARCH,OPEN_LOOP,0.0007,0.00067,0.00077,0.00077,0.0,0.00102,0.583,0.583,0.583,,0.67,,False,0.0,0.0,0.0,0.0,0.0,-1.9209,-2.0409,0.003,True,False,Mode(963497464),0.1516,3,0.5822
0.162,THRUST_SEARCH,OPEN_LOOP,0.0008,0.00079,0.0012,0.0012,0.0,0.00195,0.5832,0.5832,0.5832,,0.67,,False,0.0,0.0,0.0,0.0,0.0,-1.9209,-2.0465,0.0045,True,True,Mode(963497464),0.0,3,0.5822
0.173,THRUST_SEARCH,OPEN_LOOP,0.0012,0.0012,0.00273,0.00273,0.0,0.00512,0.5835,0.5835,0.5835,,0.67,,False,0.0,0.0,0.0,0.0,0.0,-1.9209,-2.0982,0.007,True,False,Mode(963497464),0.011,4,0.5832
0.184,THRUST_SEARCH,OPEN_LOOP,0.002,0.002,0.0051,0.0051,0.0,0.0109,0.5837,0.5837,0.5837,,0.67,,False,0.0,0.0,0.0,0.0,0.0,-1.9209,-2.2588,0.003,True,False,Mode(963497464),0.0214,4,0.5832
0.195,THRUST_SEARCH,OPEN_LOOP,0.0027,0.00269,0.00521,0.00521,0.0,0.01515,0.5839,0.5839,0.5839,,0.67,,False,0.0,0.0,0.0,0.0,0.0,-1.9209,-2.4601,0.005,True,False,Mode(963497464),0.0324,4,0.5832
0.205,THRUST_SEARCH,OPEN_LOOP,0.0034,0.00341,0.006,0.006,0.0,0.01911,0.5841,0.5841,0.5841,,0.67,,False,0.0,0.0,0.0,0.0,0.0,-1.9209,-2.6841,0.007,True,False,Mode(963497464),0.0429,4,0.5832
0.216,THRUST_SEARCH,OPEN_LOOP,0.0042,0.00423,0.00713,0.00713,0.0,0.02317,0.5843,0.5843,0.5843,,0.67,,False,0.0,0.0,0.0,0.0,0.0,-1.9209,-2.9396,0.001,True,True,Mode(963497464),0.0543,4,0.5832
0.227,THRUST_SEARCH,OPEN_LOOP,0.0049,0.00491,0.00705,0.00705,0.0,0.02592,0.5845,0.5845,0.5845,,0.67,,False,0.0,0.0,0.0,0.0,0.0,-1.9209,-3.0113,0.003,True,False,Mode(963497464),0.0653,5,0.5843
0.238,THRUST_SEARCH,OPEN_LOOP,0.0055,0.00551,0.00724,0.00724,0.0,0.02797,0.5848,0.5848,0.5848,,0.67,,False,0.0,0.0,0.0,0.0,0.0,-1.9209,-3.1104,0.0045,True,False,Mode(963497464),0.0758,5,0.5843
0.249,THRUST_SEARCH,OPEN_LOOP,0.0062,0.0062,0.0083,0.0083,0.0,0.03027,0.585,0.585,0.585,,0.67,,False,0.0,0.0,0.0,0.0,0.0,-1.9209,-3.5765,0.001,True,False,Mode(963497464),0.0868,5,0.5843
0.259,THRUST_SEARCH,OPEN_LOOP,0.0069,0.00694,0.00939,0.00939,0.0,0.03274,0.5852,0.5852,0.5852,,0.67,,False,0.0,0.0,0.0,0.0,0.0,-1.9209,-3.7284,0.003,True,False,Mode(963497464),0.0973,5,0.5843
0.27,THRUST_SEARCH,OPEN_LOOP,0.0076,0.00759,0.00931,0.00931,0.0,0.03436,0.5854,0.5854,0.5854,,0.67,,False,0.0,0.0,0.0,0.0,0.0,-1.9209,-3.954,0.005,True,True,Mode(963497464),0.1082,5,0.5843
0.281,THRUST_SEARCH,OPEN_LOOP,0.0081,0.00807,0.00869,0.00869,0.0,0.0349,0.5856,0.5856,0.5856,,0.67,,False,0.0,0.0,0.0,0.0,0.0,-1.9209,-4.0269,0.007,True,False,Mode(963497464),0.1192,6,0.5854
0.292,THRUST_SEARCH,OPEN_LOOP,0.0084,0.00844,0.00849,0.00849,0.0,0.03494,0.5858,0.5858,0.5858,,0.67,,False,0.0,0.0,0.0,0.0,0.0,-1.9209,-4.1183,0.0089,True,False,Mode(963497464),0.1297,6,0.5854
0.303,THRUST_SEARCH,OPEN_LOOP,0.0087,0.0087,0.00791,0.0087,0.0,0.03431,0.5861,0.5861,0.5861,,0.67,,False,0.0,0.0,0.0,0.0,0.0,-1.9209,-4.2277,0.005,True,False,Mode(963497464),0.1406,6,0.5854
0.314,THRUST_SEARCH,OPEN_LOOP,0.0089,0.00888,0.00745,0.00888,0.0,0.03325,0.5863,0.5863,0.5863,,0.67,,False,0.0,0.0,0.0,0.0,0.0,-1.9209,-4.3872,0.007,True,False,Mode(963497464),0.1519,6,0.5854
0.326,THRUST_SEARCH,OPEN_LOOP,0.009,0.00896,0.00694,0.00896,0.0,0.03184,0.5865,0.5865,0.5865,,0.67,,False,0.0,0.0,0.0,0.0,0.0,-1.9209,-4.7017,0.009,True,True,Mode(963497464),0.1629,6,0.5854
0.336,THRUST_SEARCH,OPEN_LOOP,0.009,0.00902,0.0071,0.00902,0.0,0.03057,0.5867,0.5867,0.5867,,0.67,,False,0.0,0.0,0.0,0.0,0.0,-1.9209,-5.446,0.0035,True,False,Mode(963497464),0.1734,7,0.5865
0.346,THRUST_SEARCH,OPEN_LOOP,0.0091,0.00907,0.00697,0.00907,0.0,0.02923,0.5869,0.5869,0.5869,,0.67,,False,0.0,0.0,0.0,0.0,0.0,-1.9209,-5.7217,0.006,True,False,Mode(963497464),0.1844,7,0.5865
0.357,THRUST_SEARCH,OPEN_LOOP,0.0089,0.00889,0.00502,0.00889,0.0,0.02688,0.5871,0.5871,0.5871,,0.67,,False,0.0,0.0,0.0,0.0,0.0,-1.9209,-6.0113,0.008,True,False,Mode(963497464),0.1953,7,0.5865
0.368,THRUST_SEARCH,OPEN_LOOP,0.0087,0.00865,0.00455,0.00865,0.0,0.02448,0.5874,0.5874,0.5874,,0.67,,False,0.0,0.0,0.0,0.0,0.0,-1.9209,-6.5748,0.004,True,False,Mode(963497464),0.2063,7,0.5865
0.379,THRUST_SEARCH,OPEN_LOOP,0.0083,0.00826,0.00314,0.00826,0.0,0.02161,0.5876,0.5876,0.5876,,0.67,,False,0.0,0.0,0.0,0.0,0.0,-1.9209,-6.9048,0.006,True,True,Mode(963497464),0.2168,7,0.5865
0.39,THRUST_SEARCH,OPEN_LOOP,0.0079,0.00789,0.00289,0.00789,0.0,0.01891,0.5878,0.5878,0.5878,,0.67,,False,0.0,0.0,0.0,0.0,0.0,-1.9209,-7.2266,0.008,True,False,Mode(963497464),0.2278,8,0.5876
0.401,THRUST_SEARCH,OPEN_LOOP,0.0075,0.0075,0.00256,0.0075,0.0,0.01632,0.588,0.588,0.588,,0.67,,False,0.0,0.0,0.0,0.0,0.0,-1.9209,-7.7219,0.001,True,False,Mode(963497464),0.2387,8,0.5876
0.411,THRUST_SEARCH,OPEN_LOOP,0.0072,0.0072,0.00324,0.0072,0.0,0.01431,0.5882,0.5882,0.5882,,0.67,,False,0.0,0.0,0.0,0.0,0.0,-1.9209,-7.9895,0.001,True,False,Mode(963497464),0.2492,8,0.5876
0.423,THRUST_SEARCH,OPEN_LOOP,0.0069,0.0069,0.00284,0.0069,0.0,0.0123,0.5885,0.5885,0.5885,,0.67,,False,0.0,0.0,0.0,0.0,0.0,-1.9209,-8.1579,0.007,True,False,Mode(963497464),0.2607,8,0.5876
0.434,THRUST_SEARCH,OPEN_LOOP,0.0065,0.00654,0.00229,0.00654,0.0,0.01025,0.5887,0.5887,0.5887,,0.67,,False,0.0,0.0,0.0,0.0,0.0,-1.9209,-8.1477,0.009,True,True,Mode(963497464),0.2712,8,0.5876
0.444,THRUST_SEARCH,OPEN_LOOP,0.0063,0.00626,0.00277,0.00626,0.0,0.00862,0.5889,0.5889,0.5889,,0.67,,False,0.0,0.0,0.0,0.0,0.0,-1.9209,-8.6177,0.0045,True,False,Mode(963497464),0.2817,9,0.5887
0.455,THRUST_SEARCH,OPEN_LOOP,0.006,0.00605,0.00323,0.00605,0.0,0.00733,0.5891,0.5891,0.5891,,0.67,,False,0.0,0.0,0.0,0.0,0.0,-1.9209,-9.03,0.0072,True,False,Mode(963497464),0.2928,9,0.5887
0.466,THRUST_SEARCH,OPEN_LOOP,0.0059,0.00591,0.00397,0.00591,0.0,0.00645,0.5893,0.5893,0.5893,,0.67,,False,0.0,0.0,0.0,0.0,0.0,-1.9209,-9.8476,0.001,True,False,Mode(963497464),0.3038,9,0.5887
0.477,THRUST_SEARCH,OPEN_LOOP,0.0059,0.00586,0.00471,0.00586,0.0,0.00594,0.5895,0.5895,0.5895,,0.67,,False,0.0,0.0,0.0,0.0,0.0,-1.9209,-10.0367,0.003,True,False,Mode(963497464),0.3148,9,0.5887
0.488,THRUST_SEARCH,OPEN_LOOP,0.0059,0.00587,0.00533,0.00587,0.0,0.0057,0.5898,0.5898,0.5898,,0.67,,False,0.0,0.0,0.0,0.0,0.0,-1.9209,-10.0762,0.005,True,True,Mode(963497464),0.3257,9,0.5887
0.499,THRUST_SEARCH,OPEN_LOOP,0.006,0.00597,0.00633,0.00633,0.0,0.00586,0.59,0.59,0.59,,0.67,,False,0.0,0.0,0.0,0.0,0.0,-1.9209,-9.4729,0.001,True,False,Mode(963497464),0.3365,10,0.5898
0.51,THRUST_SEARCH,OPEN_LOOP,0.0061,0.00605,0.00626,0.00626,0.0,0.00594,0.5902,0.5902,0.5902,,0.67,,False,0.0,0.0,0.0,0.0,0.0,-1.9209,-9.1106,0.0032,True,False,Mode(963497464),0.3476,10,0.5898
0.521,THRUST_SEARCH,OPEN_LOOP,0.0061,0.00613,0.00626,0.00626,0.0,0.006,0.5904,0.5904,0.5904,,0.67,,False,0.0,0.0,0.0,0.0,0.0,-1.9209,-8.9792,0.005,True,False,Mode(963497464),0.3584,10,0.5898
0.531,THRUST_SEARCH,OPEN_LOOP,0.0062,0.0062,0.00628,0.00628,0.0,0.00603,0.5906,0.5906,0.5906,,0.67,,False,0.0,0.0,0.0,0.0,0.0,-1.9209,-9.0633,0.007,True,False,Mode(963497464),0.369,10,0.5898
0.543,THRUST_SEARCH,OPEN_LOOP,0.0063,0.00628,0.00642,0.00642,0.0,0.00608,0.5908,0.5908,0.5908,,0.67,,False,0.0,0.0,0.0,0.0,0.0,-1.9209,-9.3817,0.009,True,True,Mode(963497464),0.3794,10,0.5898
0.553,THRUST_SEARCH,OPEN_LOOP,0.0063,0.00628,0.00565,0.00628,0.0,0.00583,0.5911,0.5911,0.5911,,0.67,,False,0.0,0.0,0.0,0.0,0.0,-1.9209,-10.322,0.004,True,False,Mode(963497464),0.3904,11,0.5908
0.563,THRUST_SEARCH,OPEN_LOOP,0.0063,0.00633,0.00615,0.00633,0.0,0.00575,0.5913,0.5913,0.5913,,0.67,,False,0.0,0.0,0.0,0.0,0.0,-1.9209,-10.7753,0.006,True,False,Mode(963497464),0.4009,11,0.5908
0.574,THRUST_SEARCH,OPEN_LOOP,0.0063,0.00633,0.00567,0.00633,0.0,0.00549,0.5915,0.5915,0.5915,,0.67,,False,0.0,0.0,0.0,0.0,0.0,-1.9209,-10.9965,0.008,True,False,Mode(963497464),0.4119,11,0.5908
0.585,THRUST_SEARCH,OPEN_LOOP,0.0062,0.00621,0.00447,0.00621,0.0,0.0048,0.5917,0.5917,0.5917,,0.67,,False,0.0,0.0,0.0,0.0,0.0,-1.9209,-11.2354,0.0035,True,False,Mode(963497464),0.4224,11,0.5908
0.595,THRUST_SEARCH,OPEN_LOOP,0.0061,0.00612,0.00464,0.00612,0.0,0.00422,0.5919,0.5919,0.5919,,0.67,,False,0.0,0.0,0.0,0.0,0.0,-1.9209,-11.3551,0.006,True,True,Mode(963497464),0.4333,11,0.5908
0.606,THRUST_SEARCH,OPEN_LOOP,0.006,0.00596,0.00377,0.00596,0.0,0.00335,0.5921,0.5921,0.5921,,0.67,,False,0.0,0.0,0.0,0.0,0.0,-1.9209,-11.5598,0.008,True,False,Mode(963497464),0.4443,12,0.5919
0.617,THRUST_SEARCH,OPEN_LOOP,0.0058,0.00575,0.00326,0.00575,0.0,0.00237,0.5923,0.5923,0.5923,,0.67,,False,0.0,0.0,0.0,0.0,0.0,-1.9209,-12.2107,0.001,True,False,Mode(963497464),0.4553,12,0.5919
0.629,THRUST_SEARCH,OPEN_LOOP,0.0056,0.00557,0.00343,0.00557,0.0,0.00153,0.5926,0.5926,0.5926,,0.67,,False,0.0,0.0,0.0,0.0,0.0,-1.9209,-12.7189,0.003,True,False,Mode(963497464),0.4663,12,0.5919
0.639,THRUST_SEARCH,OPEN_LOOP,0.0055,0.00552,0.00476,0.00552,0.0,0.00123,0.5928,0.5928,0.5928,,0.67,,False,0.0,0.0,0.0,0.0,0.0,-1.9209,-13.1222,0.0075,True,False,Mode(963497464),0.4767,12,0.5919
0.65,THRUST_SEARCH,OPEN_LOOP,0.0056,0.0056,0.00635,0.00635,0.0,0.00152,0.593,0.593,0.593,,0.67,,False,0.0,0.0,0.0,0.0,0.0,-1.9209,-13.2693,0.001,True,True,Mode(963497464),0.4877,12,0.5919
0.661,THRUST_SEARCH,OPEN_LOOP,0.0056,0.00564,0.00593,0.00593,0.0,0.00164,0.5932,0.5932,0.5932,,0.67,,False,0.0,0.0,0.0,0.0,0.0,-1.9209,-13.1919,0.003,True,False,Mode(963497464),0.4987,13,0.593
0.672,THRUST_SEARCH,OPEN_LOOP,0.0057,0.00573,0.00639,0.00639,0.0,0.0019,0.5934,0.5934,0.5934,,0.67,,False,0.0,0.0,0.0,0.0,0.0,-1.9209,-13.1604,0.005,True,False,Mode(963497464),0.5097,13,0.593
0.682,THRUST_SEARCH,OPEN_LOOP,0.0059,0.00586,0.00701,0.00701,0.0,0.00235,0.5936,0.5936,0.5936,,0.67,,False,0.0,0.0,0.0,0.0,0.0,-1.9209,-13.2408,0.0007,True,False,Mode(963497464),0.5203,13,0.593
0.693,THRUST_SEARCH,OPEN_LOOP,0.0061,0.00611,0.00846,0.00846,0.0,0.00326,0.5939,0.5939,0.5939,,0.67,,False,0.0,0.0,0.0,0.0,0.0,-1.9209,-13.3989,0.003,True,False,Mode(963497464),0.5313,13,0.593
0.705,THRUST_SEARCH,OPEN_LOOP,0.0064,0.00639,0.009,0.009,0.0,0.00428,0.5941,0.5941,0.5941,,0.67,,False,0.0,0.0,0.0,0.0,0.0,-1.9209,-13.6502,0.005,True,True,Mode(963497464),0.5423,13,0.593
0.716,THRUST_SEARCH,OPEN_LOOP,0.0067,0.00672,0.00975,0.00975,0.0,0.00546,0.5943,0.5943,0.5943,,0.67,,False,0.0,0.0,0.0,0.0,0.0,-1.9209,-13.8616,0.007,True,False,Mode(963497464),0.5532,14,0.5941
0.726,THRUST_SEARCH,OPEN_LOOP,0.007,0.00702,0.00951,0.00951,0.0,0.00643,0.5945,0.5945,0.5945,,0.67,,False,0.0,0.0,0.0,0.0,0.0,-1.9209,-13.8464,0.002,True,False,Mode(963497464),0.5642,14,0.5941
0.738,THRUST_SEARCH,OPEN_LOOP,0.0073,0.00728,0.00931,0.00931,0.0,0.00723,0.5948,0.5948,0.5948,,0.67,,False,0.0,0.0,0.0,0.0,0.0,-1.9209,-13.7139,0.0042,True,False,Mode(963497464),0.5754,14,0.5941
0.748,THRUST_SEARCH,OPEN_LOOP,0.0075,0.00747,0.00866,0.00866,0.0,0.00769,0.595,0.595,0.595,,0.67,,False,0.0,0.0,0.0,0.0,0.0,-1.9209,-13.5736,0.0069,True,False,Mode(963497464),0.5863,14,0.5941
0.76,THRUST_SEARCH,OPEN_LOOP,0.0076,0.00759,0.00794,0.00794,0.0,0.00783,0.5952,0.5952,0.5952,,0.67,,False,0.0,0.0,0.0,0.0,0.0,-1.9209,-13.4689,0.0031,True,True,Mode(963497464),0.5974,14,0.5941
0.77,THRUST_SEARCH,OPEN_LOOP,0.0077,0.00774,0.00835,0.00835,0.0,0.00807,0.5954,0.5954,0.5954,,0.67,,False,0.0,0.0,0.0,0.0,0.0,-1.9209,-13.6504,0.005,True,False,Mode(963497464),0.6082,15,0.5952
0.781,THRUST_SEARCH,OPEN_LOOP,0.0079,0.00786,0.0083,0.0083,0.0,0.00824,0.5956,0.5956,0.5956,,0.67,,False,0.0,0.0,0.0,0.0,0.0,-1.9209,-13.9974,0.0066,True,False,Mode(963497464),0.6188,15,0.5952
0.792,THRUST_SEARCH,OPEN_LOOP,0.0079,0.00791,0.00745,0.00791,0.0,0.00806,0.5958,0.5958,0.5958,,0.67,,False,0.0,0.0,0.0,0.0,0.0,-1.9209,-14.306,0.009,True,False,Mode(963497464),0.6298,15,0.5952
0.803,THRUST_SEARCH,OPEN_LOOP,0.0078,0.00781,0.00587,0.00781,0.0,0.0073,0.5961,0.5961,0.5961,,0.67,,False,0.0,0.0,0.0,0.0,0.0,-1.9209,-14.8902,0.005,True,False,Mode(963497464),0.6408,15,0.5952
0.814,THRUST_SEARCH,OPEN_LOOP,0.0078,0.00778,0.00663,0.00778,0.0,0.00685,0.5963,0.5963,0.5963,,0.67,,False,0.0,0.0,0.0,0.0,0.0,-1.9209,-15.0649,0.007,True,True,Mode(963497464),0.6518,15,0.5952
0.825,THRUST_SEARCH,OPEN_LOOP,0.0076,0.00756,0.00435,0.00756,0.0,0.00559,0.5965,0.5965,0.5965,,0.67,,False,0.0,0.0,0.0,0.0,0.0,-1.9209,-15.2538,0.009,True,False,Mode(963497464),0.6627,16,0.5963
0.835,THRUST_SEARCH,OPEN_LOOP,0.0073,0.00729,0.00387,0.00729,0.0,0.00426,0.5967,0.5967,0.5967,,0.67,,False,0.0,0.0,0.0,0.0,0.0,-1.9209,-15.8416,0.0045,True,False,Mode(963497464),0.6732,16,0.5963
0.847,THRUST_SEARCH,OPEN_LOOP,0.0071,0.00712,0.00476,0.00712,0.0,0.00333,0.5969,0.5969,0.5969,,0.67,,False,0.0,0.0,0.0,0.0,0.0,-1.9209,-16.1676,0.0074,True,False,Mode(963497464),0.6846,16,0.5963
0.858,THRUST_SEARCH,OPEN_LOOP,0.007,0.00701,0.00551,0.00701,0.0,0.00274,0.5972,0.5972,0.5972,,0.67,,False,0.0,0.0,0.0,0.0,0.0,-1.9209,-16.7858,0.001,True,False,Mode(963497464),0.6956,16,0.5963
0.869,THRUST_SEARCH,OPEN_LOOP,0.0069,0.00686,0.00494,0.00686,0.0,0.00199,0.5974,0.5974,0.5974,,0.67,,False,0.0,0.0,0.0,0.0,0.0,-1.9209,-17.1688,0.003,True,True,Mode(963497464),0.7066,16,0.5963
0.88,THRUST_SEARCH,OPEN_LOOP,0.0067,0.0067,0.00482,0.0067,0.0,0.00125,0.5976,0.5976,0.5976,,0.67,,False,0.0,0.0,0.0,0.0,0.0,-1.9209,-17.4137,0.005,True,False,Mode(963497464),0.7175,17,0.5974
0.89,THRUST_SEARCH,OPEN_LOOP,0.0065,0.00652,0.00443,0.00652,0.0,0.00043,0.5978,0.5978,0.5978,,0.67,,False,0.0,0.0,0.0,0.0,0.0,-1.9209,-17.4756,0.001,True,False,Mode(963497464),0.7282,17,0.5974
0.901,THRUST_SEARCH,OPEN_LOOP,0.0064,0.00639,0.00495,0.00639,0.0,-0.00013,0.598,0.598,0.598,,0.67,,False,0.0,0.0,0.0,0.0,0.0,-1.9209,-17.3816,0.003,True,False,Mode(963497464),0.7392,17,0.5974
0.912,THRUST_SEARCH,OPEN_LOOP,0.0062,0.00622,0.00442,0.00622,0.0,-0.00084,0.5982,0.5982,0.5982,,0.67,,False,0.0,0.0,0.0,0.0,0.0,-1.9209,-17.389,0.0045,True,False,Mode(963497464),0.7497,17,0.5974
0.922,THRUST_SEARCH,OPEN_LOOP,0.0061,0.00612,0.00518,0.00612,0.0,-0.0012,0.5984,0.5984,0.5984,,0.67,,False,0.0,0.0,0.0,0.0,0.0,-1.9209,-17.639,0.0067,True,True,Mode(963497464),0.7603,17,0.5974
0.933,THRUST_SEARCH,OPEN_LOOP,0.0061,0.00614,0.00655,0.00655,0.0,-0.00105,0.5987,0.5987,0.5987,,0.67,,False,0.0,0.0,0.0,0.0,0.0,-1.9209,-18.0261,0.009,True,False,Mode(963497464),0.7713,18,0.5984
0.944,THRUST_SEARCH,OPEN_LOOP,0.0062,0.0062,0.00694,0.00694,0.0,-0.00076,0.5989,0.5989,0.5989,,0.67,,False,0.0,0.0,0.0,0.0,0.0,-1.9209,-18.7303,0.0045,True,False,Mode(963497464),0.7818,18,0.5984
0.955,THRUST_SEARCH,OPEN_LOOP,0.0063,0.00626,0.00691,0.00691,0.0,-0.00051,0.5991,0.5991,0.5991,,0.67,,False,0.0,0.0,0.0,0.0,0.0,-1.9209,-18.8122,0.0066,True,False,Mode(963497464),0.7924,18,0.5984
0.966,THRUST_SEARCH,OPEN_LOOP,0.0063,0.00632,0.00712,0.00712,0.0,-0.0002,0.5993,0.5993,0.5993,,0.67,,False,0.0,0.0,0.0,0.0,0.0,-1.9209,-18.794,0.009,True,False,Mode(963497464),0.8034,18,0.5984
0.976,THRUST_SEARCH,OPEN_LOOP,0.0063,0.0063,0.00602,0.0063,0.0,-0.0003,0.5995,0.5995,0.5995,,0.67,,False,0.0,0.0,0.0,0.0,0.0,-1.9209,-18.8025,0.0015,True,True,Mode(963497464),0.8138,18,0.5984
0.987,THRUST_SEARCH,OPEN_LOOP,0.0063,0.00627,0.00601,0.00627,0.0,-0.0004,0.5997,0.5997,0.5997,,0.67,,False,0.0,0.0,0.0,0.0,0.0,-1.9209,-19.0114,0.006,True,False,Mode(963497464),0.8248,19,0.5995
0.998,THRUST_SEARCH,OPEN_LOOP,0.0063,0.00627,0.00627,0.00627,0.0,-0.0004,0.6,0.6,0.6,,0.67,,False,0.0,0.0,0.0,0.0,0.0,-1.9209,-19.0683,0.0079,True,False,Mode(963497464),0.8358,19,0.5995
1.01,THRUST_SEARCH,OPEN_LOOP,0.0063,0.00632,0.0069,0.0069,0.0,-0.00017,0.6002,0.6002,0.6002,,0.67,,False,0.0,0.0,0.0,0.0,0.0,-1.9209,-18.8502,0.0015,True,False,Mode(963497464),0.8474,19,0.5995
1.021,THRUST_SEARCH,OPEN_LOOP,0.0064,0.00637,0.00696,0.00696,0.0,6e-05,0.6004,0.6004,0.6004,,0.67,,False,0.0,0.0,0.0,0.0,0.0,-1.9209,-18.8179,0.006,True,False,Mode(963497464),0.8584,19,0.5995
1.031,THRUST_SEARCH,OPEN_LOOP,0.0064,0.00641,0.00686,0.00686,0.0,0.00023,0.6006,0.6006,0.6006,,0.67,,False,0.0,0.0,0.0,0.0,0.0,-1.9209,-18.8652,0.008,True,True,Mode(963497464),0.8693,19,0.5995
1.043,THRUST_SEARCH,OPEN_LOOP,0.0064,0.00644,0.00674,0.00674,0.0,0.00035,0.6009,0.6009,0.6009,,0.67,,False,0.0,0.0,0.0,0.0,0.0,-1.9209,-19.3567,0.001,True,False,Mode(963497464),0.8804,20,0.6006
1.054,THRUST_SEARCH,OPEN_LOOP,0.0064,0.00637,0.0055,0.00637,0.0,1e-05,0.6011,0.6011,0.6011,,0.67,,False,0.0,0.0,0.0,0.0,0.0,-1.9209,-19.765,0.003,True,False,Mode(963497464),0.8914,20,0.6006
1.065,THRUST_SEARCH,OPEN_LOOP,0.0062,0.00624,0.00486,0.00624,0.0,-0.00053,0.6013,0.6013,0.6013,,0.67,,False,0.0,0.0,0.0,0.0,0.0,-1.9209,-20.1729,0.008,True,False,Mode(963497464),0.9024,20,0.6006
1.075,THRUST_SEARCH,OPEN_LOOP,0.0061,0.00612,0.00498,0.00612,0.0,-0.00098,0.6015,0.6015,0.6015,,0.67,,False,0.0,0.0,0.0,0.0,0.0,-1.9209,-21.0462,0.001,True,False,Mode(963497464),0.913,20,0.6006
1.087,THRUST_SEARCH,OPEN_LOOP,0.006,0.00602,0.00507,0.00602,0.0,-0.00135,0.6017,0.6017,0.6017,,0.67,,False,0.0,0.0,0.0,0.0,0.0,-1.9209,-21.4656,0.003,True,True,Mode(963497464),0.0,20,0.6006
1.097,THRUST_SEARCH,OPEN_LOOP,0.0059,0.0059,0.00482,0.0059,0.0,-0.00177,0.6019,0.6019,0.6019,,0.67,,False,0.0,0.0,0.0,0.0,0.0,-1.9209,-21.7931,0.0045,True,False,Mode(963497464),0.0105,21,0.6017
1.108,THRUST_SEARCH,OPEN_LOOP,0.0057,0.00568,0.00346,0.00568,0.0,-0.00264,0.6022,0.6022,0.6022,,0.67,,False,0.0,0.0,0.0,0.0,0.0,-1.9209,-22.1398,0.001,True,False,Mode(963497464),0.0214,21,0.6017
1.119,THRUST_SEARCH,OPEN_LOOP,0.0054,0.00542,0.00296,0.00542,0.0,-0.0036,0.6024,0.6024,0.6024,,0.67,,False,0.0,0.0,0.0,0.0,0.0,-1.9209,-22.2283,0.003,True,False,Mode(963497464),0.0324,21,0.6017
1.13,THRUST_SEARCH,OPEN_LOOP,0.0051,0.00512,0.00238,0.00512,0.0,-0.00467,0.6026,0.6026,0.6026,,0.67,,False,0.0,0.0,0.0,0.0,0.0,-1.9209,-22.3478,0.0055,True,False,Mode(963497464),0.0432,21,0.6017
1.14,THRUST_SEARCH,OPEN_LOOP,0.0049,0.00491,0.00326,0.00491,0.0,-0.00531,0.6028,0.6028,0.6028,,0.67,,False,0.0,0.0,0.0,0.0,0.0,-1.9209,-22.514,0.008,True,True,Mode(963497464),0.0542,21,0.6017
1.151,THRUST_SEARCH,OPEN_LOOP,0.0049,0.00492,0.0056,0.0056,0.0,-0.00505,0.603,0.603,0.603,,0.67,,False,0.0,0.0,0.0,0.0,0.0,-1.9209,-22.5938,0.001,True,False,Mode(963497464),0.0651,22,0.6028
1.162,THRUST_SEARCH,OPEN_LOOP,0.0051,0.00507,0.00723,0.00723,0.0,-0.0042,0.6032,0.6032,0.6032,,0.67,,False,0.0,0.0,0.0,0.0,0.0,-1.9209,-22.5553,0.006,True,False,Mode(963497464),0.0761,22,0.6028
1.173,THRUST_SEARCH,OPEN_LOOP,0.0053,0.00529,0.00811,0.00811,0.0,-0.00309,0.6035,0.6035,0.6035,,0.67,,False,0.0,0.0,0.0,0.0,0.0,-1.9209,-22.4331,0.008,True,False,Mode(963497464),0.0871,22,0.6028
1.184,THRUST_SEARCH,OPEN_LOOP,0.0056,0.00556,0.00874,0.00874,0.0,-0.00185,0.6037,0.6037,0.6037,,0.67,,False,0.0,0.0,0.0,0.0,0.0,-1.9209,-22.2372,0.0006,True,False,Mode(963497464),0.0976,22,0.6028
1.195,THRUST_SEARCH,OPEN_LOOP,0.0059,0.00588,0.00949,0.00949,0.0,-0.00044,0.6039,0.6039,0.6039,,0.67,,False,0.0,0.0,0.0,0.0,0.0,-1.9209,-22.1998,0.003,True,True,Mode(963497464),0.1086,22,0.6028
1.206,THRUST_SEARCH,OPEN_LOOP,0.0063,0.00626,0.01037,0.01037,0.0,0.00117,0.6041,0.6041,0.6041,,0.67,,False,0.0,0.0,0.0,0.0,0.0,-1.9209,-22.2735,0.008,True,False,Mode(963497464),0.1196,23,0.6039
1.216,THRUST_SEARCH,OPEN_LOOP,0.0067,0.00674,0.01176,0.01176,0.0,0.00313,0.6043,0.6043,0.6043,,0.67,,False,0.0,0.0,0.0,0.0,0.0,-1.9209,-22.3658,0.001,True,False,Mode(963497464),0.1303,23,0.6039
1.227,THRUST_SEARCH,OPEN_LOOP,0.0073,0.00726,0.01233,0.01233,0.0,0.00511,0.6045,0.6045,0.6045,,0.67,,False,0.0,0.0,0.0,0.0,0.0,-1.9209,-22.4452,0.003,True,False,Mode(963497464),0.1413,23,0.6039
1.238,THRUST_SEARCH,OPEN_LOOP,0.0078,0.00781,0.01306,0.01306,0.0,0.00715,0.6048,0.6048,0.6048,,0.67,,False,0.0,0.0,0.0,0.0,0.0,-1.9209,-22.5417,0.0045,True,False,Mode(963497464),0.1518,23,0.6039
1.249,THRUST_SEARCH,OPEN_LOOP,0.0083,0.00833,0.01308,0.01308,0.0,0.009,0.605,0.605,0.605,,0.67,,False,0.0,0.0,0.0,0.0,0.0,-1.9209,-22.6624,0.0009,True,True,Mode(963497464),0.1626,23,0.6039
1.259,THRUST_SEARCH,OPEN_LOOP,0.0088,0.00877,0.01244,0.01244,0.0,0.01043,0.6052,0.6052,0.6052,,0.67,,False,0.0,0.0,0.0,0.0,0.0,-1.9209,-22.7329,0.003,True,False,Mode(963497464),0.1733,24,0.605
1.27,THRUST_SEARCH,OPEN_LOOP,0.0092,0.00921,0.01265,0.01265,0.0,0.01177,0.6054,0.6054,0.6054,,0.67,,False,0.0,0.0,0.0,0.0,0.0,-1.9209,-22.8707,0.005,True,False,Mode(963497464),0.1843,24,0.605
1.281,THRUST_SEARCH,OPEN_LOOP,0.0096,0.00964,0.01284,0.01284,0.0,0.01302,0.6056,0.6056,0.6056,,0.67,,False,0.0,0.0,0.0,0.0,0.0,-1.9209,-23.1031,0.0067,True,False,Mode(963497464),0.195,24,0.605
1.293,THRUST_SEARCH,OPEN_LOOP,0.01,0.01001,0.01243,0.01243,0.0,0.01396,0.6059,0.6059,0.6059,,0.67,,False,0.0,0.0,0.0,0.0,0.0,-1.9209,-23.516,0.0006,True,False,Mode(963497464),0.2066,24,0.605
1.303,THRUST_SEARCH,OPEN_LOOP,0.0104,0.01038,0.01273,0.01273,0.0,0.01487,0.6061,0.6061,0.6061,,0.67,,False,0.0,0.0,0.0,0.0,0.0,-1.9209,-23.6178,0.005,True,True,Mode(963497464),0.2169,24,0.605
1.314,THRUST_SEARCH,OPEN_LOOP,0.0108,0.01077,0.01312,0.01312,0.0,0.01579,0.6063,0.6063,0.6063,,0.67,,False,0.0,0.0,0.0,0.0,0.0,-1.9209,-23.7087,0.0066,True,False,Mode(963497464),0.2281,25,0.6061
1.325,THRUST_SEARCH,OPEN_LOOP,0.011,0.01101,0.01179,0.01179,0.0,0.0161,0.6065,0.6065,0.6065,,0.67,,False,0.0,0.0,0.0,0.0,0.0,-1.9209,-23.8312,0.0,True,False,Mode(963497464),0.239,25,0.6061
1.336,THRUST_SEARCH,OPEN_LOOP,0.0112,0.01118,0.01113,0.01118,0.0,0.01607,0.6067,0.6067,0.6067,,0.67,,False,0.0,0.0,0.0,0.0,0.0,-1.9209,-23.9442,0.005,True,False,Mode(963497464),0.25,25,0.6061
1.347,THRUST_SEARCH,OPEN_LOOP,0.0113,0.01129,0.01059,0.01129,0.0,0.0158,0.6069,0.6069,0.6069,,0.67,,False,0.0,0.0,0.0,0.0,0.0,-1.9209,-24.1825,0.0065,True,False,Mode(963497464),0.2609,25,0.6061
1.359,THRUST_SEARCH,OPEN_LOOP,0.0114,0.01136,0.01019,0.01136,0.0,0.01534,0.6072,0.6072,0.6072,,0.67,,False,0.0,0.0,0.0,0.0,0.0,-1.9209,-24.6296,0.0005,True,True,Mode(963497464),0.2724,25,0.6061
1.369,THRUST_SEARCH,OPEN_LOOP,0.0113,0.01132,0.00916,0.01132,0.0,0.01449,0.6074,0.6074,0.6074,,0.67,,False,0.0,0.0,0.0,0.0,0.0,-1.9209,-24.6231,0.002,True,False,Mode(963497464),0.2828,26,0.6072
1.38,THRUST_SEARCH,OPEN_LOOP,0.0114,0.01136,0.01011,0.01136,0.0,0.014,0.6076,0.6076,0.6076,,0.67,,False,0.0,0.0,0.0,0.0,0.0,-1.9209,-24.5359,0.0073,True,False,Mode(963497464),0.2941,26,0.6072
1.391,THRUST_SEARCH,OPEN_LOOP,0.0113,0.01133,0.00936,0.01133,0.0,0.01323,0.6078,0.6078,0.6078,,0.67,,False,0.0,0.0,0.0,0.0,0.0,-1.9209,-24.1552,0.001,True,False,Mode(963497464),0.3051,26,0.6072
1.402,THRUST_SEARCH,OPEN_LOOP,0.0113,0.01125,0.00888,0.01125,0.0,0.0123,0.608,0.608,0.608,,0.67,,False,0.0,0.0,0.0,0.0,0.0,-1.9209,-24.1058,0.003,True,False,Mode(963497464),0.316,26,0.6072
1.413,THRUST_SEARCH,OPEN_LOOP,0.0111,0.01113,0.00839,0.01113,0.0,0.01122,0.6083,0.6083,0.6083,,0.67,,False,0.0,0.0,0.0,0.0,0.0,-1.9209,-24.2701,0.005,True,True,Mode(963497464),0.327,26,0.6072
1.424,THRUST_SEARCH,OPEN_LOOP,0.011,0.01103,0.00871,0.01103,0.0,0.01031,0.6085,0.6085,0.6085,,0.67,,False,0.0,0.0,0.0,0.0,0.0,-1.9209,-24.8654,0.001,True,False,Mode(963497464),0.3379,27,0.6083
1.435,THRUST_SEARCH,OPEN_LOOP,0.0109,0.01094,0.00891,0.01094,0.0,0.00951,0.6087,0.6087,0.6087,,0.67,,False,0.0,0.0,0.0,0.0,0.0,-1.9209,-25.119,0.0031,True,False,Mode(963497464),0.3485,27,0.6083
1.445,THRUST_SEARCH,OPEN_LOOP,0.0108,0.0108,0.00821,0.0108,0.0,0.0085,0.6089,0.6089,0.6089,,0.67,,False,0.0,0.0,0.0,0.0,0.0,-1.9209,-25.2268,0.005,True,False,Mode(963497464),0.3594,27,0.6083
1.456,THRUST_SEARCH,OPEN_LOOP,0.0107,0.01072,0.00888,0.01072,0.0,0.00778,0.6091,0.6091,0.6091,,0.67,,False,0.0,0.0,0.0,0.0,0.0,-1.9209,-25.2746,0.0069,True,False,Mode(963497464),0.3702,27,0.6083
1.467,THRUST_SEARCH,OPEN_LOOP,0.0107,0.01066,0.00915,0.01066,0.0,0.00719,0.6093,0.6093,0.6093,,0.67,,False,0.0,0.0,0.0,0.0,0.0,-1.9209,-25.41,0.003,True,True,Mode(963497464),0.3812,27,0.6083
1.478,THRUST_SEARCH,OPEN_LOOP,0.0105,0.01052,0.00819,0.01052,0.0,0.00627,0.6096,0.6096,0.6096,,0.67,,False,0.0,0.0,0.0,0.0,0.0,-1.9209,-25.6664,0.005,True,False,Mode(963497464),0.3922,28,0.6093
1.489,THRUST_SEARCH,OPEN_LOOP,0.0104,0.0104,0.00838,0.0104,0.0,0.00548,0.6098,0.6098,0.6098,,0.67,,False,0.0,0.0,0.0,0.0,0.0,-1.9209,-26.0345,0.007,True,False,Mode(963497464),0.4032,28,0.6093
1.501,THRUST_SEARCH,OPEN_LOOP,0.0102,0.01021,0.00754,0.01021,0.0,0.00443,0.61,0.61,0.61,,0.67,,False,0.0,0.0,0.0,0.0,0.0,-1.9209,-27.2467,0.001,True,False,Mode(963497464),0.4146,28,0.6093
1.512,THRUST_SEARCH,OPEN_LOOP,0.0101,0.0101,0.00847,0.0101,0.0,0.00379,0.6102,0.6102,0.6102,,0.67,,False,0.0,0.0,0.0,0.0,0.0,-1.9209,-27.8801,0.003,True,False,Mode(963497464),0.4256,28,0.6093
1.523,THRUST_SEARCH,OPEN_LOOP,0.0099,0.00988,0.00707,0.00988,0.0,0.00268,0.6105,0.6105,0.6105,,0.67,,False,0.0,0.0,0.0,0.0,0.0,-1.9209,-28.3692,0.008,True,True,Mode(963497464),0.4366,28,0.6093
1.534,THRUST_SEARCH,OPEN_LOOP,0.0097,0.00968,0.00725,0.00968,0.0,0.00173,0.6107,0.6107,0.6107,,0.67,,False,0.0,0.0,0.0,0.0,0.0,-1.9209,-28.8838,0.001,True,False,Mode(963497464),0.4476,29,0.6105
1.545,THRUST_SEARCH,OPEN_LOOP,0.0095,0.0095,0.0074,0.0095,0.0,0.0009,0.6109,0.6109,0.6109,,0.67,,False,0.0,0.0,0.0,0.0,0.0,-1.9209,-29.0548,0.003,True,False,Mode(963497464),0.4585,29,0.6105
1.556,THRUST_SEARCH,OPEN_LOOP,0.0093,0.00927,0.00675,0.00927,0.0,-9e-05,0.6111,0.6111,0.6111,,0.67,,False,0.0,0.0,0.0,0.0,0.0,-1.9209,-29.1587,0.008,True,False,Mode(963497464),0.4695,29,0.6105
1.567,THRUST_SEARCH,OPEN_LOOP,0.009,0.00899,0.00608,0.00899,0.0,-0.00123,0.6113,0.6113,0.6113,,0.67,,False,0.0,0.0,0.0,0.0,0.0,-1.9209,-29.4784,0.001,True,False,Mode(963497464),0.4805,29,0.6105
1.578,THRUST_SEARCH,OPEN_LOOP,0.0088,0.00875,0.00642,0.00875,0.0,-0.00215,0.6116,0.6116,0.6116,,0.67,,False,0.0,0.0,0.0,0.0,0.0,-1.9209,-29.6997,0.003,True,True,Mode(963497464),0.4914,29,0.6105
1.589,THRUST_SEARCH,OPEN_LOOP,0.0086,0.00859,0.00709,0.00859,0.0,-0.00274,0.6118,0.6118,0.6118,,0.67,,False,0.0,0.0,0.0,0.0,0.0,-1.9209,-29.8447,0.005,True,False,Mode(963497464),0.5024,30,0.6116
1.599,THRUST_SEARCH,OPEN_LOOP,0.0083,0.00831,0.0057,0.00831,0.0,-0.00377,0.612,0.612,0.612,,0.67,,False,0.0,0.0,0.0,0.0,0.0,-1.9209,-30.0497,0.0006,True,False,Mode(963497464),0.5129,30,0.6116
1.61,THRUST_SEARCH,OPEN_LOOP,0.0081,0.0081,0.00632,0.0081,0.0,-0.00447,0.6122,0.6122,0.6122,,0.67,,False,0.0,0.0,0.0,0.0,0.0,-1.9209,-30.1276,0.002,True,False,Mode(963497464),0.5239,30,0.6116
1.621,THRUST_SEARCH,OPEN_LOOP,0.0079,0.00788,0.00603,0.00788,0.0,-0.00519,0.6124,0.6124,0.6124,,0.67,,False,0.0,0.0,0.0,0.0,0.0,-1.9209,-30.2284,0.0036,True,False,Mode(963497464),0.5344,30,0.6116
1.632,THRUST_SEARCH,OPEN_LOOP,0.0076,0.00762,0.00546,0.00762,0.0,-0.00603,0.6126,0.6126,0.6126,,0.67,,False,0.0,0.0,0.0,0.0,0.0,-1.9209,-30.404,0.006,True,True,Mode(963497464),0.5454,30,0.6116
1.642,THRUST_SEARCH,OPEN_LOOP,0.0075,0.00746,0.0064,0.00746,0.0,-0.00644,0.6128,0.6128,0.6128,,0.67,,False,0.0,0.0,0.0,0.0,0.0,-1.9209,-30.7347,0.0015,True,False,Mode(963497464),0.5559,31,0.6126
1.653,THRUST_SEARCH,OPEN_LOOP,0.0074,0.00736,0.00704,0.00736,0.0,-0.00657,0.6131,0.6131,0.6131,,0.67,,False,0.0,0.0,0.0,0.0,0.0,-1.9209,-30.8784,0.003,True,False,Mode(963497464),0.5669,31,0.6126
1.664,THRUST_SEARCH,OPEN_LOOP,0.0074,0.00743,0.00897,0.00897,0.0,-0.00597,0.6133,0.6133,0.6133,,0.67,,False,0.0,0.0,0.0,0.0,0.0,-1.9209,-31.0067,0.005,True,False,Mode(963497464),0.5778,31,0.6126
1.675,THRUST_SEARCH,OPEN_LOOP,0.0076,0.0076,0.01011,0.01011,0.0,-0.00499,0.6135,0.6135,0.6135,,0.67,,False,0.0,0.0,0.0,0.0,0.0,-1.9209,-31.0969,0.0012,True,False,Mode(963497464),0.5889,31,0.6126
1.686,THRUST_SEARCH,OPEN_LOOP,0.0079,0.00786,0.0112,0.0112,0.0,-0.00368,0.6137,0.6137,0.6137,,0.67,,False,0.0,0.0,0.0,0.0,0.0,-1.9209,-31.1431,0.003,True,True,Mode(963497464),0.5999,31,0.6126
1.697,THRUST_SEARCH,OPEN_LOOP,0.0082,0.00823,0.01254,0.01254,0.0,-0.00199,0.6139,0.6139,0.6139,,0.67,,False,0.0,0.0,0.0,0.0,0.0,-1.9209,-31.2405,0.005,True,False,Mode(963497464),0.6108,32,0.6137
1.708,THRUST_SEARCH,OPEN_LOOP,0.0086,0.00864,0.01326,0.01326,0.0,-0.00018,0.6142,0.6142,0.6142,,0.67,,False,0.0,0.0,0.0,0.0,0.0,-1.9209,-31.5352,0.0008,True,False,Mode(963497464),0.6216,32,0.6137
1.719,THRUST_SEARCH,OPEN_LOOP,0.0091,0.00913,0.01429,0.01429,0.0,0.00184,0.6144,0.6144,0.6144,,0.67,,False,0.0,0.0,0.0,0.0,0.0,-1.9209,-31.7615,0.0031,True,False,Mode(963497464),0.6327,32,0.6137
1.729,THRUST_SEARCH,OPEN_LOOP,0.0096,0.00958,0.01422,0.01422,0.0,0.00364,0.6146,0.6146,0.6146,,0.67,,False,0.0,0.0,0.0,0.0,0.0,-1.9209,-31.9804,0.0045,True,False,Mode(963497464),0.6431,32,0.6137
1.74,THRUST_SEARCH,OPEN_LOOP,0.0101,0.01009,0.01499,0.01499,0.0,0.00556,0.6148,0.6148,0.6148,,0.67,,False,0.0,0.0,0.0,0.0,0.0,-1.9209,-32.0936,0.007,True,True,Mode(963497464),0.6541,32,0.6137
1.751,THRUST_SEARCH,OPEN_LOOP,0.0105,0.01055,0.01479,0.01479,0.0,0.00722,0.615,0.615,0.615,,0.67,,False,0.0,0.0,0.0,0.0,0.0,-1.9209,-32.1336,0.003,True,False,Mode(963497464),0.665,33,0.6148
1.762,THRUST_SEARCH,OPEN_LOOP,0.011,0.011,0.01504,0.01504,0.0,0.00879,0.6152,0.6152,0.6152,,0.67,,False,0.0,0.0,0.0,0.0,0.0,-1.9209,-32.0589,0.0045,True,False,Mode(963497464),0.6755,33,0.6148
1.772,THRUST_SEARCH,OPEN_LOOP,0.0114,0.01143,0.01492,0.01492,0.0,0.01014,0.6154,0.6154,0.6154,,0.67,,False,0.0,0.0,0.0,0.0,0.0,-1.9209,-32.0524,0.0067,True,False,Mode(963497464),0.6862,33,0.6148
1.783,THRUST_SEARCH,OPEN_LOOP,0.0118,0.01182,0.01479,0.01479,0.0,0.0113,0.6157,0.6157,0.6157,,0.67,,False,0.0,0.0,0.0,0.0,0.0,-1.9209,-32.1677,0.009,True,False,Mode(963497464),0.6971,33,0.6148
1.794,THRUST_SEARCH,OPEN_LOOP,0.0122,0.0122,0.01505,0.01505,0.0,0.01241,0.6159,0.6159,0.6159,,0.67,,False,0.0,0.0,0.0,0.0,0.0,-1.9209,-32.512,0.0015,True,True,Mode(963497464),0.7076,33,0.6148
1.805,THRUST_SEARCH,OPEN_LOOP,0.0126,0.01259,0.01529,0.01529,0.0,0.01346,0.6161,0.6161,0.6161,,0.67,,False,0.0,0.0,0.0,0.0,0.0,-1.9209,-32.7591,0.004,True,False,Mode(963497464),0.7186,34,0.6159
1.816,THRUST_SEARCH,OPEN_LOOP,0.013,0.01299,0.0157,0.0157,0.0,0.01451,0.6163,0.6163,0.6163,,0.67,,False,0.0,0.0,0.0,0.0,0.0,-1.9209,-33.0046,0.009,True,False,Mode(963497464),0.7296,34,0.6159
1.827,THRUST_SEARCH,OPEN_LOOP,0.0132,0.01324,0.01423,0.01423,0.0,0.01489,0.6165,0.6165,0.6165,,0.67,,False,0.0,0.0,0.0,0.0,0.0,-1.9209,-33.4342,0.002,True,False,Mode(963497464),0.7405,34,0.6159
1.838,THRUST_SEARCH,OPEN_LOOP,0.0134,0.01343,0.0137,0.0137,0.0,0.01499,0.6168,0.6168,0.6168,,0.67,,False,0.0,0.0,0.0,0.0,0.0,-1.9209,-33.6457,0.004,True,False,Mode(963497464),0.7515,34,0.6159
1.85,THRUST_SEARCH,OPEN_LOOP,0.0135,0.01355,0.013,0.01355,0.0,0.01478,0.617,0.617,0.617,,0.67,,False,0.0,0.0,0.0,0.0,0.0,-1.9209,-33.9426,0.009,True,True,Mode(963497464),0.7625,34,0.6159
1.859,THRUST_SEARCH,OPEN_LOOP,0.0135,0.01354,0.01177,0.01354,0.0,0.0141,0.6172,0.6172,0.6172,,0.67,,False,0.0,0.0,0.0,0.0,0.0,-1.9209,-34.8054,0.0015,True,False,Mode(963497464),0.773,35,0.617
1.87,THRUST_SEARCH,OPEN_LOOP,0.0134,0.01341,0.01043,0.01341,0.0,0.01294,0.6174,0.6174,0.6174,,0.67,,False,0.0,0.0,0.0,0.0,0.0,-1.9209,-35.2509,0.003,True,False,Mode(963497464),0.7839,35,0.617
1.881,THRUST_SEARCH,OPEN_LOOP,0.0133,0.01327,0.01029,0.01327,0.0,0.01178,0.6176,0.6176,0.6176,,0.67,,False,0.0,0.0,0.0,0.0,0.0,-1.9209,-35.71,0.0039,True,False,Mode(963497464),0.7948,35,0.617
1.892,THRUST_SEARCH,OPEN_LOOP,0.0131,0.01313,0.01023,0.01313,0.0,0.01065,0.6178,0.6178,0.6178,,0.67,,False,0.0,0.0,0.0,0.0,0.0,-1.9209,-36.1707,0.009,True,False,Mode(963497464),0.8058,35,0.617
1.904,THRUST_SEARCH,OPEN_LOOP,0.0129,0.01285,0.00869,0.01285,0.0,0.00902,0.6181,0.6181,0.6181,,0.67,,False,0.0,0.0,0.0,0.0,0.0,-1.9209,-36.8901,0.005,True,True,Mode(963497464),0.8168,35,0.617
1.914,THRUST_SEARCH,OPEN_LOOP,0.0127,0.01268,0.00979,0.01268,0.0,0.0079,0.6183,0.6183,0.6183,,0.67,,False,0.0,0.0,0.0,0.0,0.0,-1.9209,-37.2665,0.0067,True,False,Mode(963497464),0.8275,36,0.6181
1.925,THRUST_SEARCH,OPEN_LOOP,0.0124,0.01242,0.00878,0.01242,0.0,0.00648,0.6185,0.6185,0.6185,,0.67,,False,0.0,0.0,0.0,0.0,0.0,-1.9209,-37.5976,0.009,True,False,Mode(963497464),0.8384,36,0.6181
1.936,THRUST_SEARCH,OPEN_LOOP,0.0122,0.01218,0.00892,0.01218,0.0,0.00521,0.6187,0.6187,0.6187,,0.67,,False,0.0,0.0,0.0,0.0,0.0,-1.9209,-38.2007,0.002,True,False,Mode(963497464),0.8494,36,0.6181
1.946,THRUST_SEARCH,OPEN_LOOP,0.012,0.01199,0.00936,0.01199,0.0,0.00418,0.6189,0.6189,0.6189,,0.67,,False,0.0,0.0,0.0,0.0,0.0,-1.9209,-38.4944,0.004,True,False,Mode(963497464),0.86,36,0.6181
1.957,THRUST_SEARCH,OPEN_LOOP,0.0118,0.01184,0.00972,0.01184,0.0,0.00336,0.6191,0.6191,0.6191,,0.67,,False,0.0,0.0,0.0,0.0,0.0,-1.9209,-38.6561,0.009,True,True,Mode(963497464),0.8709,36,0.6181
1.968,THRUST_SEARCH,OPEN_LOOP,0.0119,0.01194,0.01266,0.01266,0.0,0.00364,0.6194,0.6194,0.6194,,0.67,,False,0.0,0.0,0.0,0.0,0.0,-1.9209,-38.7932,0.002,True,False,Mode(963497464),0.8819,37,0.6191
1.979,THRUST_SEARCH,OPEN_LOOP,0.012,0.01204,0.0126,0.0126,0.0,0.00386,0.6196,0.6196,0.6196,,0.67,,False,0.0,0.0,0.0,0.0,0.0,-1.9209,-38.791,0.004,True,False,Mode(963497464),0.8929,37,0.6191
1.99,THRUST_SEARCH,OPEN_LOOP,0.0123,0.0123,0.01465,0.01465,0.0,0.00477,0.6198,0.6198,0.6198,,0.67,,False,0.0,0.0,0.0,0.0,0.0,-1.9209,-38.8084,0.0005,True,False,Mode(963497464),0.9043,37,0.6191
2.0,THRUST_SEARCH,OPEN_LOOP,0.0126,0.01261,0.01534,0.01534,0.0,0.00584,0.62,0.62,0.62,,0.67,,False,0.0,0.0,0.0,0.0,0.0,-1.9209,-38.8155,0.0015,True,False,Mode(963497464),0.9143,37,0.6191
2.011,THRUST_SEARCH,OPEN_LOOP,0.013,0.01303,0.01683,0.01683,0.0,0.00732,0.6202,0.6202,0.6202,,0.67,,False,0.0,0.0,0.0,0.0,0.0,-1.9209,-38.8145,0.004,True,True,Mode(963497464),0.9253,37,0.6191
2.022,THRUST_SEARCH,OPEN_LOOP,0.0135,0.01347,0.01734,0.01734,0.0,0.00883,0.6204,0.6204,0.6204,,0.67,,False,0.0,0.0,0.0,0.0,0.0,-1.9209,-38.8881,0.006,True,False,Mode(963497464),0.0,38,0.6202
2.033,THRUST_SEARCH,OPEN_LOOP,0.014,0.01397,0.01823,0.01823,0.0,0.01049,0.6207,0.6207,0.6207,,0.67,,False,0.0,0.0,0.0,0.0,0.0,-1.9209,-39.0415,0.002,True,False,Mode(963497464),0.0109,38,0.6202
2.044,THRUST_SEARCH,OPEN_LOOP,0.0145,0.01449,0.0188,0.0188,0.0,0.01217,0.6209,0.6209,0.6209,,0.67,,False,0.0,0.0,0.0,0.0,0.0,-1.9209,-39.2448,0.004,True,False,Mode(963497464),0.0219,38,0.6202
2.055,THRUST_SEARCH,OPEN_LOOP,0.015,0.01498,0.01872,0.01872,0.0,0.01363,0.6211,0.6211,0.6211,,0.67,,False,0.0,0.0,0.0,0.0,0.0,-1.9209,-39.4721,0.006,True,False,Mode(963497464),0.0329,38,0.6202
2.066,THRUST_SEARCH,OPEN_LOOP,0.0155,0.01546,0.01892,0.01892,0.0,0.01499,0.6213,0.6213,0.6213,,0.67,,False,0.0,0.0,0.0,0.0,0.0,-1.9209,-40.0402,0.002,True,True,Mode(963497464),0.0439,38,0.6202
2.077,THRUST_SEARCH,OPEN_LOOP,0.016,0.01596,0.01957,0.01957,0.0,0.0164,0.6215,0.6215,0.6215,,0.67,,False,0.0,0.0,0.0,0.0,0.0,-1.9209,-40.4312,0.004,True,False,Mode(963497464),0.0548,39,0.6213
2.088,THRUST_SEARCH,OPEN_LOOP,0.0165,0.01651,0.02053,0.02053,0.0,0.01797,0.6218,0.6218,0.6218,,0.67,,False,0.0,0.0,0.0,0.0,0.0,-1.9209,-40.7932,0.006,True,False,Mode(963497464),0.0654,39,0.6213
2.099,THRUST_SEARCH,OPEN_LOOP,0.017,0.01699,0.01998,0.01998,0.0,0.01914,0.622,0.622,0.622,,0.67,,False,0.0,0.0,0.0,0.0,0.0,-1.9209,-41.2448,0.001,True,False,Mode(963497464),0.0763,39,0.6213
2.11,THRUST_SEARCH,OPEN_LOOP,0.0175,0.01747,0.02034,0.02034,0.0,0.02026,0.6222,0.6222,0.6222,,0.67,,False,0.0,0.0,0.0,0.0,0.0,-1.9209,-41.4409,0.003,True,False,Mode(963497464),0.0873,39,0.6213
2.121,THRUST_SEARCH,OPEN_LOOP,0.0179,0.01792,0.02024,0.02024,0.0,0.02116,0.6224,0.6224,0.6224,,0.67,,False,0.0,0.0,0.0,0.0,0.0,-1.9209,-41.7096,0.004,True,True,Mode(963497464),0.0983,39,0.6213
2.133,THRUST_SEARCH,OPEN_LOOP,0.0182,0.01819,0.01867,0.01867,0.0,0.02135,0.6226,0.6226,0.6226,,0.67,,False,0.0,0.0,0.0,0.0,0.0,-1.9209,-42.3879,0.0,True,False,Mode(963497464),0.1092,40,0.6224
2.142,THRUST_SEARCH,OPEN_LOOP,0.0185,0.01848,0.01917,0.01917,0.0,0.02162,0.6228,0.6228,0.6228,,0.67,,False,0.0,0.0,0.0,0.0,0.0,-1.9209,-42.8515,0.0015,True,False,Mode(963497464),0.1197,40,0.6224
2.153,THRUST_SEARCH,OPEN_LOOP,0.0187,0.01872,0.01869,0.01872,0.0,0.02161,0.6231,0.6231,0.6231,,0.67,,False,0.0,0.0,0.0,0.0,0.0,-1.9209,-43.396,0.003,True,False,Mode(963497464),0.1307,40,0.6224
2.164,THRUST_SEARCH,OPEN_LOOP,0.0189,0.01893,0.01882,0.01893,0.0,0.02157,0.6233,0.6233,0.6233,,0.67,,False,0.0,0.0,0.0,0.0,0.0,-1.9209,-43.882,0.0075,True,False,Mode(963497464),0.1412,40,0.6224
2.174,THRUST_SEARCH,OPEN_LOOP,0.019,0.01903,0.01759,0.01903,0.0,0.02101,0.6235,0.6235,0.6235,,0.67,,False,0.0,0.0,0.0,0.0,0.0,-1.9209,-44.4653,0.0,True,True,Mode(963497464),0.1517,40,0.6224
2.185,THRUST_SEARCH,OPEN_LOOP,0.0191,0.01914,0.01794,0.01914,0.0,0.02055,0.6237,0.6237,0.6237,,0.67,,False,0.0,0.0,0.0,0.0,0.0,-1.9209,-44.679,0.002,True,False,Mode(963497464),0.1627,41,0.6235
2.196,THRUST_SEARCH,OPEN_LOOP,0.0191,0.01915,0.01691,0.01915,0.0,0.01968,0.6239,0.6239,0.6239,,0.67,,False,0.0,0.0,0.0,0.0,0.0,-1.9209,-44.765,0.004,True,False,Mode(963497464),0.1732,41,0.6235
2.207,THRUST_SEARCH,OPEN_LOOP,0.019,0.019,0.0151,0.019,0.0,0.01816,0.6241,0.6241,0.6241,,0.67,,False,0.0,0.0,0.0,0.0,0.0,-1.9209,-45.0758,0.001,True,False,Mode(963497464),0.1845,41,0.6235
2.218,THRUST_SEARCH,OPEN_LOOP,0.0188,0.01878,0.01424,0.01878,0.0,0.01639,0.6244,0.6244,0.6244,,0.67,,False,0.0,0.0,0.0,0.0,0.0,-1.9209,-45.3248,0.003,True,False,Mode(963497464),0.1955,41,0.6235
2.228,THRUST_SEARCH,OPEN_LOOP,0.0185,0.01851,0.01377,0.01851,0.0,0.01455,0.6246,0.6246,0.6246,,0.67,,False,0.0,0.0,0.0,0.0,0.0,-1.9209,-45.6604,0.0045,True,True,Mode(963497464),0.206,41,0.6235
2.239,THRUST_SEARCH,OPEN_LOOP,0.0182,0.01817,0.01295,0.01817,0.0,0.01252,0.6248,0.6248,0.6248,,0.67,,False,0.0,0.0,0.0,0.0,0.0,-1.9209,-45.9977,0.0069,True,False,Mode(963497464),0.2169,42,0.6246
2.25,THRUST_SEARCH,OPEN_LOOP,0.0178,0.01776,0.0119,0.01776,0.0,0.01024,0.625,0.625,0.625,,0.67,,False,0.0,0.0,0.0,0.0,0.0,-1.9209,-46.2184,0.009,True,False,Mode(963497464),0.2279,42,0.6246
2.261,THRUST_SEARCH,OPEN_LOOP,0.0173,0.01732,0.01139,0.01732,0.0,0.00793,0.6252,0.6252,0.6252,,0.67,,False,0.0,0.0,0.0,0.0,0.0,-1.9209,-46.3301,0.005,True,False,Mode(963497464),0.2389,42,0.6246
2.272,THRUST_SEARCH,OPEN_LOOP,0.0167,0.01673,0.00958,0.01673,0.0,0.00515,0.6254,0.6254,0.6254,,0.67,,False,0.0,0.0,0.0,0.0,0.0,-1.9209,-46.3695,0.0066,True,False,Mode(963497464),0.2495,42,0.6246
2.283,THRUST_SEARCH,OPEN_LOOP,0.0162,0.01623,0.01035,0.01623,0.0,0.00287,0.6257,0.6257,0.6257,,0.67,,False,0.0,0.0,0.0,0.0,0.0,-1.9209,-46.9288,0.0002,True,True,Mode(963497464),0.2604,42,0.6246
2.294,THRUST_SEARCH,OPEN_LOOP,0.0156,0.01555,0.00799,0.01555,0.0,-7e-05,0.6259,0.6259,0.6259,,0.67,,False,0.0,0.0,0.0,0.0,0.0,-1.9209,-47.3761,0.002,True,False,Mode(963497464),0.2712,43,0.6257
2.305,THRUST_SEARCH,OPEN_LOOP,0.0151,0.0151,0.01026,0.0151,0.0,-0.00196,0.6261,0.6261,0.6261,,0.67,,False,0.0,0.0,0.0,0.0,0.0,-1.9209,-47.8087,0.0069,True,False,Mode(963497464),0.2821,43,0.6257
2.316,THRUST_SEARCH,OPEN_LOOP,0.0146,0.01463,0.00992,0.01463,0.0,-0.00379,0.6263,0.6263,0.6263,,0.67,,False,0.0,0.0,0.0,0.0,0.0,-1.9209,-48.5366,0.0007,True,False,Mode(963497464),0.2931,43,0.6257
2.327,THRUST_SEARCH,OPEN_LOOP,0.0141,0.01412,0.00915,0.01412,0.0,-0.00573,0.6265,0.6265,0.6265,,0.67,,False,0.0,0.0,0.0,0.0,0.0,-1.9209,-48.5196,0.003,True,False,Mode(963497464),0.3041,43,0.6257
2.338,THRUST_SEARCH,OPEN_LOOP,0.0138,0.0138,0.01109,0.0138,0.0,-0.00679,0.6268,0.6268,0.6268,,0.67,,False,0.0,0.0,0.0,0.0,0.0,-1.9209,-48.4602,0.005,True,True,Mode(963497464),0.3151,43,0.6257
2.349,THRUST_SEARCH,OPEN_LOOP,0.0134,0.01344,0.01043,0.01344,0.0,-0.00797,0.627,0.627,0.627,,0.67,,False,0.0,0.0,0.0,0.0,0.0,-1.9209,-48.4057,0.007,True,False,Mode(963497464),0.326,44,0.6268
2.359,THRUST_SEARCH,OPEN_LOOP,0.0132,0.01323,0.01186,0.01323,0.0,-0.0085,0.6272,0.6272,0.6272,,0.67,,False,0.0,0.0,0.0,0.0,0.0,-1.9209,-48.7945,0.0015,True,False,Mode(963497464),0.3365,44,0.6268
2.37,THRUST_SEARCH,OPEN_LOOP,0.0131,0.0131,0.0127,0.0131,0.0,-0.00866,0.6274,0.6274,0.6274,,0.67,,False,0.0,0.0,0.0,0.0,0.0,-1.9209,-49.2113,0.0039,True,False,Mode(963497464),0.3474,44,0.6268
2.381,THRUST_SEARCH,OPEN_LOOP,0.0132,0.01317,0.01485,0.01485,0.0,-0.008,0.6276,0.6276,0.6276,,0.67,,False,0.0,0.0,0.0,0.0,0.0,-1.9209,-49.6339,0.006,True,False,Mode(963497464),0.3584,44,0.6268
2.391,THRUST_SEARCH,OPEN_LOOP,0.0133,0.01332,0.01586,0.01586,0.0,-0.00701,0.6278,0.6278,0.6278,,0.67,,False,0.0,0.0,0.0,0.0,0.0,-1.9209,-50.2289,0.0015,True,True,Mode(963497464),0.3689,44,0.6268
2.402,THRUST_SEARCH,OPEN_LOOP,0.0134,0.01342,0.01529,0.01529,0.0,-0.00628,0.628,0.628,0.628,,0.67,,False,0.0,0.0,0.0,0.0,0.0,-1.9209,-50.3537,0.004,True,False,Mode(963497464),0.3798,45,0.6278
2.413,THRUST_SEARCH,OPEN_LOOP,0.0136,0.01357,0.01587,0.01587,0.0,-0.00539,0.6283,0.6283,0.6283,,0.67,,False,0.0,0.0,0.0,0.0,0.0,-1.9209,-50.461,0.006,True,False,Mode(963497464),0.3908,45,0.6278
2.424,THRUST_SEARCH,OPEN_LOOP,0.0137,0.01373,0.01607,0.01607,0.0,-0.00448,0.6285,0.6285,0.6285,,0.67,,False,0.0,0.0,0.0,0.0,0.0,-1.9209,-50.6157,0.0075,True,False,Mode(963497464),0.4013,45,0.6278
2.435,THRUST_SEARCH,OPEN_LOOP,0.0139,0.01389,0.01609,0.01609,0.0,-0.00362,0.6287,0.6287,0.6287,,0.67,,False,0.0,0.0,0.0,0.0,0.0,-1.9209,-51.2344,0.001,True,False,Mode(963497464),0.4123,45,0.6278
2.446,THRUST_SEARCH,OPEN_LOOP,0.014,0.01402,0.01586,0.01586,0.0,-0.00291,0.6289,0.6289,0.6289,,0.67,,False,0.0,0.0,0.0,0.0,0.0,-1.9209,-51.6958,0.006,True,True,Mode(963497464),0.4232,45,0.6278
2.457,THRUST_SEARCH,OPEN_LOOP,0.0142,0.01425,0.01698,0.01698,0.0,-0.00184,0.6291,0.6291,0.6291,,0.67,,False,0.0,0.0,0.0,0.0,0.0,-1.9209,-52.128,0.008,True,False,Mode(963497464),0.4342,46,0.6289
2.467,THRUST_SEARCH,OPEN_LOOP,0.0144,0.01442,0.01652,0.01652,0.0,-0.00103,0.6293,0.6293,0.6293,,0.67,,False,0.0,0.0,0.0,0.0,0.0,-1.9209,-52.6322,0.001,True,False,Mode(963497464),0.4447,46,0.6289
2.478,THRUST_SEARCH,OPEN_LOOP,0.0146,0.01459,0.01653,0.01653,0.0,-0.00028,0.6296,0.6296,0.6296,,0.67,,False,0.0,0.0,0.0,0.0,0.0,-1.9209,-52.7697,0.003,True,False,Mode(963497464),0.4557,46,0.6289
2.488,THRUST_SEARCH,OPEN_LOOP,0.0147,0.01468,0.01564,0.01564,0.0,9e-05,0.6298,0.6298,0.6298,,0.67,,False,0.0,0.0,0.0,0.0,0.0,-1.9209,-52.894,0.0045,True,False,Mode(963497464),0.4658,46,0.6289
2.499,THRUST_SEARCH,OPEN_LOOP,0.0146,0.01465,0.0143,0.01465,0.0,-4e-05,0.63,0.63,0.63,,0.67,,False,0.0,0.0,0.0,0.0,0.0,-1.9209,-53.1346,0.001,True,True,Mode(963497464),0.4768,46,0.6289
2.51,THRUST_SEARCH,OPEN_LOOP,0.0146,0.01465,0.01462,0.01465,0.0,-5e-05,0.6302,0.6302,0.6302,,0.67,,False,0.0,0.0,0.0,0.0,0.0,-1.9209,-53.3592,0.003,True,False,Mode(963497464),0.4877,47,0.63
2.521,THRUST_SEARCH,OPEN_LOOP,0.0147,0.0147,0.01524,0.01524,0.0,0.00016,0.6304,0.6304,0.6304,,0.67,,False,0.0,0.0,0.0,0.0,0.0,-1.9209,-53.6699,0.005,True,False,Mode(963497464),0.4987,47,0.63
2.532,THRUST_SEARCH,OPEN_LOOP,0.0147,0.0147,0.01468,0.0147,0.0,0.00016,0.6306,0.6306,0.6306,,0.67,,False,0.0,0.0,0.0,0.0,0.0,-1.9209,-54.0572,0.007,True,False,Mode(963497464),0.5097,47,0.63
2.543,THRUST_SEARCH,OPEN_LOOP,0.0146,0.0146,0.0135,0.0146,0.0,-0.00027,0.6309,0.6309,0.6309,,0.67,,False,0.0,0.0,0.0,0.0,0.0,-1.9209,-54.7317,0.003,True,False,Mode(963497464),0.5202,47,0.63
2.554,THRUST_SEARCH,OPEN_LOOP,0.0144,0.01441,0.01243,0.01441,0.0,-0.00103,0.6311,0.6311,0.6311,,0.67,,False,0.0,0.0,0.0,0.0,0.0,-1.9209,-55.0509,0.005,True,True,Mode(963497464),0.5312,47,0.63
2.564,THRUST_SEARCH,OPEN_LOOP,0.0142,0.01424,0.01256,0.01424,0.0,-0.00168,0.6313,0.6313,0.6313,,0.67,,False,0.0,0.0,0.0,0.0,0.0,-1.9209,-55.2998,0.0067,True,False,Mode(963497464),0.5414,48,0.6311
2.576,THRUST_SEARCH,OPEN_LOOP,0.0139,0.0139,0.01049,0.0139,0.0,-0.003,0.6315,0.6315,0.6315,,0.67,,False,0.0,0.0,0.0,0.0,0.0,-1.9209,-55.632,0.0,True,False,Mode(963497464),0.5524,48,0.6311
2.585,THRUST_SEARCH,OPEN_LOOP,0.0136,0.01356,0.0102,0.01356,0.0,-0.0043,0.6317,0.6317,0.6317,,0.67,,False,0.0,0.0,0.0,0.0,0.0,-1.9209,-55.8199,0.0015,True,False,Mode(963497464),0.5629,48,0.6311
2.596,THRUST_SEARCH,OPEN_LOOP,0.0132,0.01324,0.01032,0.01324,0.0,-0.00542,0.6319,0.6319,0.6319,,0.67,,False,0.0,0.0,0.0,0.0,0.0,-1.9209,-56.0261,0.0065,True,False,Mode(963497464),0.5734,48,0.6311
2.608,THRUST_SEARCH,OPEN_LOOP,0.0129,0.01293,0.01025,0.01293,0.0,-0.00646,0.6321,0.6321,0.6321,,0.67,,False,0.0,0.0,0.0,0.0,0.0,-1.9209,-56.1919,0.009,True,True,Mode(963497464),0.5844,48,0.6311
2.618,THRUST_SEARCH,OPEN_LOOP,0.0125,0.01252,0.00881,0.01252,0.0,-0.00789,0.6324,0.6324,0.6324,,0.67,,False,0.0,0.0,0.0,0.0,0.0,-1.9209,-56.7346,0.001,True,False,Mode(963497464),0.5953,49,0.6321
2.629,THRUST_SEARCH,OPEN_LOOP,0.012,0.01203,0.00779,0.01203,0.0,-0.00954,0.6326,0.6326,0.6326,,0.67,,False,0.0,0.0,0.0,0.0,0.0,-1.9209,-57.0346,0.006,True,False,Mode(963497464),0.6063,49,0.6321
2.639,THRUST_SEARCH,OPEN_LOOP,0.0116,0.01162,0.0083,0.01162,0.0,-0.01082,0.6328,0.6328,0.6328,,0.67,,False,0.0,0.0,0.0,0.0,0.0,-1.9209,-57.159,0.0074,True,False,Mode(963497464),0.6167,49,0.6321
2.65,THRUST_SEARCH,OPEN_LOOP,0.0112,0.01116,0.00746,0.01116,0.0,-0.01225,0.633,0.633,0.633,,0.67,,False,0.0,0.0,0.0,0.0,0.0,-1.9209,-57.4573,0.0006,True,False,Mode(963497464),0.6273,49,0.6321
2.661,THRUST_SEARCH,OPEN_LOOP,0.0107,0.01073,0.00757,0.01073,0.0,-0.01347,0.6332,0.6332,0.6332,,0.67,,False,0.0,0.0,0.0,0.0,0.0,-1.9209,-57.6663,0.003,True,True,Mode(963497464),0.6383,49,0.6321
2.672,THRUST_SEARCH,OPEN_LOOP,0.0105,0.0105,0.00958,0.0105,0.0,-0.01383,0.6334,0.6334,0.6334,,0.67,,False,0.0,0.0,0.0,0.0,0.0,-1.9209,-57.8166,0.005,True,False,Mode(963497464),0.6493,50,0.6332
2.683,THRUST_SEARCH,OPEN_LOOP,0.0104,0.01041,0.01105,0.01105,0.0,-0.01358,0.6337,0.6337,0.6337,,0.67,,False,0.0,0.0,0.0,0.0,0.0,-1.9209,-57.9734,0.001,True,False,Mode(963497464),0.6602,50,0.6332
2.694,THRUST_SEARCH,OPEN_LOOP,0.0104,0.01036,0.01149,0.01149,0.0,-0.01314,0.6339,0.6339,0.6339,,0.67,,False,0.0,0.0,0.0,0.0,0.0,-1.9209,-58.0686,0.003,True,False,Mode(963497464),0.6712,50,0.6332
2.705,THRUST_SEARCH,OPEN_LOOP,0.0103,0.01034,0.01158,0.01158,0.0,-0.01266,0.6341,0.6341,0.6341,,0.67,,False,0.0,0.0,0.0,0.0,0.0,-1.9209,-58.2196,0.005,True,False,Mode(963497464),0.6822,50,0.6332
2.716,THRUST_SEARCH,OPEN_LOOP,0.0104,0.0104,0.01255,0.01255,0.0,-0.01182,0.6343,0.6343,0.6343,,0.67,,False,0.0,0.0,0.0,0.0,0.0,-1.9209,-58.6736,0.0001,True,True,Mode(963497464),0.6933,50,0.6332
2.727,THRUST_SEARCH,OPEN_LOOP,0.0105,0.0105,0.0129,0.0129,0.0,-0.01088,0.6345,0.6345,0.6345,,0.67,,False,0.0,0.0,0.0,0.0,0.0,-1.9209,-58.9416,0.002,True,False,Mode(963497464),0.7042,51,0.6343
2.738,THRUST_SEARCH,OPEN_LOOP,0.0107,0.01066,0.01363,0.01363,0.0,-0.00973,0.6348,0.6348,0.6348,,0.67,,False,0.0,0.0,0.0,0.0,0.0,-1.9209,-59.1815,0.004,True,False,Mode(963497464),0.7151,51,0.6343
2.749,THRUST_SEARCH,OPEN_LOOP,0.0109,0.01087,0.01425,0.01425,0.0,-0.00841,0.635,0.635,0.635,,0.67,,False,0.0,0.0,0.0,0.0,0.0,-1.9209,-59.4207,0.006,True,False,Mode(963497464),0.7261,51,0.6343
2.759,THRUST_SEARCH,OPEN_LOOP,0.0112,0.01119,0.01557,0.01557,0.0,-0.00671,0.6352,0.6352,0.6352,,0.67,,False,0.0,0.0,0.0,0.0,0.0,-1.9209,-59.5871,0.0015,True,False,Mode(963497464),0.7366,51,0.6343
2.77,THRUST_SEARCH,OPEN_LOOP,0.0115,0.01146,0.01516,0.01516,0.0,-0.00527,0.6354,0.6354,0.6354,,0.67,,False,0.0,0.0,0.0,0.0,0.0,-1.9209,-59.6411,0.0031,True,True,Mode(963497464),0.7477,51,0.6343
2.781,THRUST_SEARCH,OPEN_LOOP,0.0117,0.01173,0.01511,0.01511,0.0,-0.00395,0.6356,0.6356,0.6356,,0.67,,False,0.0,0.0,0.0,0.0,0.0,-1.9209,-59.7268,0.008,True,False,Mode(963497464),0.7585,52,0.6354
2.792,THRUST_SEARCH,OPEN_LOOP,0.012,0.01199,0.01529,0.01529,0.0,-0.00266,0.6358,0.6358,0.6358,,0.67,,False,0.0,0.0,0.0,0.0,0.0,-1.9209,-60.1921,0.001,True,False,Mode(963497464),0.7695,52,0.6354
2.803,THRUST_SEARCH,OPEN_LOOP,0.0123,0.01228,0.01561,0.01561,0.0,-0.00137,0.6361,0.6361,0.6361,,0.67,,False,0.0,0.0,0.0,0.0,0.0,-1.9209,-60.3734,0.003,True,False,Mode(963497464),0.78,52,0.6354
2.813,THRUST_SEARCH,OPEN_LOOP,0.0126,0.01258,0.01599,0.01599,0.0,-5e-05,0.6363,0.6363,0.6363,,0.67,,False,0.0,0.0,0.0,0.0,0.0,-1.9209,-60.468,0.0045,True,False,Mode(963497464),0.7905,52,0.6354
2.824,THRUST_SEARCH,OPEN_LOOP,0.0129,0.01285,0.01575,0.01575,0.0,0.00107,0.6365,0.6365,0.6365,,0.67,,False,0.0,0.0,0.0,0.0,0.0,-1.9209,-60.3579,0.0008,True,True,Mode(963497464),0.8013,52,0.6354
2.835,THRUST_SEARCH,OPEN_LOOP,0.0132,0.01315,0.0162,0.0162,0.0,0.00226,0.6367,0.6367,0.6367,,0.67,,False,0.0,0.0,0.0,0.0,0.0,-1.9209,-60.1356,0.003,True,False,Mode(963497464),0.8123,53,0.6365
2.845,THRUST_SEARCH,OPEN_LOOP,0.0133,0.01332,0.01493,0.01493,0.0,0.00288,0.6369,0.6369,0.6369,,0.67,,False,0.0,0.0,0.0,0.0,0.0,-1.9209,-59.9043,0.0045,True,False,Mode(963497464),0.8227,53,0.6365
2.857,THRUST_SEARCH,OPEN_LOOP,0.0135,0.01352,0.01529,0.01529,0.0,0.00356,0.6371,0.6371,0.6371,,0.67,,False,0.0,0.0,0.0,0.0,0.0,-1.9209,-59.7667,0.0073,True,False,Mode(963497464),0.834,53,0.6365
2.867,THRUST_SEARCH,OPEN_LOOP,0.0137,0.0137,0.01518,0.01518,0.0,0.00414,0.6373,0.6373,0.6373,,0.67,,False,0.0,0.0,0.0,0.0,0.0,-1.9209,-59.9537,0.0006,True,False,Mode(963497464),0.8446,53,0.6365
2.878,THRUST_SEARCH,OPEN_LOOP,0.0138,0.01381,0.01455,0.01455,0.0,0.00442,0.6376,0.6376,0.6376,,0.67,,False,0.0,0.0,0.0,0.0,0.0,-1.9209,-60.0914,0.0032,True,True,Mode(963497464),0.8557,53,0.6365
2.889,THRUST_SEARCH,OPEN_LOOP,0.0139,0.01387,0.01394,0.01394,0.0,0.00445,0.6378,0.6378,0.6378,,0.67,,False,0.0,0.0,0.0,0.0,0.0,-1.9209,-60.1661,0.005,True,False,Mode(963497464),0.8665,54,0.6376
2.9,THRUST_SEARCH,OPEN_LOOP,0.0141,0.01415,0.01659,0.01659,0.0,0.0054,0.638,0.638,0.638,,0.67,,False,0.0,0.0,0.0,0.0,0.0,-1.9209,-60.1105,0.001,True,False,Mode(963497464),0.8775,54,0.6376
2.911,THRUST_SEARCH,OPEN_LOOP,0.0143,0.0143,0.01535,0.01535,0.0,0.00581,0.6382,0.6382,0.6382,,0.67,,False,0.0,0.0,0.0,0.0,0.0,-1.9209,-60.031,0.003,True,False,Mode(963497464),0.8885,54,0.6376
2.921,THRUST_SEARCH,OPEN_LOOP,0.0143,0.01432,0.01383,0.01432,0.0,0.00562,0.6384,0.6384,0.6384,,0.67,,False,0.0,0.0,0.0,0.0,0.0,-1.9209,-59.9128,0.0045,True,False,Mode(963497464),0.899,54,0.6376
2.932,THRUST_SEARCH,OPEN_LOOP,0.0146,0.01455,0.01643,0.01643,0.0,0.00635,0.6386,0.6386,0.6386,,0.67,,False,0.0,0.0,0.0,0.0,0.0,-1.9209,-60.2272,0.0006,True,True,Mode(963497464),0.9095,54,0.6376
2.943,THRUST_SEARCH,OPEN_LOOP,0.0149,0.01492,0.01805,0.01805,0.0,0.00756,0.6389,0.6389,0.6389,,0.67,,False,0.0,0.0,0.0,0.0,0.0,-1.9209,-60.1868,0.003,True,False,Mode(963497464),0.9205,55,0.6386
2.954,THRUST_SEARCH,OPEN_LOOP,0.0152,0.01522,0.01757,0.01757,0.0,0.00848,0.6391,0.6391,0.6391,,0.67,,False,0.0,0.0,0.0,0.0,0.0,-1.9209,-60.3242,0.005,True,False,Mode(963497464),0.9314,55,0.6386
2.964,THRUST_SEARCH,OPEN_LOOP,0.0155,0.01554,0.01803,0.01803,0.0,0.00944,0.6393,0.6393,0.6393,,0.67,,False,0.0,0.0,0.0,0.0,0.0,-1.9209,-60.3695,0.006,True,False,Mode(963497464),0.9419,55,0.6386
2.975,THRUST_SEARCH,OPEN_LOOP,0.016,0.01595,0.01921,0.01921,0.0,0.0107,0.6395,0.6395,0.6395,,0.67,,False,0.0,0.0,0.0,0.0,0.0,-1.9209,-60.7036,0.002,True,False,Mode(963497464),0.9528,55,0.6386
2.986,THRUST_SEARCH,OPEN_LOOP,0.0164,0.01641,0.02004,0.02004,0.0,0.01211,0.6397,0.6397,0.6397,,0.67,,False,0.0,0.0,0.0,0.0,0.0,-1.9209,-61.0082,0.004,True,True,Mode(963497464),0.9638,55,0.6386
2.997,THRUST_SEARCH,OPEN_LOOP,0.0168,0.01678,0.01936,0.01936,0.0,0.01311,0.6399,0.6399,0.6399,,0.67,,False,0.0,0.0,0.0,0.0,0.0,-1.9209,-61.4724,0.006,True,False,Mode(963497464),0.9748,56,0.6397
3.008,THRUST_SEARCH,OPEN_LOOP,0.0173,0.01726,0.02083,0.02083,0.0,0.0145,0.6402,0.6402,0.6402,,0.67,,False,0.0,0.0,0.0,0.0,0.0,-1.9209,-62.9495,0.0015,True,False,Mode(963497464),0.9853,56,0.6397
3.019,THRUST_SEARCH,OPEN_LOOP,0.0179,0.01786,0.02265,0.02265,0.0,0.01636,0.6404,0.6404,0.6404,,0.67,,False,0.0,0.0,0.0,0.0,0.0,-1.9209,-63.6934,0.003,True,False,Mode(963497464),0.9962,56,0.6397
3.03,THRUST_SEARCH,OPEN_LOOP,0.0184,0.0184,0.02222,0.02222,0.0,0.01784,0.6406,0.6406,0.6406,,0.67,,False,0.0,0.0,0.0,0.0,0.0,-1.9209,-64.2284,0.005,True,False,Mode(963497464),0.0,56,0.6397
3.04,THRUST_SEARCH,OPEN_LOOP,0.0188,0.0188,0.02105,0.02105,0.0,0.01871,0.6408,0.6408,0.6408,,0.67,,False,0.0,0.0,0.0,0.0,0.0,-1.9209,-64.5176,0.007,True,True,Mode(963497464),0.0106,56,0.6397
3.052,THRUST_SEARCH,OPEN_LOOP,0.0192,0.01923,0.02145,0.02145,0.0,0.01958,0.641,0.641,0.641,,0.67,,False,0.0,0.0,0.0,0.0,0.0,-1.9209,-64.6211,0.004,True,False,Mode(963497464),0.0221,57,0.6408
3.062,THRUST_SEARCH,OPEN_LOOP,0.0196,0.01964,0.02187,0.02187,0.0,0.02045,0.6412,0.6412,0.6412,,0.67,,False,0.0,0.0,0.0,0.0,0.0,-1.9209,-64.5249,0.006,True,False,Mode(963497464),0.0326,57,0.6408
3.073,THRUST_SEARCH,OPEN_LOOP,0.02,0.02,0.02155,0.02155,0.0,0.02105,0.6415,0.6415,0.6415,,0.67,,False,0.0,0.0,0.0,0.0,0.0,-1.9209,-64.4554,0.0075,True,False,Mode(963497464),0.0431,57,0.6408
3.084,THRUST_SEARCH,OPEN_LOOP,0.0204,0.02038,0.02194,0.02194,0.0,0.02165,0.6417,0.6417,0.6417,,0.67,,False,0.0,0.0,0.0,0.0,0.0,-1.9209,-64.7458,0.001,True,False,Mode(963497464),0.0541,57,0.6408
3.095,THRUST_SEARCH,OPEN_LOOP,0.0207,0.02068,0.02141,0.02141,0.0,0.02194,0.6419,0.6419,0.6419,,0.67,,False,0.0,0.0,0.0,0.0,0.0,-1.9209,-64.9763,0.003,True,True,Mode(963497464),0.065,57,0.6408
3.106,THRUST_SEARCH,OPEN_LOOP,0.0209,0.02092,0.02093,0.02093,0.0,0.02194,0.6421,0.6421,0.6421,,0.67,,False,0.0,0.0,0.0,0.0,0.0,-1.9209,-65.1097,0.005,True,False,Mode(963497464),0.076,58,0.6419
3.116,THRUST_SEARCH,OPEN_LOOP,0.0211,0.02105,0.01993,0.02105,0.0,0.0215,0.6423,0.6423,0.6423,,0.67,,False,0.0,0.0,0.0,0.0,0.0,-1.9209,-64.7486,0.0007,True,False,Mode(963497464),0.0867,58,0.6419
3.127,THRUST_SEARCH,OPEN_LOOP,0.0212,0.02117,0.01996,0.02117,0.0,0.02103,0.6425,0.6425,0.6425,,0.67,,False,0.0,0.0,0.0,0.0,0.0,-1.9209,-64.3271,0.003,True,False,Mode(963497464),0.0976,58,0.6419
3.138,THRUST_SEARCH,OPEN_LOOP,0.0212,0.02117,0.01868,0.02117,0.0,0.02006,0.6428,0.6428,0.6428,,0.67,,False,0.0,0.0,0.0,0.0,0.0,-1.9209,-63.8292,0.005,True,False,Mode(963497464),0.1086,58,0.6419
3.149,THRUST_SEARCH,OPEN_LOOP,0.021,0.02104,0.01728,0.02104,0.0,0.01859,0.643,0.643,0.643,,0.67,,False,0.0,0.0,0.0,0.0,0.0,-1.9209,-63.0584,0.001,True,True,Mode(963497464),0.1196,58,0.6419
3.16,THRUST_SEARCH,OPEN_LOOP,0.0209,0.02094,0.0177,0.02094,0.0,0.01733,0.6432,0.6432,0.6432,,0.67,,False,0.0,0.0,0.0,0.0,0.0,-1.9209,-62.9652,0.003,True,False,Mode(963497464),0.1306,59,0.643
3.171,THRUST_SEARCH,OPEN_LOOP,0.0208,0.02078,0.01708,0.02078,0.0,0.01589,0.6434,0.6434,0.6434,,0.67,,False,0.0,0.0,0.0,0.0,0.0,-1.9209,-62.992,0.005,True,False,Mode(963497464),0.1415,59,0.643
3.182,THRUST_SEARCH,OPEN_LOOP,0.0204,0.02041,0.01462,0.02041,0.0,0.01363,0.6436,0.6436,0.6436,,0.67,,False,0.0,0.0,0.0,0.0,0.0,-1.9209,-63.1558,0.001,True,False,Mode(963497464),0.1525,59,0.643
3.193,THRUST_SEARCH,OPEN_LOOP,0.02,0.01995,0.01355,0.01995,0.0,0.01112,0.6439,0.6439,0.6439,,0.67,,False,0.0,0.0,0.0,0.0,0.0,-1.9209,-63.2847,0.003,True,False,Mode(963497464),0.1635,59,0.643
3.204,THRUST_SEARCH,OPEN_LOOP,0.0195,0.0195,0.01348,0.0195,0.0,0.00877,0.6441,0.6441,0.6441,,0.67,,False,0.0,0.0,0.0,0.0,0.0,-1.9209,-63.4424,0.005,True,True,Mode(963497464),0.1744,59,0.643
3.215,THRUST_SEARCH,OPEN_LOOP,0.0189,0.01888,0.01133,0.01888,0.0,0.00582,0.6443,0.6443,0.6443,,0.67,,False,0.0,0.0,0.0,0.0,0.0,-1.9209,-63.6579,0.0065,True,False,Mode(963497464),0.1852,60,0.6441
3.226,THRUST_SEARCH,OPEN_LOOP,0.0183,0.01825,0.0109,0.01825,0.0,0.00294,0.6445,0.6445,0.6445,,0.67,,False,0.0,0.0,0.0,0.0,0.0,-1.9209,-64.0391,0.0031,True,False,Mode(963497464),0.1963,60,0.6441
3.237,THRUST_SEARCH,OPEN_LOOP,0.0176,0.01757,0.01,0.01757,0.0,-2e-05,0.6447,0.6447,0.6447,,0.67,,False,0.0,0.0,0.0,0.0,0.0,-1.9209,-64.0017,0.005,True,False,Mode(963497464),0.2071,60,0.6441
3.248,THRUST_SEARCH,OPEN_LOOP,0.017,0.01698,0.01075,0.01698,0.0,-0.00246,0.645,0.645,0.645,,0.67,,False,0.0,0.0,0.0,0.0,0.0,-1.9209,-63.9128,0.007,True,False,Mode(963497464),0.2181,60,0.6441
3.259,THRUST_SEARCH,OPEN_LOOP,0.0162,0.01624,0.00869,0.01624,0.0,-0.00541,0.6452,0.6452,0.6452,,0.67,,False,0.0,0.0,0.0,0.0,0.0,-1.9209,-63.864,0.009,True,True,Mode(963497464),0.2286,60,0.6441
3.269,THRUST_SEARCH,OPEN_LOOP,0.0155,0.01551,0.00835,0.01551,0.0,-0.00819,0.6454,0.6454,0.6454,,0.67,,False,0.0,0.0,0.0,0.0,0.0,-1.9209,-64.2429,0.002,True,False,Mode(963497464),0.2391,61,0.6452
3.28,THRUST_SEARCH,OPEN_LOOP,0.0149,0.01489,0.00918,0.01489,0.0,-0.01041,0.6456,0.6456,0.6456,,0.67,,False,0.0,0.0,0.0,0.0,0.0,-1.9209,-64.6551,0.007,True,False,Mode(963497464),0.2501,61,0.6452
3.291,THRUST_SEARCH,OPEN_LOOP,0.0144,0.01436,0.01006,0.01436,0.0,-0.0121,0.6458,0.6458,0.6458,,0.67,,False,0.0,0.0,0.0,0.0,0.0,-1.9209,-65.2544,0.001,True,False,Mode(963497464),0.2615,61,0.6452
3.302,THRUST_SEARCH,OPEN_LOOP,0.014,0.01404,0.01195,0.01404,0.0,-0.01291,0.646,0.646,0.646,,0.67,,False,0.0,0.0,0.0,0.0,0.0,-1.9209,-65.2294,0.003,True,False,Mode(963497464),0.2721,61,0.6452
3.313,THRUST_SEARCH,OPEN_LOOP,0.0138,0.01381,0.01292,0.01381,0.0,-0.01326,0.6463,0.6463,0.6463,,0.67,,False,0.0,0.0,0.0,0.0,0.0,-1.9209,-64.892,0.005,True,True,Mode(963497464),0.2831,61,0.6452
3.324,THRUST_SEARCH,OPEN_LOOP,0.0137,0.01375,0.01461,0.01461,0.0,-0.01292,0.6465,0.6465,0.6465,,0.67,,False,0.0,0.0,0.0,0.0,0.0,-1.9209,-64.331,0.007,True,False,Mode(963497464),0.2941,62,0.6463
3.334,THRUST_SEARCH,OPEN_LOOP,0.0138,0.01385,0.01636,0.01636,0.0,-0.01194,0.6467,0.6467,0.6467,,0.67,,False,0.0,0.0,0.0,0.0,0.0,-1.9209,-63.3267,0.003,True,False,Mode(963497464),0.3046,62,0.6463
