time,state,controller_mode,target_z,curr_z,raw_z,height_for_safety,target_vz,curr_vz,thrust,raw_thrust,search_thrust,liftoff_thrust,hover_thrust_est,thrust_no_floor,floor_applied,a_cmd_z,v_cmd_z,z_integral,roll_cmd_deg,pitch_cmd_deg,yaw_cmd_deg,yaw_mocap_deg,mocap_age,kf_used_measurement,mavlink_sent,mav_mode,mav_heartbeat_age,mav_send_count,mav_last_thrust
0.002,THRUST_SEARCH,OPEN_LOOP,-0.0003,-0.00029,-0.00031,-0.00029,0.0,-1e-05,0.58,0.58,0.58,,0.67,,False,0.0,0.0,0.0,0.0,0.0,-177.9047,-177.7254,0.004,True,True,Mode(963497464),0.0,0,
0.012,THRUST_SEARCH,OPEN_LOOP,-0.0001,-0.00015,1e-05,1e-05,0.0,0.00044,0.5805,0.5805,0.5805,,0.67,,False,0.0,0.0,0.0,0.0,0.0,-177.9047,-177.7227,0.009,True,False,Mode(963497464),0.011,1,0.58
0.022,THRUST_SEARCH,OPEN_LOOP,-0.0002,-0.00024,-0.00042,-0.00024,0.0,-0.00032,0.5809,0.5809,0.5809,,0.67,,False,0.0,0.0,0.0,0.0,0.0,-177.9047,-177.7519,0.0,True,False,Mode(963497464),0.0219,1,0.58
0.033,THRUST_SEARCH,OPEN_LOOP,-0.0002,-0.0002,-0.00011,-0.00011,0.0,0.00016,0.5813,0.5813,0.5813,,0.67,,False,0.0,0.0,0.0,0.0,0.0,-177.9047,-177.7584,0.005,True,False,Mode(963497464),0.0329,1,0.58
0.044,THRUST_SEARCH,OPEN_LOOP,-0.0002,-0.00024,-0.00034,-0.00024,0.0,-0.00045,0.5818,0.5818,0.5818,,0.67,,False,0.0,0.0,0.0,0.0,0.0,-177.9047,-177.779,0.0071,True,False,Mode(963497464),0.0442,1,0.58
0.055,THRUST_SEARCH,OPEN_LOOP,-0.0002,-0.00018,0.0,0.0,0.0,0.00067,0.5822,0.5822,0.5822,,0.67,,False,0.0,0.0,0.0,0.0,0.0,-177.9047,-177.8062,0.001,True,True,Mode(963497464),0.0552,1,0.58
0.066,THRUST_SEARCH,OPEN_LOOP,-0.0002,-0.00021,-0.00031,-0.00021,0.0,6e-05,0.5826,0.5826,0.5826,,0.67,,False,0.0,0.0,0.0,0.0,0.0,-177.9047,-177.833,0.006,True,False,Mode(963497464),0.0662,2,0.5822
0.077,THRUST_SEARCH,OPEN_LOOP,-0.0002,-0.00025,-0.00035,-0.00025,0.0,-0.00051,0.5831,0.5831,0.5831,,0.67,,False,0.0,0.0,0.0,0.0,0.0,-177.9047,-177.8409,0.008,True,False,Mode(963497464),0.0772,2,0.5822
0.088,THRUST_SEARCH,OPEN_LOOP,-0.0003,-0.00027,-0.00033,-0.00027,0.0,-0.0008,0.5835,0.5835,0.5835,,0.67,,False,0.0,0.0,0.0,0.0,0.0,-177.9047,-177.8168,0.0006,True,False,Mode(963497464),0.0878,2,0.5822
0.099,THRUST_SEARCH,OPEN_LOOP,-0.0003,-0.00034,-0.00049,-0.00034,0.0,-0.00153,0.5839,0.5839,0.5839,,0.67,,False,0.0,0.0,0.0,0.0,0.0,-177.9047,-177.7889,0.003,True,False,Mode(963497464),0.0987,2,0.5822
0.109,THRUST_SEARCH,OPEN_LOOP,-0.0003,-0.00029,-9e-05,-9e-05,0.0,-0.00072,0.5844,0.5844,0.5844,,0.67,,False,0.0,0.0,0.0,0.0,0.0,-177.9047,-177.7891,0.0075,True,True,Mode(963497464),0.1092,2,0.5822
0.12,THRUST_SEARCH,OPEN_LOOP,-0.0002,-0.00025,-0.00011,-0.00011,0.0,-0.0002,0.5848,0.5848,0.5848,,0.67,,False,0.0,0.0,0.0,0.0,0.0,-177.9047,-177.8557,0.001,True,False,Mode(963497464),0.1202,3,0.5844
0.131,THRUST_SEARCH,OPEN_LOOP,-0.0002,-0.00021,-0.0001,-0.0001,0.0,0.00019,0.5852,0.5852,0.5852,,0.67,,False,0.0,0.0,0.0,0.0,0.0,-177.9047,-177.8919,0.003,True,False,Mode(963497464),0.1307,3,0.5844
0.141,THRUST_SEARCH,OPEN_LOOP,-0.0002,-0.00019,-0.0001,-0.0001,0.0,0.00042,0.5856,0.5856,0.5856,,0.67,,False,0.0,0.0,0.0,0.0,0.0,-177.9047,-177.9207,0.0045,True,False,Mode(963497464),0.1412,3,0.5844
0.152,THRUST_SEARCH,OPEN_LOOP,-0.0002,-0.00016,-9e-05,-9e-05,0.0,0.00061,0.5861,0.5861,0.5861,,0.67,,False,0.0,0.0,0.0,0.0,0.0,-177.9047,-177.938,0.007,True,False,Mode(963497464),0.1522,3,0.5844
0.164,THRUST_SEARCH,OPEN_LOOP,-0.0001,-0.00014,-7e-05,-7e-05,0.0,0.00077,0.5865,0.5865,0.5865,,0.67,,False,0.0,0.0,0.0,0.0,0.0,-177.9047,-177.9721,0.003,True,True,Mode(963497464),0.1632,3,0.5844
0.174,THRUST_SEARCH,OPEN_LOOP,-0.0001,-0.00014,-0.00018,-0.00014,0.0,0.00069,0.5869,0.5869,0.5869,,0.67,,False,0.0,0.0,0.0,0.0,0.0,-177.9047,-177.9693,0.0045,True,False,Mode(963497464),0.1737,4,0.5865
0.184,THRUST_SEARCH,OPEN_LOOP,-0.0001,-0.00014,-0.00019,-0.00014,0.0,0.0006,0.5874,0.5874,0.5874,,0.67,,False,0.0,0.0,0.0,0.0,0.0,-177.9047,-177.9604,0.0068,True,False,Mode(963497464),0.1844,4,0.5865
0.196,THRUST_SEARCH,OPEN_LOOP,-0.0001,-0.00014,-0.00016,-0.00014,0.0,0.00058,0.5878,0.5878,0.5878,,0.67,,False,0.0,0.0,0.0,0.0,0.0,-177.9047,-177.9281,0.0006,True,False,Mode(963497464),0.196,4,0.5865
0.206,THRUST_SEARCH,OPEN_LOOP,-0.0001,-0.00011,-3e-05,-3e-05,0.0,0.00071,0.5883,0.5883,0.5883,,0.67,,False,0.0,0.0,0.0,0.0,0.0,-177.9047,-177.8761,0.002,True,False,Mode(963497464),0.2064,4,0.5865
0.217,THRUST_SEARCH,OPEN_LOOP,-0.0001,-6e-05,0.00015,0.00015,0.0,0.00101,0.5887,0.5887,0.5887,,0.67,,False,0.0,0.0,0.0,0.0,0.0,-177.9047,-177.837,0.0068,True,True,Mode(963497464),0.2172,4,0.5865
0.228,THRUST_SEARCH,OPEN_LOOP,-0.0,-5e-05,-2e-05,-2e-05,0.0,0.00104,0.5891,0.5891,0.5891,,0.67,,False,0.0,0.0,0.0,0.0,0.0,-177.9047,-177.8024,0.009,True,False,Mode(963497464),0.2281,5,0.5887
0.239,THRUST_SEARCH,OPEN_LOOP,-0.0,-3e-05,1e-05,1e-05,0.0,0.00108,0.5896,0.5896,0.5896,,0.67,,False,0.0,0.0,0.0,0.0,0.0,-177.9047,-177.7528,0.002,True,False,Mode(963497464),0.2391,5,0.5887
0.25,THRUST_SEARCH,OPEN_LOOP,-0.0001,-6e-05,-0.00027,-6e-05,0.0,0.00085,0.59,0.59,0.59,,0.67,,False,0.0,0.0,0.0,0.0,0.0,-177.9047,-177.7289,0.0037,True,False,Mode(963497464),0.2498,5,0.5887
0.261,THRUST_SEARCH,OPEN_LOOP,-0.0,-5e-05,-7e-05,-5e-05,0.0,0.00083,0.5904,0.5904,0.5904,,0.67,,False,0.0,0.0,0.0,0.0,0.0,-177.9047,-177.6965,0.0089,True,False,Mode(963497464),0.2608,5,0.5887
0.272,THRUST_SEARCH,OPEN_LOOP,-0.0001,-6e-05,-0.00018,-6e-05,0.0,0.00071,0.5909,0.5909,0.5909,,0.67,,False,0.0,0.0,0.0,0.0,0.0,-177.9047,-177.6644,0.0014,True,True,Mode(963497464),0.2721,5,0.5887
0.283,THRUST_SEARCH,OPEN_LOOP,-0.0001,-6e-05,-0.00012,-6e-05,0.0,0.00066,0.5913,0.5913,0.5913,,0.67,,False,0.0,0.0,0.0,0.0,0.0,-177.9047,-177.7011,0.003,True,False,Mode(963497464),0.2831,6,0.5909
0.294,THRUST_SEARCH,OPEN_LOOP,-0.0001,-0.0001,-0.0004,-0.0001,0.0,0.00042,0.5918,0.5918,0.5918,,0.67,,False,0.0,0.0,0.0,0.0,0.0,-177.9047,-177.7443,0.008,True,False,Mode(963497464),0.2941,6,0.5909
0.305,THRUST_SEARCH,OPEN_LOOP,-0.0001,-0.00014,-0.0004,-0.00014,0.0,0.00021,0.5922,0.5922,0.5922,,0.67,,False,0.0,0.0,0.0,0.0,0.0,-177.9047,-177.7898,0.0009,True,False,Mode(963497464),0.305,6,0.5909
0.316,THRUST_SEARCH,OPEN_LOOP,-0.0002,-0.00016,-0.0003,-0.00016,0.0,0.0001,0.5926,0.5926,0.5926,,0.67,,False,0.0,0.0,0.0,0.0,0.0,-177.9047,-177.8102,0.003,True,False,Mode(963497464),0.316,6,0.5909
0.327,THRUST_SEARCH,OPEN_LOOP,-0.0002,-0.00016,-0.00017,-0.00016,0.0,0.0001,0.5931,0.5931,0.5931,,0.67,,False,0.0,0.0,0.0,0.0,0.0,-177.9047,-177.8301,0.008,True,True,Mode(963497464),0.327,6,0.5909
0.338,THRUST_SEARCH,OPEN_LOOP,-0.0002,-0.00016,-0.0002,-0.00016,0.0,7e-05,0.5935,0.5935,0.5935,,0.67,,False,0.0,0.0,0.0,0.0,0.0,-177.9047,-177.838,0.001,True,False,Mode(963497464),0.338,7,0.5931
0.349,THRUST_SEARCH,OPEN_LOOP,-0.0001,-0.00015,-7e-05,-7e-05,0.0,0.00012,0.594,0.594,0.594,,0.67,,False,0.0,0.0,0.0,0.0,0.0,-177.9047,-177.8458,0.003,True,False,Mode(963497464),0.349,7,0.5931
0.359,THRUST_SEARCH,OPEN_LOOP,-0.0002,-0.00019,-0.00049,-0.00019,0.0,-6e-05,0.5944,0.5944,0.5944,,0.67,,False,0.0,0.0,0.0,0.0,0.0,-177.9047,-177.8592,0.0075,True,False,Mode(963497464),0.3595,7,0.5931
0.37,THRUST_SEARCH,OPEN_LOOP,-0.0002,-0.0002,-0.00028,-0.0002,0.0,-0.00011,0.5948,0.5948,0.5948,,0.67,,False,0.0,0.0,0.0,0.0,0.0,-177.9047,-177.8927,0.001,True,False,Mode(963497464),0.3705,7,0.5931
0.382,THRUST_SEARCH,OPEN_LOOP,-0.0002,-0.00021,-0.00027,-0.00021,0.0,-0.00015,0.5953,0.5953,0.5953,,0.67,,False,0.0,0.0,0.0,0.0,0.0,-177.9047,-177.9072,0.0031,True,True,Mode(963497464),0.0,7,0.5931
0.392,THRUST_SEARCH,OPEN_LOOP,-0.0002,-0.00022,-0.00025,-0.00022,0.0,-0.00017,0.5957,0.5957,0.5957,,0.67,,False,0.0,0.0,0.0,0.0,0.0,-177.9047,-177.9298,0.005,True,False,Mode(963497464),0.0109,8,0.5953
0.404,THRUST_SEARCH,OPEN_LOOP,-0.0002,-0.00022,-0.00026,-0.00022,0.0,-0.00019,0.5961,0.5961,0.5961,,0.67,,False,0.0,0.0,0.0,0.0,0.0,-177.9047,-177.9557,0.001,True,False,Mode(963497464),0.0221,8,0.5953
0.415,THRUST_SEARCH,OPEN_LOOP,-0.0003,-0.00026,-0.00055,-0.00026,0.0,-0.00034,0.5966,0.5966,0.5966,,0.67,,False,0.0,0.0,0.0,0.0,0.0,-177.9047,-177.9529,0.003,True,False,Mode(963497464),0.0331,8,0.5953
0.425,THRUST_SEARCH,OPEN_LOOP,-0.0003,-0.00028,-0.00045,-0.00028,0.0,-0.00042,0.597,0.597,0.597,,0.67,,False,0.0,0.0,0.0,0.0,0.0,-177.9047,-177.9513,0.0045,True,False,Mode(963497464),0.0435,8,0.5953
0.436,THRUST_SEARCH,OPEN_LOOP,-0.0003,-0.0003,-0.00042,-0.0003,0.0,-0.00048,0.5974,0.5974,0.5974,,0.67,,False,0.0,0.0,0.0,0.0,0.0,-177.9047,-177.9543,0.001,True,True,Mode(963497464),0.0545,8,0.5953
0.447,THRUST_SEARCH,OPEN_LOOP,-0.0003,-0.00032,-0.00042,-0.00032,0.0,-0.00053,0.5979,0.5979,0.5979,,0.67,,False,0.0,0.0,0.0,0.0,0.0,-177.9047,-177.9543,0.012,True,False,Mode(963497464),0.0654,9,0.5974
0.458,THRUST_SEARCH,OPEN_LOOP,-0.0003,-0.00033,-0.00037,-0.00033,0.0,-0.00055,0.5983,0.5983,0.5983,,0.67,,False,0.0,0.0,0.0,0.0,0.0,-177.9047,-177.9271,0.0051,True,False,Mode(963497464),0.0765,9,0.5974
0.469,THRUST_SEARCH,OPEN_LOOP,-0.0003,-0.00032,-0.00024,-0.00024,0.0,-0.00051,0.5987,0.5987,0.5987,,0.67,,False,0.0,0.0,0.0,0.0,0.0,-177.9047,-177.9352,0.007,True,False,Mode(963497464),0.087,9,0.5974
0.481,THRUST_SEARCH,OPEN_LOOP,-0.0003,-0.00034,-0.00038,-0.00034,0.0,-0.00053,0.5992,0.5992,0.5992,,0.67,,False,0.0,0.0,0.0,0.0,0.0,-177.9047,-177.9433,0.01,True,False,Mode(963497464),0.0983,9,0.5974
0.49,THRUST_SEARCH,OPEN_LOOP,-0.0003,-0.00033,-0.00022,-0.00022,0.0,-0.00048,0.5996,0.5996,0.5996,,0.67,,False,0.0,0.0,0.0,0.0,0.0,-177.9047,-177.9082,0.0045,True,True,Mode(963497464),0.1088,9,0.5974
0.501,THRUST_SEARCH,OPEN_LOOP,-0.0003,-0.00032,-0.00022,-0.00022,0.0,-0.00044,0.6001,0.6001,0.6001,,0.67,,False,0.0,0.0,0.0,0.0,0.0,-177.9047,-177.9162,0.007,True,False,Mode(963497464),0.1198,10,0.5996
0.512,THRUST_SEARCH,OPEN_LOOP,-0.0003,-0.00032,-0.00025,-0.00025,0.0,-0.00041,0.6005,0.6005,0.6005,,0.67,,False,0.0,0.0,0.0,0.0,0.0,-177.9047,-177.9364,0.009,True,False,Mode(963497464),0.1307,10,0.5996
0.523,THRUST_SEARCH,OPEN_LOOP,-0.0003,-0.00034,-0.00047,-0.00034,0.0,-0.00046,0.6009,0.6009,0.6009,,0.67,,False,0.0,0.0,0.0,0.0,0.0,-177.9047,-177.9686,0.0045,True,False,Mode(963497464),0.1412,10,0.5996
0.534,THRUST_SEARCH,OPEN_LOOP,-0.0003,-0.00033,-0.00017,-0.00017,0.0,-0.0004,0.6013,0.6013,0.6013,,0.67,,False,0.0,0.0,0.0,0.0,0.0,-177.9047,-177.9575,0.007,True,False,Mode(963497464),0.1522,10,0.5996
0.546,THRUST_SEARCH,OPEN_LOOP,-0.0003,-0.00032,-0.00024,-0.00024,0.0,-0.00036,0.6018,0.6018,0.6018,,0.67,,False,0.0,0.0,0.0,0.0,0.0,-177.9047,-177.9485,0.009,True,True,Mode(963497464),0.1632,10,0.5996
0.555,THRUST_SEARCH,OPEN_LOOP,-0.0003,-0.00032,-0.00022,-0.00022,0.0,-0.00032,0.6022,0.6022,0.6022,,0.67,,False,0.0,0.0,0.0,0.0,0.0,-177.9047,-177.946,0.0037,True,False,Mode(963497464),0.1739,11,0.6018
0.566,THRUST_SEARCH,OPEN_LOOP,-0.0003,-0.00033,-0.00037,-0.00033,0.0,-0.00034,0.6027,0.6027,0.6027,,0.67,,False,0.0,0.0,0.0,0.0,0.0,-177.9047,-177.9669,0.006,True,False,Mode(963497464),0.1848,11,0.6018
0.577,THRUST_SEARCH,OPEN_LOOP,-0.0003,-0.00034,-0.00047,-0.00034,0.0,-0.00039,0.6031,0.6031,0.6031,,0.67,,False,0.0,0.0,0.0,0.0,0.0,-177.9047,-177.9587,0.0075,True,False,Mode(963497464),0.1953,11,0.6018
0.588,THRUST_SEARCH,OPEN_LOOP,-0.0004,-0.00035,-0.00039,-0.00035,0.0,-0.00041,0.6035,0.6035,0.6035,,0.67,,False,0.0,0.0,0.0,0.0,0.0,-177.9047,-177.9606,0.001,True,False,Mode(963497464),0.2063,11,0.6018
0.599,THRUST_SEARCH,OPEN_LOOP,-0.0003,-0.00033,-0.0001,-0.0001,0.0,-0.00032,0.604,0.604,0.604,,0.67,,False,0.0,0.0,0.0,0.0,0.0,-177.9047,-177.9653,0.003,True,True,Mode(963497464),0.2173,11,0.6018
0.609,THRUST_SEARCH,OPEN_LOOP,-0.0003,-0.00034,-0.00034,-0.00034,0.0,-0.00032,0.6044,0.6044,0.6044,,0.67,,False,0.0,0.0,0.0,0.0,0.0,-177.9047,-177.974,0.0075,True,False,Mode(963497464),0.2278,12,0.604
0.62,THRUST_SEARCH,OPEN_LOOP,-0.0003,-0.00034,-0.00039,-0.00034,0.0,-0.00034,0.6048,0.6048,0.6048,,0.67,,False,0.0,0.0,0.0,0.0,0.0,-177.9047,-177.9189,0.001,True,False,Mode(963497464),0.2387,12,0.604
0.631,THRUST_SEARCH,OPEN_LOOP,-0.0003,-0.00035,-0.00033,-0.00033,0.0,-0.00033,0.6052,0.6052,0.6052,,0.67,,False,0.0,0.0,0.0,0.0,0.0,-177.9047,-177.8762,0.003,True,False,Mode(963497464),0.2497,12,0.604
0.642,THRUST_SEARCH,OPEN_LOOP,-0.0004,-0.00035,-0.0004,-0.00035,0.0,-0.00035,0.6057,0.6057,0.6057,,0.67,,False,0.0,0.0,0.0,0.0,0.0,-177.9047,-177.8766,0.005,True,False,Mode(963497464),0.2607,12,0.604
0.653,THRUST_SEARCH,OPEN_LOOP,-0.0003,-0.00035,-0.00024,-0.00024,0.0,-0.0003,0.6061,0.6061,0.6061,,0.67,,False,0.0,0.0,0.0,0.0,0.0,-177.9047,-177.8877,0.001,True,True,Mode(963497464),0.2716,12,0.604
0.664,THRUST_SEARCH,OPEN_LOOP,-0.0003,-0.00033,-0.00016,-0.00016,0.0,-0.00024,0.6066,0.6066,0.6066,,0.67,,False,0.0,0.0,0.0,0.0,0.0,-177.9047,-177.9109,0.003,True,False,Mode(963497464),0.2826,13,0.6061
0.675,THRUST_SEARCH,OPEN_LOOP,-0.0003,-0.00033,-0.00031,-0.00031,0.0,-0.00023,0.607,0.607,0.607,,0.67,,False,0.0,0.0,0.0,0.0,0.0,-177.9047,-177.926,0.0045,True,False,Mode(963497464),0.2931,13,0.6061
0.686,THRUST_SEARCH,OPEN_LOOP,-0.0003,-0.00033,-0.00022,-0.00022,0.0,-0.00018,0.6074,0.6074,0.6074,,0.67,,False,0.0,0.0,0.0,0.0,0.0,-177.9047,-177.9398,0.0071,True,False,Mode(963497464),0.3042,13,0.6061
0.697,THRUST_SEARCH,OPEN_LOOP,-0.0003,-0.0003,4e-05,4e-05,0.0,-5e-05,0.6079,0.6079,0.6079,,0.67,,False,0.0,0.0,0.0,0.0,0.0,-177.9047,-177.967,0.003,True,False,Mode(963497464),0.3151,13,0.6061
0.707,THRUST_SEARCH,OPEN_LOOP,-0.0003,-0.00029,-0.00022,-0.00022,0.0,-3e-05,0.6083,0.6083,0.6083,,0.67,,False,0.0,0.0,0.0,0.0,0.0,-177.9047,-177.982,0.0045,True,True,Mode(963497464),0.3256,13,0.6061
0.718,THRUST_SEARCH,OPEN_LOOP,-0.0003,-0.0003,-0.00036,-0.0003,0.0,-5e-05,0.6087,0.6087,0.6087,,0.67,,False,0.0,0.0,0.0,0.0,0.0,-177.9047,-177.9639,0.007,True,False,Mode(963497464),0.3366,14,0.6083
0.73,THRUST_SEARCH,OPEN_LOOP,-0.0003,-0.00029,-0.00027,-0.00027,0.0,-4e-05,0.6092,0.6092,0.6092,,0.67,,False,0.0,0.0,0.0,0.0,0.0,-177.9047,-177.9296,0.009,True,False,Mode(963497464),0.3471,14,0.6083
0.741,THRUST_SEARCH,OPEN_LOOP,-0.0003,-0.0003,-0.00041,-0.0003,0.0,-8e-05,0.6096,0.6096,0.6096,,0.67,,False,0.0,0.0,0.0,0.0,0.0,-177.9047,-177.8671,0.0035,True,False,Mode(963497464),0.3595,14,0.6083
0.752,THRUST_SEARCH,OPEN_LOOP,-0.0003,-0.00031,-0.00034,-0.00031,0.0,-9e-05,0.6101,0.6101,0.6101,,0.67,,False,0.0,0.0,0.0,0.0,0.0,-177.9047,-177.8811,0.008,True,False,Mode(963497464),0.3705,14,0.6083
0.763,THRUST_SEARCH,OPEN_LOOP,-0.0003,-0.00031,-0.00033,-0.00031,0.0,-0.0001,0.6105,0.6105,0.6105,,0.67,,False,0.0,0.0,0.0,0.0,0.0,-177.9047,-177.8852,0.001,True,True,Mode(963497464),0.381,14,0.6083
0.774,THRUST_SEARCH,OPEN_LOOP,-0.0003,-0.00033,-0.00047,-0.00033,0.0,-0.00016,0.6109,0.6109,0.6109,,0.67,,False,0.0,0.0,0.0,0.0,0.0,-177.9047,-177.8841,0.003,True,False,Mode(963497464),0.392,15,0.6105
0.784,THRUST_SEARCH,OPEN_LOOP,-0.0003,-0.00032,-0.00028,-0.00028,0.0,-0.00014,0.6114,0.6114,0.6114,,0.67,,False,0.0,0.0,0.0,0.0,0.0,-177.9047,-177.8461,0.0045,True,False,Mode(963497464),0.4025,15,0.6105
0.795,THRUST_SEARCH,OPEN_LOOP,-0.0003,-0.00033,-0.00033,-0.00033,0.0,-0.00014,0.6118,0.6118,0.6118,,0.67,,False,0.0,0.0,0.0,0.0,0.0,-177.9047,-177.8038,0.001,True,False,Mode(963497464),0.4135,15,0.6105
0.806,THRUST_SEARCH,OPEN_LOOP,-0.0003,-0.00034,-0.00045,-0.00034,0.0,-0.00018,0.6122,0.6122,0.6122,,0.67,,False,0.0,0.0,0.0,0.0,0.0,-177.9047,-177.8228,0.003,True,False,Mode(963497464),0.4244,15,0.6105
0.818,THRUST_SEARCH,OPEN_LOOP,-0.0003,-0.00034,-0.00033,-0.00033,0.0,-0.00018,0.6127,0.6127,0.6127,,0.67,,False,0.0,0.0,0.0,0.0,0.0,-177.9047,-177.8292,0.005,True,True,Mode(963497464),0.4354,15,0.6105
0.828,THRUST_SEARCH,OPEN_LOOP,-0.0003,-0.00034,-0.00033,-0.00033,0.0,-0.00018,0.6131,0.6131,0.6131,,0.67,,False,0.0,0.0,0.0,0.0,0.0,-177.9047,-177.774,0.001,True,False,Mode(963497464),0.4461,16,0.6127
0.839,THRUST_SEARCH,OPEN_LOOP,-0.0003,-0.00035,-0.0004,-0.00035,0.0,-0.0002,0.6136,0.6136,0.6136,,0.67,,False,0.0,0.0,0.0,0.0,0.0,-177.9047,-177.8176,0.003,True,False,Mode(963497464),0.4571,16,0.6127
0.849,THRUST_SEARCH,OPEN_LOOP,-0.0003,-0.00033,-0.00016,-0.00016,0.0,-0.00013,0.614,0.614,0.614,,0.67,,False,0.0,0.0,0.0,0.0,0.0,-177.9047,-177.8443,0.0045,True,False,Mode(963497464),0.4675,16,0.6127
0.86,THRUST_SEARCH,OPEN_LOOP,-0.0003,-0.00034,-0.00036,-0.00034,0.0,-0.00014,0.6144,0.6144,0.6144,,0.67,,False,0.0,0.0,0.0,0.0,0.0,-177.9047,-177.8844,0.007,True,False,Mode(963497464),0.4785,16,0.6127
0.872,THRUST_SEARCH,OPEN_LOOP,-0.0003,-0.00032,-0.00018,-0.00018,0.0,-8e-05,0.6149,0.6149,0.6149,,0.67,,False,0.0,0.0,0.0,0.0,0.0,-177.9047,-177.9347,0.009,True,True,Mode(963497464),0.4895,16,0.6127
0.882,THRUST_SEARCH,OPEN_LOOP,-0.0002,-0.00024,0.0007,0.0007,0.0,0.00028,0.6153,0.6153,0.6153,,0.67,,False,0.0,0.0,0.0,0.0,0.0,-177.9047,-178.0341,0.002,True,False,Mode(963497464),0.5004,17,0.6149
0.893,THRUST_SEARCH,OPEN_LOOP,-0.0001,-0.00014,0.00085,0.00085,0.0,0.00067,0.6157,0.6157,0.6157,,0.67,,False,0.0,0.0,0.0,0.0,0.0,-177.9047,-178.0254,0.0075,True,False,Mode(963497464),0.5119,17,0.6149
0.904,THRUST_SEARCH,OPEN_LOOP,0.0001,8e-05,0.00232,0.00232,0.0,0.00155,0.6162,0.6162,0.6162,,0.67,,False,0.0,0.0,0.0,0.0,0.0,-177.9047,-178.0234,0.001,True,False,Mode(963497464),0.5228,17,0.6149
0.915,THRUST_SEARCH,OPEN_LOOP,0.0004,0.00037,0.00327,0.00327,0.0,0.00269,0.6166,0.6166,0.6166,,0.67,,False,0.0,0.0,0.0,0.0,0.0,-177.9047,-178.1067,0.003,True,False,Mode(963497464),0.5338,17,0.6149
0.928,THRUST_SEARCH,OPEN_LOOP,0.0007,0.0007,0.00387,0.00387,0.0,0.00394,0.6171,0.6171,0.6171,,0.67,,False,0.0,0.0,0.0,0.0,0.0,-177.9047,-178.2724,0.0079,True,True,Mode(963497464),0.5447,17,0.6149
0.937,THRUST_SEARCH,OPEN_LOOP,0.0011,0.00108,0.00462,0.00462,0.0,0.00533,0.6175,0.6175,0.6175,,0.67,,False,0.0,0.0,0.0,0.0,0.0,-177.9047,-178.62,0.0018,True,False,Mode(963497464),0.5551,18,0.6171
0.948,THRUST_SEARCH,OPEN_LOOP,0.0015,0.00153,0.00571,0.00571,0.0,0.00696,0.6179,0.6179,0.6179,,0.67,,False,0.0,0.0,0.0,0.0,0.0,-177.9047,-178.7325,0.004,True,False,Mode(963497464),0.5661,18,0.6171
0.959,THRUST_SEARCH,OPEN_LOOP,0.002,0.00197,0.00583,0.00583,0.0,0.00847,0.6183,0.6183,0.6183,,0.67,,False,0.0,0.0,0.0,0.0,0.0,-177.9047,-178.7295,0.006,True,False,Mode(963497464),0.5771,18,0.6171
0.97,THRUST_SEARCH,OPEN_LOOP,0.0025,0.00253,0.00748,0.00748,0.0,0.01041,0.6188,0.6188,0.6188,,0.67,,False,0.0,0.0,0.0,0.0,0.0,-177.9047,-178.6419,0.008,True,False,Mode(963497464),0.5881,18,0.6171
0.98,THRUST_SEARCH,OPEN_LOOP,0.0032,0.00317,0.00872,0.00872,0.0,0.01258,0.6192,0.6192,0.6192,,0.67,,False,0.0,0.0,0.0,0.0,0.0,-177.9047,-178.1747,0.0035,True,True,Mode(963497464),0.5986,18,0.6171
0.991,THRUST_SEARCH,OPEN_LOOP,0.0038,0.00382,0.0093,0.0093,0.0,0.01472,0.6196,0.6196,0.6196,,0.67,,False,0.0,0.0,0.0,0.0,0.0,-177.9047,-177.8209,0.006,True,False,Mode(963497464),0.6095,19,0.6192
1.002,THRUST_SEARCH,OPEN_LOOP,0.0044,0.00442,0.00901,0.00901,0.0,0.01652,0.6201,0.6201,0.6201,,0.67,,False,0.0,0.0,0.0,0.0,0.0,-177.9047,-177.5789,0.008,True,False,Mode(963497464),0.6205,19,0.6192
1.013,THRUST_SEARCH,OPEN_LOOP,0.005,0.00498,0.00904,0.00904,0.0,0.01811,0.6205,0.6205,0.6205,,0.67,,False,0.0,0.0,0.0,0.0,0.0,-177.9047,-177.4901,0.001,True,False,Mode(963497464),0.6315,19,0.6192
1.024,THRUST_SEARCH,OPEN_LOOP,0.0055,0.00548,0.00868,0.00868,0.0,0.01936,0.621,0.621,0.621,,0.67,,False,0.0,0.0,0.0,0.0,0.0,-177.9047,-177.5679,0.003,True,False,Mode(963497464),0.6425,19,0.6192
1.035,THRUST_SEARCH,OPEN_LOOP,0.0059,0.00593,0.00836,0.00836,0.0,0.02032,0.6214,0.6214,0.6214,,0.67,,False,0.0,0.0,0.0,0.0,0.0,-177.9047,-177.6204,0.008,True,True,Mode(963497464),0.6534,19,0.6192
1.047,THRUST_SEARCH,OPEN_LOOP,0.0063,0.00627,0.00758,0.00758,0.0,0.02083,0.6219,0.6219,0.6219,,0.67,,False,0.0,0.0,0.0,0.0,0.0,-177.9047,-177.2368,0.0006,True,False,Mode(963497464),0.665,20,0.6214
1.056,THRUST_SEARCH,OPEN_LOOP,0.0066,0.00657,0.00741,0.00741,0.0,0.02116,0.6223,0.6223,0.6223,,0.67,,False,0.0,0.0,0.0,0.0,0.0,-177.9047,-176.7424,0.0045,True,False,Mode(963497464),0.6749,20,0.6214
1.067,THRUST_SEARCH,OPEN_LOOP,0.0069,0.00695,0.00852,0.00852,0.0,0.02177,0.6227,0.6227,0.6227,,0.67,,False,0.0,0.0,0.0,0.0,0.0,-177.9047,-176.1569,0.0067,True,False,Mode(963497464),0.6856,20,0.6214
1.078,THRUST_SEARCH,OPEN_LOOP,0.0072,0.00721,0.00744,0.00744,0.0,0.02187,0.6231,0.6231,0.6231,,0.67,,False,0.0,0.0,0.0,0.0,0.0,-177.9047,-175.6756,0.009,True,False,Mode(963497464),0.6966,20,0.6214
1.089,THRUST_SEARCH,OPEN_LOOP,0.0074,0.00737,0.00661,0.00737,0.0,0.02157,0.6236,0.6236,0.6236,,0.67,,False,0.0,0.0,0.0,0.0,0.0,-177.9047,-175.7165,0.002,True,True,Mode(963497464),0.7075,20,0.6214
1.1,THRUST_SEARCH,OPEN_LOOP,0.0075,0.00745,0.00576,0.00745,0.0,0.0209,0.624,0.624,0.624,,0.67,,False,0.0,0.0,0.0,0.0,0.0,-177.9047,-176.1351,0.004,True,False,Mode(963497464),0.7185,21,0.6236
1.111,THRUST_SEARCH,OPEN_LOOP,0.0076,0.00759,0.00677,0.00759,0.0,0.02058,0.6244,0.6244,0.6244,,0.67,,False,0.0,0.0,0.0,0.0,0.0,-177.9047,-176.6765,0.009,True,False,Mode(963497464),0.729,21,0.6236
1.122,THRUST_SEARCH,OPEN_LOOP,0.0076,0.00759,0.0052,0.00759,0.0,0.01965,0.6249,0.6249,0.6249,,0.67,,False,0.0,0.0,0.0,0.0,0.0,-177.9047,-177.2236,0.002,True,False,Mode(963497464),0.74,21,0.6236
1.132,THRUST_SEARCH,OPEN_LOOP,0.0076,0.00759,0.00534,0.00759,0.0,0.01878,0.6253,0.6253,0.6253,,0.67,,False,0.0,0.0,0.0,0.0,0.0,-177.9047,-177.0728,0.0036,True,False,Mode(963497464),0.7505,21,0.6236
1.143,THRUST_SEARCH,OPEN_LOOP,0.0076,0.00762,0.00573,0.00762,0.0,0.01804,0.6257,0.6257,0.6257,,0.67,,False,0.0,0.0,0.0,0.0,0.0,-177.9047,-176.5709,0.006,True,True,Mode(963497464),0.7615,21,0.6236
1.154,THRUST_SEARCH,OPEN_LOOP,0.0077,0.00769,0.00637,0.00769,0.0,0.01752,0.6262,0.6262,0.6262,,0.67,,False,0.0,0.0,0.0,0.0,0.0,-177.9047,-175.6795,0.002,True,False,Mode(963497464),0.7725,22,0.6257
1.165,THRUST_SEARCH,OPEN_LOOP,0.0078,0.00785,0.00747,0.00785,0.0,0.01738,0.6266,0.6266,0.6266,,0.67,,False,0.0,0.0,0.0,0.0,0.0,-177.9047,-175.6461,0.004,True,False,Mode(963497464),0.7834,22,0.6257
1.175,THRUST_SEARCH,OPEN_LOOP,0.0079,0.00795,0.00708,0.00795,0.0,0.01704,0.627,0.627,0.627,,0.67,,False,0.0,0.0,0.0,0.0,0.0,-177.9047,-175.9304,0.006,True,False,Mode(963497464),0.7939,22,0.6257
1.186,THRUST_SEARCH,OPEN_LOOP,0.0081,0.00815,0.00825,0.00825,0.0,0.01708,0.6275,0.6275,0.6275,,0.67,,False,0.0,0.0,0.0,0.0,0.0,-177.9047,-176.4331,0.008,True,False,Mode(963497464),0.8049,22,0.6257
1.197,THRUST_SEARCH,OPEN_LOOP,0.0083,0.00831,0.00809,0.00831,0.0,0.017,0.6279,0.6279,0.6279,,0.67,,False,0.0,0.0,0.0,0.0,0.0,-177.9047,-177.3191,0.004,True,True,Mode(963497464),0.8159,22,0.6257
1.208,THRUST_SEARCH,OPEN_LOOP,0.0085,0.00851,0.00863,0.00863,0.0,0.01704,0.6283,0.6283,0.6283,,0.67,,False,0.0,0.0,0.0,0.0,0.0,-177.9047,-177.4201,0.006,True,False,Mode(963497464),0.8268,23,0.6279
1.219,THRUST_SEARCH,OPEN_LOOP,0.0087,0.00866,0.0083,0.00866,0.0,0.0169,0.6288,0.6288,0.6288,,0.67,,False,0.0,0.0,0.0,0.0,0.0,-177.9047,-177.2327,0.008,True,False,Mode(963497464),0.8378,23,0.6279
1.23,THRUST_SEARCH,OPEN_LOOP,0.0088,0.00883,0.00867,0.00883,0.0,0.01684,0.6292,0.6292,0.6292,,0.67,,False,0.0,0.0,0.0,0.0,0.0,-177.9047,-176.1701,0.001,True,False,Mode(963497464),0.8484,23,0.6279
1.241,THRUST_SEARCH,OPEN_LOOP,0.0089,0.00892,0.0079,0.00892,0.0,0.01644,0.6296,0.6296,0.6296,,0.67,,False,0.0,0.0,0.0,0.0,0.0,-177.9047,-175.6827,0.003,True,False,Mode(963497464),0.8593,23,0.6279
1.252,THRUST_SEARCH,OPEN_LOOP,0.009,0.00896,0.0075,0.00896,0.0,0.01587,0.6301,0.6301,0.6301,,0.67,,False,0.0,0.0,0.0,0.0,0.0,-177.9047,-175.3747,0.008,True,True,Mode(963497464),0.8703,23,0.6279
1.263,THRUST_SEARCH,OPEN_LOOP,0.0089,0.00892,0.00661,0.00892,0.0,0.01497,0.6305,0.6305,0.6305,,0.67,,False,0.0,0.0,0.0,0.0,0.0,-177.9047,-175.7674,0.001,True,False,Mode(963497464),0.8813,24,0.6301
1.274,THRUST_SEARCH,OPEN_LOOP,0.0088,0.00882,0.00611,0.00882,0.0,0.01391,0.631,0.631,0.631,,0.67,,False,0.0,0.0,0.0,0.0,0.0,-177.9047,-176.0027,0.003,True,False,Mode(963497464),0.0,24,0.6301
1.285,THRUST_SEARCH,OPEN_LOOP,0.0087,0.00871,0.00585,0.00871,0.0,0.0128,0.6314,0.6314,0.6314,,0.67,,False,0.0,0.0,0.0,0.0,0.0,-177.9047,-176.1132,0.005,True,False,Mode(963497464),0.011,24,0.6301
1.295,THRUST_SEARCH,OPEN_LOOP,0.0086,0.00855,0.00546,0.00855,0.0,0.01159,0.6318,0.6318,0.6318,,0.67,,False,0.0,0.0,0.0,0.0,0.0,-177.9047,-176.0775,0.01,True,False,Mode(963497464),0.0215,24,0.6301
1.306,THRUST_SEARCH,OPEN_LOOP,0.0084,0.00838,0.00517,0.00838,0.0,0.01034,0.6323,0.6323,0.6323,,0.67,,False,0.0,0.0,0.0,0.0,0.0,-177.9047,-175.5192,0.002,True,True,Mode(963497464),0.0325,24,0.6301
1.317,THRUST_SEARCH,OPEN_LOOP,0.0081,0.0081,0.00394,0.0081,0.0,0.00872,0.6327,0.6327,0.6327,,0.67,,False,0.0,0.0,0.0,0.0,0.0,-177.9047,-175.2769,0.007,True,False,Mode(963497464),0.0435,25,0.6323
1.328,THRUST_SEARCH,OPEN_LOOP,0.0078,0.00779,0.00356,0.00779,0.0,0.00707,0.6331,0.6331,0.6331,,0.67,,False,0.0,0.0,0.0,0.0,0.0,-177.9047,-175.3654,0.009,True,False,Mode(963497464),0.0545,25,0.6323
1.339,THRUST_SEARCH,OPEN_LOOP,0.0075,0.00749,0.00342,0.00749,0.0,0.00548,0.6336,0.6336,0.6336,,0.67,,False,0.0,0.0,0.0,0.0,0.0,-177.9047,-175.9105,0.004,True,False,Mode(963497464),0.0654,25,0.6323
1.35,THRUST_SEARCH,OPEN_LOOP,0.0071,0.00712,0.00261,0.00712,0.0,0.00371,0.634,0.634,0.634,,0.67,,False,0.0,0.0,0.0,0.0,0.0,-177.9047,-176.1123,0.006,True,False,Mode(963497464),0.0764,25,0.6323
1.361,THRUST_SEARCH,OPEN_LOOP,0.0067,0.00672,0.00211,0.00672,0.0,0.0019,0.6344,0.6344,0.6344,,0.67,,False,0.0,0.0,0.0,0.0,0.0,-177.9047,-176.159,0.008,True,True,Mode(963497464),0.0874,25,0.6323
1.372,THRUST_SEARCH,OPEN_LOOP,0.0063,0.00633,0.00198,0.00633,0.0,0.0002,0.6349,0.6349,0.6349,,0.67,,False,0.0,0.0,0.0,0.0,0.0,-177.9047,-175.7992,0.001,True,False,Mode(963497464),0.0983,26,0.6344
1.383,THRUST_SEARCH,OPEN_LOOP,0.006,0.00597,0.00215,0.00597,0.0,-0.0013,0.6353,0.6353,0.6353,,0.67,,False,0.0,0.0,0.0,0.0,0.0,-177.9047,-175.6707,0.006,True,False,Mode(963497464),0.1093,26,0.6344
1.394,THRUST_SEARCH,OPEN_LOOP,0.0056,0.00565,0.00237,0.00565,0.0,-0.00259,0.6358,0.6358,0.6358,,0.67,,False,0.0,0.0,0.0,0.0,0.0,-177.9047,-175.6663,0.008,True,False,Mode(963497464),0.1203,26,0.6344
1.405,THRUST_SEARCH,OPEN_LOOP,0.0054,0.00537,0.00273,0.00537,0.0,-0.00362,0.6362,0.6362,0.6362,,0.67,,False,0.0,0.0,0.0,0.0,0.0,-177.9047,-175.9453,0.001,True,False,Mode(963497464),0.1313,26,0.6344
1.417,THRUST_SEARCH,OPEN_LOOP,0.0052,0.00517,0.00349,0.00517,0.0,-0.00428,0.6366,0.6366,0.6366,,0.67,,False,0.0,0.0,0.0,0.0,0.0,-177.9047,-176.3193,0.003,True,True,Mode(963497464),0.1422,26,0.6344
1.427,THRUST_SEARCH,OPEN_LOOP,0.005,0.00498,0.00343,0.00498,0.0,-0.00489,0.6371,0.6371,0.6371,,0.67,,False,0.0,0.0,0.0,0.0,0.0,-177.9047,-176.7634,0.008,True,False,Mode(963497464),0.1532,27,0.6366
1.438,THRUST_SEARCH,OPEN_LOOP,0.0048,0.00475,0.00295,0.00475,0.0,-0.00559,0.6375,0.6375,0.6375,,0.67,,False,0.0,0.0,0.0,0.0,0.0,-177.9047,-177.3988,0.001,True,False,Mode(963497464),0.1642,27,0.6366
1.449,THRUST_SEARCH,OPEN_LOOP,0.0045,0.00451,0.00259,0.00451,0.0,-0.00635,0.638,0.638,0.638,,0.67,,False,0.0,0.0,0.0,0.0,0.0,-177.9047,-177.5045,0.003,True,False,Mode(963497464),0.1751,27,0.6366
1.459,THRUST_SEARCH,OPEN_LOOP,0.0043,0.00431,0.00291,0.00431,0.0,-0.00689,0.6384,0.6384,0.6384,,0.67,,False,0.0,0.0,0.0,0.0,0.0,-177.9047,-177.4881,0.0074,True,False,Mode(963497464),0.1856,27,0.6366
1.47,THRUST_SEARCH,OPEN_LOOP,0.004,0.00405,0.00205,0.00405,0.0,-0.00767,0.6388,0.6388,0.6388,,0.67,,False,0.0,0.0,0.0,0.0,0.0,-177.9047,-177.5741,0.001,True,True,Mode(963497464),0.1965,27,0.6366
1.481,THRUST_SEARCH,OPEN_LOOP,0.0038,0.00376,0.0016,0.00376,0.0,-0.00852,0.6393,0.6393,0.6393,,0.67,,False,0.0,0.0,0.0,0.0,0.0,-177.9047,-177.6158,0.003,True,False,Mode(963497464),0.2075,28,0.6388
1.492,THRUST_SEARCH,OPEN_LOOP,0.0035,0.00349,0.00161,0.00349,0.0,-0.00925,0.6397,0.6397,0.6397,,0.67,,False,0.0,0.0,0.0,0.0,0.0,-177.9047,-177.6271,0.005,True,False,Mode(963497464),0.2185,28,0.6388
1.503,THRUST_SEARCH,OPEN_LOOP,0.0033,0.00333,0.0027,0.00333,0.0,-0.0095,0.6401,0.6401,0.6401,,0.67,,False,0.0,0.0,0.0,0.0,0.0,-177.9047,-177.2344,0.0002,True,False,Mode(963497464),0.2296,28,0.6388
1.514,THRUST_SEARCH,OPEN_LOOP,0.0032,0.00317,0.00264,0.00317,0.0,-0.00971,0.6406,0.6406,0.6406,,0.67,,False,0.0,0.0,0.0,0.0,0.0,-177.9047,-176.8659,0.002,True,False,Mode(963497464),0.2404,28,0.6388
1.525,THRUST_SEARCH,OPEN_LOOP,0.0031,0.00307,0.00306,0.00307,0.0,-0.00971,0.641,0.641,0.641,,0.67,,False,0.0,0.0,0.0,0.0,0.0,-177.9047,-176.5368,0.0036,True,True,Mode(963497464),0.251,28,0.6388
1.536,THRUST_SEARCH,OPEN_LOOP,0.003,0.003,0.00342,0.00342,0.0,-0.00955,0.6414,0.6414,0.6414,,0.67,,False,0.0,0.0,0.0,0.0,0.0,-177.9047,-176.2648,0.006,True,False,Mode(963497464),0.2619,29,0.641
1.547,THRUST_SEARCH,OPEN_LOOP,0.0029,0.00288,0.00272,0.00288,0.0,-0.00961,0.6419,0.6419,0.6419,,0.67,,False,0.0,0.0,0.0,0.0,0.0,-177.9047,-176.1271,0.002,True,False,Mode(963497464),0.2729,29,0.641
1.558,THRUST_SEARCH,OPEN_LOOP,0.0028,0.0028,0.00302,0.00302,0.0,-0.00953,0.6423,0.6423,0.6423,,0.67,,False,0.0,0.0,0.0,0.0,0.0,-177.9047,-176.2106,0.004,True,False,Mode(963497464),0.284,29,0.641
1.569,THRUST_SEARCH,OPEN_LOOP,0.0026,0.00262,0.00186,0.00262,0.0,-0.00982,0.6428,0.6428,0.6428,,0.67,,False,0.0,0.0,0.0,0.0,0.0,-177.9047,-176.3914,0.0,True,False,Mode(963497464),0.295,29,0.641
1.58,THRUST_SEARCH,OPEN_LOOP,0.0024,0.00243,0.00151,0.00243,0.0,-0.01018,0.6432,0.6432,0.6432,,0.67,,False,0.0,0.0,0.0,0.0,0.0,-177.9047,-176.3166,0.002,True,True,Mode(963497464),0.306,29,0.641
1.591,THRUST_SEARCH,OPEN_LOOP,0.0021,0.00214,0.0003,0.00214,0.0,-0.0109,0.6436,0.6436,0.6436,,0.67,,False,0.0,0.0,0.0,0.0,0.0,-177.9047,-176.1776,0.004,True,False,Mode(963497464),0.317,30,0.6432
1.602,THRUST_SEARCH,OPEN_LOOP,0.0018,0.00182,-0.00035,0.00182,0.0,-0.01175,0.6441,0.6441,0.6441,,0.67,,False,0.0,0.0,0.0,0.0,0.0,-177.9047,-175.9902,0.006,True,False,Mode(963497464),0.3279,30,0.6432
1.612,THRUST_SEARCH,OPEN_LOOP,0.0014,0.00142,-0.0015,0.00142,0.0,-0.01289,0.6445,0.6445,0.6445,,0.67,,False,0.0,0.0,0.0,0.0,0.0,-177.9047,-175.8521,0.0015,True,False,Mode(963497464),0.3384,30,0.6432
1.623,THRUST_SEARCH,OPEN_LOOP,0.0009,0.00094,-0.00256,0.00094,0.0,-0.01426,0.6449,0.6449,0.6449,,0.67,,False,0.0,0.0,0.0,0.0,0.0,-177.9047,-175.7366,0.003,True,False,Mode(963497464),0.3494,30,0.6432
1.634,THRUST_SEARCH,OPEN_LOOP,0.0005,0.00054,-0.0021,0.00054,0.0,-0.01529,0.6454,0.6454,0.6454,,0.67,,False,0.0,0.0,0.0,0.0,0.0,-177.9047,-175.7182,0.005,True,True,Mode(963497464),0.3603,30,0.6432
1.645,THRUST_SEARCH,OPEN_LOOP,0.0002,0.00018,-0.00174,0.00018,0.0,-0.01605,0.6458,0.6458,0.6458,,0.67,,False,0.0,0.0,0.0,0.0,0.0,-177.9047,-175.1358,0.001,True,False,Mode(963497464),0.3716,31,0.6454
1.656,THRUST_SEARCH,OPEN_LOOP,-0.0001,-0.0001,-0.00119,-0.0001,0.0,-0.01648,0.6463,0.6463,0.6463,,0.67,,False,0.0,0.0,0.0,0.0,0.0,-177.9047,-174.7422,0.003,True,False,Mode(963497464),0.3826,31,0.6454
1.667,THRUST_SEARCH,OPEN_LOOP,-0.0003,-0.00031,-0.00071,-0.00031,0.0,-0.01663,0.6467,0.6467,0.6467,,0.67,,False,0.0,0.0,0.0,0.0,0.0,-177.9047,-174.4474,0.005,True,False,Mode(963497464),0.3936,31,0.6454
1.678,THRUST_SEARCH,OPEN_LOOP,-0.0004,-0.00045,8e-05,8e-05,0.0,-0.01643,0.6471,0.6471,0.6471,,0.67,,False,0.0,0.0,0.0,0.0,0.0,-177.9047,-174.3092,0.007,True,False,Mode(963497464),0.4045,31,0.6454
1.689,THRUST_SEARCH,OPEN_LOOP,-0.0004,-0.00044,0.00149,0.00149,0.0,-0.01567,0.6476,0.6476,0.6476,,0.67,,False,0.0,0.0,0.0,0.0,0.0,-177.9047,-174.4808,0.004,True,True,Mode(963497464),0.4155,31,0.6454
1.701,THRUST_SEARCH,OPEN_LOOP,-0.0004,-0.00039,0.00205,0.00205,0.0,-0.0147,0.648,0.648,0.648,,0.67,,False,0.0,0.0,0.0,0.0,0.0,-177.9047,-174.7611,0.004,True,False,Mode(963497464),0.427,32,0.6476
1.713,THRUST_SEARCH,OPEN_LOOP,-0.0002,-0.0002,0.00353,0.00353,0.0,-0.01323,0.6485,0.6485,0.6485,,0.67,,False,0.0,0.0,0.0,0.0,0.0,-177.9047,-175.3816,0.0,True,False,Mode(963497464),0.4379,32,0.6476
1.722,THRUST_SEARCH,OPEN_LOOP,-0.0001,-0.0001,0.00237,0.00237,0.0,-0.01226,0.6489,0.6489,0.6489,,0.67,,False,0.0,0.0,0.0,0.0,0.0,-177.9047,-175.4385,0.0015,True,False,Mode(963497464),0.4484,32,0.6476
1.733,THRUST_SEARCH,OPEN_LOOP,0.0001,8e-05,0.00338,0.00338,0.0,-0.01096,0.6493,0.6493,0.6493,,0.67,,False,0.0,0.0,0.0,0.0,0.0,-177.9047,-175.1489,0.003,True,False,Mode(963497464),0.4594,32,0.6476
1.744,THRUST_SEARCH,OPEN_LOOP,0.0003,0.00031,0.00396,0.00396,0.0,-0.00953,0.6498,0.6498,0.6498,,0.67,,False,0.0,0.0,0.0,0.0,0.0,-177.9047,-174.609,0.008,True,True,Mode(963497464),0.4704,32,0.6476
1.755,THRUST_SEARCH,OPEN_LOOP,0.0005,0.00052,0.00392,0.00392,0.0,-0.00819,0.6502,0.6502,0.6502,,0.67,,False,0.0,0.0,0.0,0.0,0.0,-177.9047,-173.6841,0.001,True,False,Mode(963497464),0.4814,33,0.6498
1.766,THRUST_SEARCH,OPEN_LOOP,0.0007,0.00075,0.00407,0.00407,0.0,-0.00688,0.6507,0.6507,0.6507,,0.67,,False,0.0,0.0,0.0,0.0,0.0,-177.9047,-173.5651,0.006,True,False,Mode(963497464),0.4923,33,0.6498
1.777,THRUST_SEARCH,OPEN_LOOP,0.001,0.00101,0.0045,0.0045,0.0,-0.00551,0.6511,0.6511,0.6511,,0.67,,False,0.0,0.0,0.0,0.0,0.0,-177.9047,-173.7899,0.0075,True,False,Mode(963497464),0.5028,33,0.6498
1.788,THRUST_SEARCH,OPEN_LOOP,0.0012,0.00124,0.00433,0.00433,0.0,-0.0043,0.6515,0.6515,0.6515,,0.67,,False,0.0,0.0,0.0,0.0,0.0,-177.9047,-174.3785,0.001,True,False,Mode(963497464),0.5138,33,0.6498
1.799,THRUST_SEARCH,OPEN_LOOP,0.0015,0.00147,0.00444,0.00444,0.0,-0.00314,0.6519,0.6519,0.6519,,0.67,,False,0.0,0.0,0.0,0.0,0.0,-177.9047,-174.7886,0.0031,True,True,Mode(963497464),0.5249,33,0.6498
1.809,THRUST_SEARCH,OPEN_LOOP,0.0017,0.00167,0.00412,0.00412,0.0,-0.00218,0.6524,0.6524,0.6524,,0.67,,False,0.0,0.0,0.0,0.0,0.0,-177.9047,-175.0339,0.008,True,False,Mode(963497464),0.5357,34,0.6519
1.82,THRUST_SEARCH,OPEN_LOOP,0.0017,0.0017,0.00223,0.00223,0.0,-0.00197,0.6528,0.6528,0.6528,,0.67,,False,0.0,0.0,0.0,0.0,0.0,-177.9047,-175.0352,0.001,True,False,Mode(963497464),0.5465,34,0.6519
1.831,THRUST_SEARCH,OPEN_LOOP,0.0017,0.00175,0.00249,0.00249,0.0,-0.00168,0.6532,0.6532,0.6532,,0.67,,False,0.0,0.0,0.0,0.0,0.0,-177.9047,-174.8635,0.003,True,False,Mode(963497464),0.5575,34,0.6519
1.842,THRUST_SEARCH,OPEN_LOOP,0.0017,0.0017,0.0014,0.0017,0.0,-0.0018,0.6537,0.6537,0.6537,,0.67,,False,0.0,0.0,0.0,0.0,0.0,-177.9047,-174.7004,0.005,True,False,Mode(963497464),0.5684,34,0.6519
1.853,THRUST_SEARCH,OPEN_LOOP,0.0017,0.00166,0.0014,0.00166,0.0,-0.0019,0.6541,0.6541,0.6541,,0.67,,False,0.0,0.0,0.0,0.0,0.0,-177.9047,-174.7356,0.001,True,True,Mode(963497464),0.5794,34,0.6519
1.864,THRUST_SEARCH,OPEN_LOOP,0.0016,0.0016,0.00127,0.0016,0.0,-0.00203,0.6546,0.6546,0.6546,,0.67,,False,0.0,0.0,0.0,0.0,0.0,-177.9047,-174.8237,0.003,True,False,Mode(963497464),0.5904,35,0.6541
1.875,THRUST_SEARCH,OPEN_LOOP,0.0016,0.00164,0.00223,0.00223,0.0,-0.0018,0.655,0.655,0.655,,0.67,,False,0.0,0.0,0.0,0.0,0.0,-177.9047,-174.9539,0.005,True,False,Mode(963497464),0.6013,35,0.6541
1.886,THRUST_SEARCH,OPEN_LOOP,0.0017,0.00166,0.00215,0.00215,0.0,-0.0016,0.6554,0.6554,0.6554,,0.67,,False,0.0,0.0,0.0,0.0,0.0,-177.9047,-175.1714,0.006,True,False,Mode(963497464),0.6123,35,0.6541
1.897,THRUST_SEARCH,OPEN_LOOP,0.0016,0.00162,0.00134,0.00162,0.0,-0.00171,0.6559,0.6559,0.6559,,0.67,,False,0.0,0.0,0.0,0.0,0.0,-177.9047,-175.3633,0.001,True,False,Mode(963497464),0.6233,35,0.6541
1.909,THRUST_SEARCH,OPEN_LOOP,0.0017,0.00167,0.00236,0.00236,0.0,-0.00144,0.6563,0.6563,0.6563,,0.67,,False,0.0,0.0,0.0,0.0,0.0,-177.9047,-175.4555,0.006,True,True,Mode(963497464),0.6343,35,0.6541
1.919,THRUST_SEARCH,OPEN_LOOP,0.0018,0.0018,0.00338,0.00338,0.0,-0.00082,0.6568,0.6568,0.6568,,0.67,,False,0.0,0.0,0.0,0.0,0.0,-177.9047,-176.0635,0.0,True,False,Mode(963497464),0.6452,36,0.6563
1.93,THRUST_SEARCH,OPEN_LOOP,0.0019,0.00191,0.00314,0.00314,0.0,-0.00034,0.6572,0.6572,0.6572,,0.67,,False,0.0,0.0,0.0,0.0,0.0,-177.9047,-176.3764,0.002,True,False,Mode(963497464),0.6562,36,0.6563
1.941,THRUST_SEARCH,OPEN_LOOP,0.0021,0.00209,0.00404,0.00404,0.0,0.00043,0.6576,0.6576,0.6576,,0.67,,False,0.0,0.0,0.0,0.0,0.0,-177.9047,-176.6835,0.0028,True,False,Mode(963497464),0.667,36,0.6563
1.952,THRUST_SEARCH,OPEN_LOOP,0.0023,0.00228,0.00423,0.00423,0.0,0.00119,0.6581,0.6581,0.6581,,0.67,,False,0.0,0.0,0.0,0.0,0.0,-177.9047,-176.9155,0.005,True,False,Mode(963497464),0.6779,36,0.6563
1.962,THRUST_SEARCH,OPEN_LOOP,0.0025,0.00245,0.00417,0.00417,0.0,0.00186,0.6585,0.6585,0.6585,,0.67,,False,0.0,0.0,0.0,0.0,0.0,-177.9047,-176.8387,0.0,True,True,Mode(963497464),0.6885,36,0.6563
1.973,THRUST_SEARCH,OPEN_LOOP,0.0026,0.00256,0.00345,0.00345,0.0,0.00221,0.6589,0.6589,0.6589,,0.67,,False,0.0,0.0,0.0,0.0,0.0,-177.9047,-176.7138,0.002,True,False,Mode(963497464),0.6994,37,0.6585
1.984,THRUST_SEARCH,OPEN_LOOP,0.0026,0.00265,0.00332,0.00332,0.0,0.00248,0.6594,0.6594,0.6594,,0.67,,False,0.0,0.0,0.0,0.0,0.0,-177.9047,-176.6758,0.007,True,False,Mode(963497464),0.7104,37,0.6585
1.995,THRUST_SEARCH,OPEN_LOOP,0.0027,0.00274,0.00348,0.00348,0.0,0.00277,0.6598,0.6598,0.6598,,0.67,,False,0.0,0.0,0.0,0.0,0.0,-177.9047,-176.8227,0.009,True,False,Mode(963497464),0.7214,37,0.6585
2.006,THRUST_SEARCH,OPEN_LOOP,0.003,0.00296,0.00495,0.00495,0.0,0.00355,0.6602,0.6602,0.6602,,0.67,,False,0.0,0.0,0.0,0.0,0.0,-177.9047,-177.4319,0.002,True,False,Mode(963497464),0.7324,37,0.6585
2.018,THRUST_SEARCH,OPEN_LOOP,0.0031,0.00308,0.00394,0.00394,0.0,0.00388,0.6607,0.6607,0.6607,,0.67,,False,0.0,0.0,0.0,0.0,0.0,-177.9047,-177.6454,0.0044,True,True,Mode(963497464),0.7437,37,0.6585
2.028,THRUST_SEARCH,OPEN_LOOP,0.0031,0.00314,0.00325,0.00325,0.0,0.00393,0.6611,0.6611,0.6611,,0.67,,False,0.0,0.0,0.0,0.0,0.0,-177.9047,-177.745,0.001,True,False,Mode(963497464),0.7547,38,0.6607
2.039,THRUST_SEARCH,OPEN_LOOP,0.0033,0.00328,0.00427,0.00427,0.0,0.00432,0.6616,0.6616,0.6616,,0.67,,False,0.0,0.0,0.0,0.0,0.0,-177.9047,-177.7746,0.003,True,False,Mode(963497464),0.7657,38,0.6607
2.05,THRUST_SEARCH,OPEN_LOOP,0.0032,0.00323,0.00228,0.00323,0.0,0.00394,0.662,0.662,0.662,,0.67,,False,0.0,0.0,0.0,0.0,0.0,-177.9047,-177.7308,0.0045,True,False,Mode(963497464),0.7762,38,0.6607
2.061,THRUST_SEARCH,OPEN_LOOP,0.0032,0.00324,0.00293,0.00324,0.0,0.00382,0.6624,0.6624,0.6624,,0.67,,False,0.0,0.0,0.0,0.0,0.0,-177.9047,-177.723,0.0066,True,False,Mode(963497464),0.7867,38,0.6607
2.072,THRUST_SEARCH,OPEN_LOOP,0.0033,0.00334,0.00396,0.00396,0.0,0.00406,0.6629,0.6629,0.6629,,0.67,,False,0.0,0.0,0.0,0.0,0.0,-177.9047,-177.7065,0.003,True,True,Mode(963497464),0.7977,38,0.6607
2.082,THRUST_SEARCH,OPEN_LOOP,0.0035,0.00346,0.00422,0.00422,0.0,0.00436,0.6633,0.6633,0.6633,,0.67,,False,0.0,0.0,0.0,0.0,0.0,-177.9047,-177.7045,0.0045,True,False,Mode(963497464),0.8082,39,0.6629
2.093,THRUST_SEARCH,OPEN_LOOP,0.0035,0.00351,0.00362,0.00362,0.0,0.0044,0.6637,0.6637,0.6637,,0.67,,False,0.0,0.0,0.0,0.0,0.0,-177.9047,-177.6037,0.007,True,False,Mode(963497464),0.8192,39,0.6629
2.104,THRUST_SEARCH,OPEN_LOOP,0.0036,0.00358,0.00378,0.00378,0.0,0.00448,0.6642,0.6642,0.6642,,0.67,,False,0.0,0.0,0.0,0.0,0.0,-177.9047,-177.3524,0.001,True,False,Mode(963497464),0.8304,39,0.6629
2.115,THRUST_SEARCH,OPEN_LOOP,0.0036,0.00364,0.00373,0.00373,0.0,0.00452,0.6646,0.6646,0.6646,,0.67,,False,0.0,0.0,0.0,0.0,0.0,-177.9047,-177.1738,0.003,True,False,Mode(963497464),0.8414,39,0.6629
2.126,THRUST_SEARCH,OPEN_LOOP,0.0036,0.00364,0.00306,0.00364,0.0,0.00429,0.665,0.665,0.665,,0.67,,False,0.0,0.0,0.0,0.0,0.0,-177.9047,-177.0068,0.005,True,True,Mode(963497464),0.8523,39,0.6629
2.137,THRUST_SEARCH,OPEN_LOOP,0.0036,0.00363,0.00312,0.00363,0.0,0.00409,0.6655,0.6655,0.6655,,0.67,,False,0.0,0.0,0.0,0.0,0.0,-177.9047,-176.9924,0.001,True,False,Mode(963497464),0.8633,40,0.665
2.148,THRUST_SEARCH,OPEN_LOOP,0.0036,0.00364,0.00327,0.00364,0.0,0.00394,0.6659,0.6659,0.6659,,0.67,,False,0.0,0.0,0.0,0.0,0.0,-177.9047,-177.1608,0.002,True,False,Mode(963497464),0.8743,40,0.665
2.159,THRUST_SEARCH,OPEN_LOOP,0.0036,0.00364,0.00317,0.00364,0.0,0.00376,0.6664,0.6664,0.6664,,0.67,,False,0.0,0.0,0.0,0.0,0.0,-177.9047,-177.3419,0.0072,True,False,Mode(963497464),0.8855,40,0.665
2.17,THRUST_SEARCH,OPEN_LOOP,0.0036,0.00357,0.00239,0.00357,0.0,0.00329,0.6668,0.6668,0.6668,,0.67,,False,0.0,0.0,0.0,0.0,0.0,-177.9047,-177.2317,0.001,True,False,Mode(963497464),0.8964,40,0.665
2.181,THRUST_SEARCH,OPEN_LOOP,0.0035,0.00348,0.00216,0.00348,0.0,0.00277,0.6672,0.6672,0.6672,,0.67,,False,0.0,0.0,0.0,0.0,0.0,-177.9047,-176.9715,0.003,True,True,Mode(963497464),0.9074,40,0.665
2.192,THRUST_SEARCH,OPEN_LOOP,0.0033,0.00335,0.00163,0.00335,0.0,0.00209,0.6677,0.6677,0.6677,,0.67,,False,0.0,0.0,0.0,0.0,0.0,-177.9047,-176.5261,0.005,True,False,Mode(963497464),0.9184,41,0.6672
2.203,THRUST_SEARCH,OPEN_LOOP,0.0031,0.00311,0.00029,0.00311,0.0,0.00099,0.6681,0.6681,0.6681,,0.67,,False,0.0,0.0,0.0,0.0,0.0,-177.9047,-176.0361,0.001,True,False,Mode(963497464),0.9294,41,0.6672
2.214,THRUST_SEARCH,OPEN_LOOP,0.0029,0.00292,0.0008,0.00292,0.0,0.00016,0.6686,0.6686,0.6686,,0.67,,False,0.0,0.0,0.0,0.0,0.0,-177.9047,-176.2099,0.003,True,False,Mode(963497464),0.9403,41,0.6672
2.225,THRUST_SEARCH,OPEN_LOOP,0.0028,0.00276,0.00106,0.00276,0.0,-0.00051,0.669,0.669,0.669,,0.67,,False,0.0,0.0,0.0,0.0,0.0,-177.9047,-176.5823,0.0045,True,False,Mode(963497464),0.9508,41,0.6672
2.235,THRUST_SEARCH,OPEN_LOOP,0.0026,0.00261,0.00109,0.00261,0.0,-0.0011,0.6694,0.6694,0.6694,,0.67,,False,0.0,0.0,0.0,0.0,0.0,-177.9047,-176.9454,0.0066,True,True,Mode(963497464),0.9614,41,0.6672
2.246,THRUST_SEARCH,OPEN_LOOP,0.0024,0.00237,1e-05,0.00237,0.0,-0.00202,0.6698,0.6698,0.6698,,0.67,,False,0.0,0.0,0.0,0.0,0.0,-177.9047,-177.2861,0.0,True,False,Mode(963497464),0.9724,42,0.6694
2.257,THRUST_SEARCH,OPEN_LOOP,0.0021,0.00215,-0.0,0.00215,0.0,-0.00286,0.6703,0.6703,0.6703,,0.67,,False,0.0,0.0,0.0,0.0,0.0,-177.9047,-177.3952,0.005,True,False,Mode(963497464),0.9834,42,0.6694
2.268,THRUST_SEARCH,OPEN_LOOP,0.0019,0.00189,-0.00044,0.00189,0.0,-0.00378,0.6707,0.6707,0.6707,,0.67,,False,0.0,0.0,0.0,0.0,0.0,-177.9047,-177.4521,0.007,True,False,Mode(963497464),0.9944,42,0.6694
2.28,THRUST_SEARCH,OPEN_LOOP,0.0015,0.00151,-0.00217,0.00151,0.0,-0.00522,0.6712,0.6712,0.6712,,0.67,,False,0.0,0.0,0.0,0.0,0.0,-177.9047,-177.4765,0.009,True,False,Mode(963497464),1.0053,42,0.6694
2.29,THRUST_SEARCH,OPEN_LOOP,0.0011,0.00115,-0.00207,0.00115,0.0,-0.00647,0.6716,0.6716,0.6716,,0.67,,False,0.0,0.0,0.0,0.0,0.0,-177.9047,-177.712,0.0015,True,True,Mode(963497464),0.0,42,0.6694
2.301,THRUST_SEARCH,OPEN_LOOP,0.0008,0.00082,-0.0019,0.00082,0.0,-0.00754,0.672,0.672,0.672,,0.67,,False,0.0,0.0,0.0,0.0,0.0,-177.9047,-177.7706,0.006,True,False,Mode(963497464),0.011,43,0.6716
2.312,THRUST_SEARCH,OPEN_LOOP,0.0005,0.00048,-0.00219,0.00048,0.0,-0.00858,0.6725,0.6725,0.6725,,0.67,,False,0.0,0.0,0.0,0.0,0.0,-177.9047,-177.6688,0.008,True,False,Mode(963497464),0.0219,43,0.6716
2.323,THRUST_SEARCH,OPEN_LOOP,0.0001,5e-05,-0.00347,5e-05,0.0,-0.00996,0.6729,0.6729,0.6729,,0.67,,False,0.0,0.0,0.0,0.0,0.0,-177.9047,-177.376,0.004,True,False,Mode(963497464),0.0334,43,0.6716
2.334,THRUST_SEARCH,OPEN_LOOP,-0.0004,-0.00037,-0.00372,-0.00037,0.0,-0.01128,0.6733,0.6733,0.6733,,0.67,,False,0.0,0.0,0.0,0.0,0.0,-177.9047,-177.2737,0.0045,True,False,Mode(963497464),0.0439,43,0.6716
2.345,THRUST_SEARCH,OPEN_LOOP,-0.0008,-0.00082,-0.00425,-0.00082,0.0,-0.01262,0.6738,0.6738,0.6738,,0.67,,False,0.0,0.0,0.0,0.0,0.0,-177.9047,-177.2849,0.0074,True,True,Mode(963497464),0.0552,43,0.6716
2.356,THRUST_SEARCH,OPEN_LOOP,-0.0012,-0.00123,-0.00396,-0.00123,0.0,-0.0137,0.6743,0.6743,0.6743,,0.67,,False,0.0,0.0,0.0,0.0,0.0,-177.9047,-177.1202,0.0036,True,False,Mode(963497464),0.0668,44,0.6738
2.367,THRUST_SEARCH,OPEN_LOOP,-0.0016,-0.00155,-0.00338,-0.00155,0.0,-0.01442,0.6747,0.6747,0.6747,,0.67,,False,0.0,0.0,0.0,0.0,0.0,-177.9047,-176.9891,0.006,True,False,Mode(963497464),0.0777,44,0.6738
2.378,THRUST_SEARCH,OPEN_LOOP,-0.0018,-0.00184,-0.00318,-0.00184,0.0,-0.01495,0.6751,0.6751,0.6751,,0.67,,False,0.0,0.0,0.0,0.0,0.0,-177.9047,-176.8344,0.008,True,False,Mode(963497464),0.0887,44,0.6738
2.389,THRUST_SEARCH,OPEN_LOOP,-0.0021,-0.00213,-0.00345,-0.00213,0.0,-0.01547,0.6756,0.6756,0.6756,,0.67,,False,0.0,0.0,0.0,0.0,0.0,-177.9047,-176.0849,0.004,True,False,Mode(963497464),0.0997,44,0.6738
2.4,THRUST_SEARCH,OPEN_LOOP,-0.0024,-0.00238,-0.00332,-0.00238,0.0,-0.01584,0.676,0.676,0.676,,0.67,,False,0.0,0.0,0.0,0.0,0.0,-177.9047,-175.7167,0.0061,True,True,Mode(963497464),0.1103,44,0.6738
2.411,THRUST_SEARCH,OPEN_LOOP,-0.0027,-0.00266,-0.00385,-0.00266,0.0,-0.0163,0.6764,0.6764,0.6764,,0.67,,False,0.0,0.0,0.0,0.0,0.0,-177.9047,-175.5478,0.008,True,False,Mode(963497464),0.1211,45,0.676
2.422,THRUST_SEARCH,OPEN_LOOP,-0.0029,-0.00289,-0.00339,-0.00289,0.0,-0.0165,0.6769,0.6769,0.6769,,0.67,,False,0.0,0.0,0.0,0.0,0.0,-177.9047,-175.1575,0.001,True,False,Mode(963497464),0.1321,45,0.676
2.432,THRUST_SEARCH,OPEN_LOOP,-0.0031,-0.00305,-0.00294,-0.00294,0.0,-0.01645,0.6773,0.6773,0.6773,,0.67,,False,0.0,0.0,0.0,0.0,0.0,-177.9047,-174.9552,0.0031,True,False,Mode(963497464),0.1427,45,0.676
2.443,THRUST_SEARCH,OPEN_LOOP,-0.0032,-0.00316,-0.0025,-0.0025,0.0,-0.01619,0.6777,0.6777,0.6777,,0.67,,False,0.0,0.0,0.0,0.0,0.0,-177.9047,-174.7753,0.0075,True,False,Mode(963497464),0.1531,45,0.676
2.454,THRUST_SEARCH,OPEN_LOOP,-0.0031,-0.0031,-0.00051,-0.00051,0.0,-0.01518,0.6781,0.6781,0.6781,,0.67,,False,0.0,0.0,0.0,0.0,0.0,-177.9047,-174.3545,0.001,True,True,Mode(963497464),0.164,45,0.676
2.465,THRUST_SEARCH,OPEN_LOOP,-0.0031,-0.00309,-0.00112,-0.00112,0.0,-0.01441,0.6786,0.6786,0.6786,,0.67,,False,0.0,0.0,0.0,0.0,0.0,-177.9047,-174.1095,0.004,True,False,Mode(963497464),0.1756,46,0.6781
2.476,THRUST_SEARCH,OPEN_LOOP,-0.003,-0.003,-0.00048,-0.00048,0.0,-0.01343,0.679,0.679,0.679,,0.67,,False,0.0,0.0,0.0,0.0,0.0,-177.9047,-174.0912,0.006,True,False,Mode(963497464),0.1861,46,0.6781
2.487,THRUST_SEARCH,OPEN_LOOP,-0.0029,-0.00286,0.00017,0.00017,0.0,-0.01224,0.6795,0.6795,0.6795,,0.67,,False,0.0,0.0,0.0,0.0,0.0,-177.9047,-174.2762,0.008,True,False,Mode(963497464),0.1971,46,0.6781
2.498,THRUST_SEARCH,OPEN_LOOP,-0.0025,-0.00247,0.00307,0.00307,0.0,-0.01007,0.6799,0.6799,0.6799,,0.67,,False,0.0,0.0,0.0,0.0,0.0,-177.9047,-174.5836,0.001,True,False,Mode(963497464),0.208,46,0.6781
2.51,THRUST_SEARCH,OPEN_LOOP,-0.002,-0.00204,0.00368,0.00368,0.0,-0.00783,0.6804,0.6804,0.6804,,0.67,,False,0.0,0.0,0.0,0.0,0.0,-177.9047,-174.4776,0.0065,True,True,Mode(963497464),0.2194,46,0.6781
2.52,THRUST_SEARCH,OPEN_LOOP,-0.0015,-0.00149,0.00527,0.00527,0.0,-0.00519,0.6808,0.6808,0.6808,,0.67,,False,0.0,0.0,0.0,0.0,0.0,-177.9047,-174.277,0.005,True,False,Mode(963497464),0.2299,47,0.6804
2.53,THRUST_SEARCH,OPEN_LOOP,-0.0008,-0.00083,0.00668,0.00668,0.0,-0.00225,0.6812,0.6812,0.6812,,0.67,,False,0.0,0.0,0.0,0.0,0.0,-177.9047,-173.669,0.0,True,False,Mode(963497464),0.2405,47,0.6804
2.541,THRUST_SEARCH,OPEN_LOOP,-0.0003,-0.00025,0.00617,0.00617,0.0,0.00025,0.6816,0.6816,0.6816,,0.67,,False,0.0,0.0,0.0,0.0,0.0,-177.9047,-173.4054,0.0045,True,False,Mode(963497464),0.251,47,0.6804
2.552,THRUST_SEARCH,OPEN_LOOP,0.0004,0.00037,0.0069,0.0069,0.0,0.0028,0.6821,0.6821,0.6821,,0.67,,False,0.0,0.0,0.0,0.0,0.0,-177.9047,-173.2566,0.005,True,False,Mode(963497464),0.2619,47,0.6804
2.562,THRUST_SEARCH,OPEN_LOOP,0.0011,0.00105,0.00804,0.00804,0.0,0.00551,0.6825,0.6825,0.6825,,0.67,,False,0.0,0.0,0.0,0.0,0.0,-177.9047,-173.2664,0.001,True,True,Mode(963497464),0.2725,47,0.6804
2.573,THRUST_SEARCH,OPEN_LOOP,0.0018,0.00176,0.00869,0.00869,0.0,0.00821,0.6829,0.6829,0.6829,,0.67,,False,0.0,0.0,0.0,0.0,0.0,-177.9047,-173.2397,0.003,True,False,Mode(963497464),0.2835,48,0.6825
2.584,THRUST_SEARCH,OPEN_LOOP,0.0025,0.00249,0.00921,0.00921,0.0,0.01083,0.6834,0.6834,0.6834,,0.67,,False,0.0,0.0,0.0,0.0,0.0,-177.9047,-173.1555,0.005,True,False,Mode(963497464),0.2945,48,0.6825
2.595,THRUST_SEARCH,OPEN_LOOP,0.0033,0.00326,0.01021,0.01021,0.0,0.01354,0.6838,0.6838,0.6838,,0.67,,False,0.0,0.0,0.0,0.0,0.0,-177.9047,-172.9798,0.001,True,False,Mode(963497464),0.3053,48,0.6825
2.606,THRUST_SEARCH,OPEN_LOOP,0.004,0.00397,0.00992,0.00992,0.0,0.01586,0.6842,0.6842,0.6842,,0.67,,False,0.0,0.0,0.0,0.0,0.0,-177.9047,-172.8578,0.003,True,False,Mode(963497464),0.3162,48,0.6825
2.616,THRUST_SEARCH,OPEN_LOOP,0.0046,0.00457,0.00929,0.00929,0.0,0.01769,0.6847,0.6847,0.6847,,0.67,,False,0.0,0.0,0.0,0.0,0.0,-177.9047,-172.7439,0.0045,True,True,Mode(963497464),0.3267,48,0.6825
2.627,THRUST_SEARCH,OPEN_LOOP,0.0052,0.00518,0.00959,0.00959,0.0,0.0194,0.6851,0.6851,0.6851,,0.67,,False,0.0,0.0,0.0,0.0,0.0,-177.9047,-172.7319,0.007,True,False,Mode(963497464),0.3377,49,0.6847
2.639,THRUST_SEARCH,OPEN_LOOP,0.0058,0.00578,0.00997,0.00997,0.0,0.02103,0.6855,0.6855,0.6855,,0.67,,False,0.0,0.0,0.0,0.0,0.0,-177.9047,-172.7666,0.009,True,False,Mode(963497464),0.3482,49,0.6847
2.648,THRUST_SEARCH,OPEN_LOOP,0.0064,0.0064,0.01065,0.01065,0.0,0.02268,0.6859,0.6859,0.6859,,0.67,,False,0.0,0.0,0.0,0.0,0.0,-177.9047,-172.6783,0.0045,True,False,Mode(963497464),0.3587,49,0.6847
2.659,THRUST_SEARCH,OPEN_LOOP,0.007,0.00703,0.01108,0.01108,0.0,0.02425,0.6864,0.6864,0.6864,,0.67,,False,0.0,0.0,0.0,0.0,0.0,-177.9047,-172.641,0.007,True,False,Mode(963497464),0.3697,49,0.6847
2.671,THRUST_SEARCH,OPEN_LOOP,0.0076,0.00762,0.01106,0.01106,0.0,0.02558,0.6868,0.6868,0.6868,,0.67,,False,0.0,0.0,0.0,0.0,0.0,-177.9047,-172.7792,0.009,True,True,Mode(963497464),0.3807,49,0.6847
2.681,THRUST_SEARCH,OPEN_LOOP,0.0081,0.00809,0.01031,0.01031,0.0,0.02644,0.6872,0.6872,0.6872,,0.67,,False,0.0,0.0,0.0,0.0,0.0,-177.9047,-173.1493,0.0015,True,False,Mode(963497464),0.3912,50,0.6868
2.692,THRUST_SEARCH,OPEN_LOOP,0.0085,0.00852,0.01,0.01,0.0,0.02702,0.6877,0.6877,0.6877,,0.67,,False,0.0,0.0,0.0,0.0,0.0,-177.9047,-173.3979,0.0061,True,False,Mode(963497464),0.4023,50,0.6868
2.703,THRUST_SEARCH,OPEN_LOOP,0.0089,0.00895,0.01034,0.01034,0.0,0.02756,0.6881,0.6881,0.6881,,0.67,,False,0.0,0.0,0.0,0.0,0.0,-177.9047,-173.7437,0.008,True,False,Mode(963497464),0.4131,50,0.6868
2.714,THRUST_SEARCH,OPEN_LOOP,0.0093,0.00929,0.00964,0.00964,0.0,0.0277,0.6885,0.6885,0.6885,,0.67,,False,0.0,0.0,0.0,0.0,0.0,-177.9047,-174.0281,0.001,True,False,Mode(963497464),0.4241,50,0.6868
2.725,THRUST_SEARCH,OPEN_LOOP,0.0096,0.00961,0.00985,0.00985,0.0,0.02779,0.689,0.689,0.689,,0.67,,False,0.0,0.0,0.0,0.0,0.0,-177.9047,-173.9296,0.006,True,True,Mode(963497464),0.4351,50,0.6868
2.735,THRUST_SEARCH,OPEN_LOOP,0.0099,0.00989,0.00979,0.00989,0.0,0.02775,0.6894,0.6894,0.6894,,0.67,,False,0.0,0.0,0.0,0.0,0.0,-177.9047,-173.8075,0.005,True,False,Mode(963497464),0.4456,51,0.689
2.746,THRUST_SEARCH,OPEN_LOOP,0.0101,0.01012,0.00927,0.01012,0.0,0.02742,0.6898,0.6898,0.6898,,0.67,,False,0.0,0.0,0.0,0.0,0.0,-177.9047,-173.7483,0.01,True,False,Mode(963497464),0.4565,51,0.689
2.757,THRUST_SEARCH,OPEN_LOOP,0.0102,0.0102,0.00785,0.0102,0.0,0.02651,0.6903,0.6903,0.6903,,0.67,,False,0.0,0.0,0.0,0.0,0.0,-177.9047,-173.8857,0.004,True,False,Mode(963497464),0.4675,51,0.689
2.768,THRUST_SEARCH,OPEN_LOOP,0.0102,0.01022,0.00736,0.01022,0.0,0.02539,0.6907,0.6907,0.6907,,0.67,,False,0.0,0.0,0.0,0.0,0.0,-177.9047,-174.167,0.0062,True,False,Mode(963497464),0.4787,51,0.689
2.779,THRUST_SEARCH,OPEN_LOOP,0.0102,0.0102,0.00712,0.0102,0.0,0.0242,0.6911,0.6911,0.6911,,0.67,,False,0.0,0.0,0.0,0.0,0.0,-177.9047,-174.5484,0.0075,True,True,Mode(963497464),0.489,51,0.689
2.79,THRUST_SEARCH,OPEN_LOOP,0.0101,0.0101,0.00622,0.0101,0.0,0.02269,0.6916,0.6916,0.6916,,0.67,,False,0.0,0.0,0.0,0.0,0.0,-177.9047,-174.9846,0.004,True,False,Mode(963497464),0.4999,52,0.6911
2.8,THRUST_SEARCH,OPEN_LOOP,0.01,0.00995,0.00585,0.00995,0.0,0.0211,0.692,0.692,0.692,,0.67,,False,0.0,0.0,0.0,0.0,0.0,-177.9047,-174.9722,0.006,True,False,Mode(963497464),0.5104,52,0.6911
2.811,THRUST_SEARCH,OPEN_LOOP,0.0098,0.00975,0.00514,0.00975,0.0,0.01931,0.6924,0.6924,0.6924,,0.67,,False,0.0,0.0,0.0,0.0,0.0,-177.9047,-174.9155,0.008,True,False,Mode(963497464),0.5214,52,0.6911
2.822,THRUST_SEARCH,OPEN_LOOP,0.0093,0.00931,0.0024,0.00931,0.0,0.01663,0.6929,0.6929,0.6929,,0.67,,False,0.0,0.0,0.0,0.0,0.0,-177.9047,-174.8275,0.001,True,False,Mode(963497464),0.5323,52,0.6911
2.833,THRUST_SEARCH,OPEN_LOOP,0.0088,0.00882,0.00166,0.00882,0.0,0.01384,0.6933,0.6933,0.6933,,0.67,,False,0.0,0.0,0.0,0.0,0.0,-177.9047,-174.9804,0.006,True,True,Mode(963497464),0.5433,52,0.6911
2.843,THRUST_SEARCH,OPEN_LOOP,0.0084,0.00839,0.0022,0.00839,0.0,0.01144,0.6937,0.6937,0.6937,,0.67,,False,0.0,0.0,0.0,0.0,0.0,-177.9047,-175.3978,0.0075,True,False,Mode(963497464),0.5538,53,0.6933
2.854,THRUST_SEARCH,OPEN_LOOP,0.0078,0.00781,0.00027,0.00781,0.0,0.00851,0.6942,0.6942,0.6942,,0.67,,False,0.0,0.0,0.0,0.0,0.0,-177.9047,-176.2854,0.001,True,False,Mode(963497464),0.5648,53,0.6933
2.865,THRUST_SEARCH,OPEN_LOOP,0.0072,0.00717,-0.00063,0.00717,0.0,0.0055,0.6946,0.6946,0.6946,,0.67,,False,0.0,0.0,0.0,0.0,0.0,-177.9047,-176.4322,0.003,True,False,Mode(963497464),0.5752,53,0.6933
2.875,THRUST_SEARCH,OPEN_LOOP,0.0065,0.00654,-0.00081,0.00654,0.0,0.00266,0.695,0.695,0.695,,0.67,,False,0.0,0.0,0.0,0.0,0.0,-177.9047,-176.4764,0.0045,True,False,Mode(963497464),0.5857,53,0.6933
2.887,THRUST_SEARCH,OPEN_LOOP,0.0058,0.00578,-0.00265,0.00578,0.0,-0.00062,0.6955,0.6955,0.6955,,0.67,,False,0.0,0.0,0.0,0.0,0.0,-177.9047,-176.3557,0.0015,True,True,Mode(963497464),0.5972,53,0.6933
2.898,THRUST_SEARCH,OPEN_LOOP,0.0049,0.00491,-0.00432,0.00491,0.0,-0.00421,0.6959,0.6959,0.6959,,0.67,,False,0.0,0.0,0.0,0.0,0.0,-177.9047,-176.3823,0.003,True,False,Mode(963497464),0.6082,54,0.6955
2.908,THRUST_SEARCH,OPEN_LOOP,0.004,0.004,-0.00519,0.004,0.0,-0.00777,0.6963,0.6963,0.6963,,0.67,,False,0.0,0.0,0.0,0.0,0.0,-177.9047,-176.5887,0.0045,True,False,Mode(963497464),0.6187,54,0.6955
2.919,THRUST_SEARCH,OPEN_LOOP,0.0031,0.00309,-0.00568,0.00309,0.0,-0.01117,0.6968,0.6968,0.6968,,0.67,,False,0.0,0.0,0.0,0.0,0.0,-177.9047,-177.0645,0.006,True,False,Mode(963497464),0.6296,54,0.6955
2.93,THRUST_SEARCH,OPEN_LOOP,0.002,0.00205,-0.00788,0.00205,0.0,-0.01502,0.6972,0.6972,0.6972,,0.67,,False,0.0,0.0,0.0,0.0,0.0,-177.9047,-178.0607,0.0017,True,False,Mode(963497464),0.6401,54,0.6955
2.942,THRUST_SEARCH,OPEN_LOOP,0.001,0.001,-0.00838,0.001,0.0,-0.01866,0.6976,0.6976,0.6976,,0.67,,False,0.0,0.0,0.0,0.0,0.0,-177.9047,-178.4156,0.003,True,True,Mode(963497464),0.6513,54,0.6955
2.952,THRUST_SEARCH,OPEN_LOOP,-0.0001,-5e-05,-0.00912,-5e-05,0.0,-0.02218,0.6981,0.6981,0.6981,,0.67,,False,0.0,0.0,0.0,0.0,0.0,-177.9047,-178.6488,0.005,True,False,Mode(963497464),0.6622,55,0.6976
2.962,THRUST_SEARCH,OPEN_LOOP,-0.0012,-0.00118,-0.01069,-0.00118,0.0,-0.02587,0.6985,0.6985,0.6985,,0.67,,False,0.0,0.0,0.0,0.0,0.0,-177.9047,-179.1124,0.001,True,False,Mode(963497464),0.6728,55,0.6976
2.973,THRUST_SEARCH,OPEN_LOOP,-0.0022,-0.00222,-0.0103,-0.00222,0.0,-0.02901,0.6989,0.6989,0.6989,,0.67,,False,0.0,0.0,0.0,0.0,0.0,-177.9047,-179.6429,0.001,True,False,Mode(963497464),0.6837,55,0.6976
2.984,THRUST_SEARCH,OPEN_LOOP,-0.003,-0.00298,-0.00786,-0.00298,0.0,-0.0309,0.6994,0.6994,0.6994,,0.67,,False,0.0,0.0,0.0,0.0,0.0,-177.9047,-179.9662,0.006,True,False,Mode(963497464),0.6942,55,0.6976
2.995,THRUST_SEARCH,OPEN_LOOP,-0.0034,-0.00344,-0.00474,-0.00344,0.0,-0.0314,0.6998,0.6998,0.6998,,0.67,,False,0.0,0.0,0.0,0.0,0.0,-177.9047,-179.8399,0.008,True,True,Mode(963497464),0.7052,55,0.6976
3.006,THRUST_SEARCH,OPEN_LOOP,-0.0035,-0.00354,-0.00095,-0.00095,0.0,-0.03039,0.7002,0.7002,0.7002,,0.67,,False,0.0,0.0,0.0,0.0,0.0,-177.9047,-178.7352,0.004,True,False,Mode(963497464),0.7162,56,0.6998
3.017,THRUST_SEARCH,OPEN_LOOP,-0.0035,-0.00347,0.00084,0.00084,0.0,-0.02871,0.7007,0.7007,0.7007,,0.67,,False,0.0,0.0,0.0,0.0,0.0,-177.9047,-178.1039,0.006,True,False,Mode(963497464),0.7272,56,0.6998
3.028,THRUST_SEARCH,OPEN_LOOP,-0.0032,-0.00322,0.00288,0.00288,0.0,-0.02634,0.7011,0.7011,0.7011,,0.67,,False,0.0,0.0,0.0,0.0,0.0,-177.9047,-177.7131,0.008,True,False,Mode(963497464),0.7382,56,0.6998
3.038,THRUST_SEARCH,OPEN_LOOP,-0.0027,-0.00269,0.0058,0.0058,0.0,-0.02304,0.7015,0.7015,0.7015,,0.67,,False,0.0,0.0,0.0,0.0,0.0,-177.9047,-177.6446,0.001,True,False,Mode(963497464),0.7487,56,0.6998
3.049,THRUST_SEARCH,OPEN_LOOP,-0.002,-0.002,0.00815,0.00815,0.0,-0.0191,0.702,0.702,0.702,,0.67,,False,0.0,0.0,0.0,0.0,0.0,-177.9047,-177.8398,0.003,True,True,Mode(963497464),0.7596,56,0.6998
3.06,THRUST_SEARCH,OPEN_LOOP,-0.0012,-0.00118,0.00968,0.00968,0.0,-0.01487,0.7024,0.7024,0.7024,,0.67,,False,0.0,0.0,0.0,0.0,0.0,-177.9047,-177.9813,0.008,True,False,Mode(963497464),0.7706,57,0.702
3.071,THRUST_SEARCH,OPEN_LOOP,-0.0002,-0.00019,0.01217,0.01217,0.0,-0.01006,0.7028,0.7028,0.7028,,0.67,,False,0.0,0.0,0.0,0.0,0.0,-177.9047,-177.6373,0.001,True,False,Mode(963497464),0.7816,57,0.702
3.082,THRUST_SEARCH,OPEN_LOOP,0.0008,0.00081,0.01257,0.01257,0.0,-0.00548,0.7033,0.7033,0.7033,,0.67,,False,0.0,0.0,0.0,0.0,0.0,-177.9047,-177.0428,0.003,True,False,Mode(963497464),0.7926,57,0.702
3.093,THRUST_SEARCH,OPEN_LOOP,0.002,0.00197,0.01484,0.01484,0.0,-0.00045,0.7037,0.7037,0.7037,,0.67,,False,0.0,0.0,0.0,0.0,0.0,-177.9047,-176.485,0.008,True,False,Mode(963497464),0.8035,57,0.702
3.104,THRUST_SEARCH,OPEN_LOOP,0.0033,0.00328,0.01723,0.01723,0.0,0.00499,0.7042,0.7042,0.7042,,0.67,,False,0.0,0.0,0.0,0.0,0.0,-177.9047,-175.917,0.001,True,True,Mode(963497464),0.8145,57,0.702
3.115,THRUST_SEARCH,OPEN_LOOP,0.0047,0.00467,0.01882,0.01882,0.0,0.01052,0.7046,0.7046,0.7046,,0.67,,False,0.0,0.0,0.0,0.0,0.0,-177.9047,-175.9682,0.003,True,False,Mode(963497464),0.8254,58,0.7042
3.126,THRUST_SEARCH,OPEN_LOOP,0.0061,0.00607,0.01968,0.01968,0.0,0.01584,0.705,0.705,0.705,,0.67,,False,0.0,0.0,0.0,0.0,0.0,-177.9047,-176.1543,0.005,True,False,Mode(963497464),0.8364,58,0.7042
3.137,THRUST_SEARCH,OPEN_LOOP,0.0075,0.00747,0.02039,0.02039,0.0,0.02092,0.7055,0.7055,0.7055,,0.67,,False,0.0,0.0,0.0,0.0,0.0,-177.9047,-176.334,0.006,True,False,Mode(963497464),0.8478,58,0.7042
3.148,THRUST_SEARCH,OPEN_LOOP,0.0089,0.00889,0.0215,0.0215,0.0,0.02585,0.7059,0.7059,0.7059,,0.67,,False,0.0,0.0,0.0,0.0,0.0,-177.9047,-176.337,0.0015,True,False,Mode(963497464),0.8583,58,0.7042
3.16,THRUST_SEARCH,OPEN_LOOP,0.0103,0.01026,0.02183,0.02183,0.0,0.03038,0.7064,0.7064,0.7064,,0.67,,False,0.0,0.0,0.0,0.0,0.0,-177.9047,-176.1851,0.006,True,True,Mode(963497464),0.8693,58,0.7042
3.169,THRUST_SEARCH,OPEN_LOOP,0.0116,0.01161,0.02257,0.02257,0.0,0.03466,0.7068,0.7068,0.7068,,0.67,,False,0.0,0.0,0.0,0.0,0.0,-177.9047,-176.0933,0.0075,True,False,Mode(963497464),0.8798,59,0.7064
3.18,THRUST_SEARCH,OPEN_LOOP,0.0131,0.01311,0.02492,0.02492,0.0,0.03927,0.7072,0.7072,0.7072,,0.67,,False,0.0,0.0,0.0,0.0,0.0,-177.9047,-176.2946,0.001,True,False,Mode(963497464),0.8908,59,0.7064
3.191,THRUST_SEARCH,OPEN_LOOP,0.0146,0.01464,0.02637,0.02637,0.0,0.04385,0.7077,0.7077,0.7077,,0.67,,False,0.0,0.0,0.0,0.0,0.0,-177.9047,-176.5234,0.006,True,False,Mode(963497464),0.9017,59,0.7064
3.202,THRUST_SEARCH,OPEN_LOOP,0.0161,0.01612,0.02663,0.02663,0.0,0.04795,0.7081,0.7081,0.7081,,0.67,,False,0.0,0.0,0.0,0.0,0.0,-177.9047,-176.681,0.008,True,False,Mode(963497464),0.9127,59,0.7064
3.213,THRUST_SEARCH,OPEN_LOOP,0.0176,0.01757,0.02742,0.02742,0.0,0.05181,0.7085,0.7085,0.7085,,0.67,,False,0.0,0.0,0.0,0.0,0.0,-177.9047,-177.0763,0.001,True,True,Mode(963497464),0.9236,59,0.7064
3.224,THRUST_SEARCH,OPEN_LOOP,0.0189,0.01889,0.0268,0.0268,0.0,0.0549,0.709,0.709,0.709,,0.67,,False,0.0,0.0,0.0,0.0,0.0,-177.9047,-177.2877,0.003,True,False,Mode(963497464),0.9346,60,0.7085
3.235,THRUST_SEARCH,OPEN_LOOP,0.0202,0.02017,0.02729,0.02729,0.0,0.05769,0.7094,0.7094,0.7094,,0.67,,False,0.0,0.0,0.0,0.0,0.0,-177.9047,-177.4737,0.008,True,False,Mode(963497464),0.9456,60,0.7085
3.246,THRUST_SEARCH,OPEN_LOOP,0.0215,0.02152,0.02916,0.02916,0.0,0.06068,0.7098,0.7098,0.7098,,0.67,,False,0.0,0.0,0.0,0.0,0.0,-177.9047,-177.8624,0.001,True,False,Mode(963497464),0.9566,60,0.7085
3.257,THRUST_SEARCH,OPEN_LOOP,0.0229,0.02289,0.0303,0.0303,0.0,0.06359,0.7103,0.7103,0.7103,,0.67,,False,0.0,0.0,0.0,0.0,0.0,-177.9047,-178.0108,0.003,True,False,Mode(963497464),0.9675,60,0.7085
