time,state,controller_mode,target_z,curr_z,raw_z,height_for_safety,target_vz,curr_vz,thrust,raw_thrust,search_thrust,liftoff_thrust,hover_thrust_est,thrust_no_floor,floor_applied,a_cmd_z,v_cmd_z,z_integral,roll_cmd_deg,pitch_cmd_deg,yaw_cmd_deg,yaw_mocap_deg,mocap_age,kf_used_measurement,mavlink_sent,mav_mode,mav_heartbeat_age,mav_send_count,mav_last_thrust
0.002,THRUST_SEARCH,OPEN_LOOP,0.0,5e-05,6e-05,6e-05,0.0,1e-05,0.58,0.58,0.58,,0.67,,False,0.0,0.0,0.0,0.0,0.0,-177.7386,-177.7653,0.002,True,True,Mode(963497464),0.0,0,
0.011,THRUST_SEARCH,OPEN_LOOP,0.0001,6e-05,8e-05,8e-05,0.0,7e-05,0.5804,0.5804,0.5804,,0.67,,False,0.0,0.0,0.0,0.0,0.0,-177.7386,-177.7525,0.004,True,False,Mode(963497464),0.011,1,0.58
0.021,THRUST_SEARCH,OPEN_LOOP,0.0,4e-05,-2e-05,4e-05,0.0,-0.00016,0.5809,0.5809,0.5809,,0.67,,False,0.0,0.0,0.0,0.0,0.0,-177.7386,-177.7509,0.009,True,False,Mode(963497464),0.0214,1,0.58
0.032,THRUST_SEARCH,OPEN_LOOP,0.0,5e-05,8e-05,8e-05,0.0,1e-05,0.5813,0.5813,0.5813,,0.67,,False,0.0,0.0,0.0,0.0,0.0,-177.7386,-177.7522,0.0045,True,False,Mode(963497464),0.0319,1,0.58
0.043,THRUST_SEARCH,OPEN_LOOP,0.0001,6e-05,8e-05,8e-05,0.0,0.00016,0.5817,0.5817,0.5817,,0.67,,False,0.0,0.0,0.0,0.0,0.0,-177.7386,-177.7502,0.007,True,False,Mode(963497464),0.0429,1,0.58
0.055,THRUST_SEARCH,OPEN_LOOP,0.0,4e-05,0.0,4e-05,0.0,-9e-05,0.5822,0.5822,0.5822,,0.67,,False,0.0,0.0,0.0,0.0,0.0,-177.7386,-177.7569,0.009,True,True,Mode(963497464),0.0539,1,0.58
0.064,THRUST_SEARCH,OPEN_LOOP,0.0,5e-05,6e-05,6e-05,0.0,-1e-05,0.5826,0.5826,0.5826,,0.67,,False,0.0,0.0,0.0,0.0,0.0,-177.7386,-177.751,0.0015,True,False,Mode(963497464),0.0644,2,0.5822
0.075,THRUST_SEARCH,OPEN_LOOP,0.0001,5e-05,7e-05,7e-05,0.0,9e-05,0.583,0.583,0.583,,0.67,,False,0.0,0.0,0.0,0.0,0.0,-177.7386,-177.7077,0.006,True,False,Mode(963497464),0.0754,2,0.5822
0.086,THRUST_SEARCH,OPEN_LOOP,0.0001,6e-05,8e-05,8e-05,0.0,0.00018,0.5835,0.5835,0.5835,,0.67,,False,0.0,0.0,0.0,0.0,0.0,-177.7386,-177.7217,0.008,True,False,Mode(963497464),0.0863,2,0.5822
0.097,THRUST_SEARCH,OPEN_LOOP,0.0001,7e-05,8e-05,8e-05,0.0,0.00025,0.5839,0.5839,0.5839,,0.67,,False,0.0,0.0,0.0,0.0,0.0,-177.7386,-177.7327,0.001,True,False,Mode(963497464),0.0973,2,0.5822
0.108,THRUST_SEARCH,OPEN_LOOP,0.0001,6e-05,2e-05,6e-05,0.0,8e-05,0.5843,0.5843,0.5843,,0.67,,False,0.0,0.0,0.0,0.0,0.0,-177.7386,-177.7412,0.003,True,True,Mode(963497464),0.1079,2,0.5822
0.119,THRUST_SEARCH,OPEN_LOOP,0.0,4e-05,-1e-05,4e-05,0.0,-0.00012,0.5848,0.5848,0.5848,,0.67,,False,0.0,0.0,0.0,0.0,0.0,-177.7386,-177.74,0.008,True,False,Mode(963497464),0.1188,3,0.5843
0.13,THRUST_SEARCH,OPEN_LOOP,0.0,3e-05,-1e-05,3e-05,0.0,-0.00024,0.5852,0.5852,0.5852,,0.67,,False,0.0,0.0,0.0,0.0,0.0,-177.7386,-177.6945,0.001,True,False,Mode(963497464),0.1298,3,0.5843
0.141,THRUST_SEARCH,OPEN_LOOP,0.0,3e-05,4e-05,4e-05,0.0,-0.00022,0.5856,0.5856,0.5856,,0.67,,False,0.0,0.0,0.0,0.0,0.0,-177.7386,-177.7059,0.003,True,False,Mode(963497464),0.1408,3,0.5843
0.152,THRUST_SEARCH,OPEN_LOOP,0.0,3e-05,6e-05,6e-05,0.0,-0.00014,0.5861,0.5861,0.5861,,0.67,,False,0.0,0.0,0.0,0.0,0.0,-177.7386,-177.7169,0.005,True,False,Mode(963497464),0.1518,3,0.5843
0.163,THRUST_SEARCH,OPEN_LOOP,0.0,4e-05,8e-05,8e-05,0.0,-6e-05,0.5865,0.5865,0.5865,,0.67,,False,0.0,0.0,0.0,0.0,0.0,-177.7386,-177.7352,0.001,True,True,Mode(963497464),0.1627,3,0.5843
0.174,THRUST_SEARCH,OPEN_LOOP,0.0,3e-05,-1e-05,3e-05,0.0,-0.00015,0.5869,0.5869,0.5869,,0.67,,False,0.0,0.0,0.0,0.0,0.0,-177.7386,-177.7439,0.003,True,False,Mode(963497464),0.1737,4,0.5865
0.184,THRUST_SEARCH,OPEN_LOOP,0.0,2e-05,-3e-05,2e-05,0.0,-0.00024,0.5874,0.5874,0.5874,,0.67,,False,0.0,0.0,0.0,0.0,0.0,-177.7386,-177.7491,0.0045,True,False,Mode(963497464),0.1842,4,0.5865
0.195,THRUST_SEARCH,OPEN_LOOP,0.0,3e-05,0.00011,0.00011,0.0,-0.00011,0.5878,0.5878,0.5878,,0.67,,False,0.0,0.0,0.0,0.0,0.0,-177.7386,-177.7329,0.0006,True,False,Mode(963497464),0.1947,4,0.5865
0.206,THRUST_SEARCH,OPEN_LOOP,0.0,2e-05,-1e-05,2e-05,0.0,-0.00016,0.5882,0.5882,0.5882,,0.67,,False,0.0,0.0,0.0,0.0,0.0,-177.7386,-177.7351,0.003,True,False,Mode(963497464),0.2057,4,0.5865
0.217,THRUST_SEARCH,OPEN_LOOP,0.0,3e-05,6e-05,6e-05,0.0,-0.00012,0.5887,0.5887,0.5887,,0.67,,False,0.0,0.0,0.0,0.0,0.0,-177.7386,-177.737,0.005,True,True,Mode(963497464),0.2167,4,0.5865
0.228,THRUST_SEARCH,OPEN_LOOP,0.0,3e-05,6e-05,6e-05,0.0,-9e-05,0.5891,0.5891,0.5891,,0.67,,False,0.0,0.0,0.0,0.0,0.0,-177.7386,-177.7459,0.0069,True,False,Mode(963497464),0.2276,5,0.5887
0.239,THRUST_SEARCH,OPEN_LOOP,0.0,3e-05,3e-05,3e-05,0.0,-8e-05,0.5895,0.5895,0.5895,,0.67,,False,0.0,0.0,0.0,0.0,0.0,-177.7386,-177.757,0.002,True,False,Mode(963497464),0.2386,5,0.5887
0.249,THRUST_SEARCH,OPEN_LOOP,0.0,3e-05,5e-05,5e-05,0.0,-7e-05,0.59,0.59,0.59,,0.67,,False,0.0,0.0,0.0,0.0,0.0,-177.7386,-177.7607,0.0037,True,False,Mode(963497464),0.2493,5,0.5887
0.26,THRUST_SEARCH,OPEN_LOOP,0.0,3e-05,1e-05,3e-05,0.0,-8e-05,0.5904,0.5904,0.5904,,0.67,,False,0.0,0.0,0.0,0.0,0.0,-177.7386,-177.7567,0.006,True,False,Mode(963497464),0.2602,5,0.5887
0.271,THRUST_SEARCH,OPEN_LOOP,0.0,5e-05,0.00014,0.00014,0.0,1e-05,0.5908,0.5908,0.5908,,0.67,,False,0.0,0.0,0.0,0.0,0.0,-177.7386,-177.7422,0.001,True,True,Mode(963497464),0.2712,5,0.5887
0.283,THRUST_SEARCH,OPEN_LOOP,0.0,5e-05,6e-05,6e-05,0.0,2e-05,0.5913,0.5913,0.5913,,0.67,,False,0.0,0.0,0.0,0.0,0.0,-177.7386,-177.7496,0.0031,True,False,Mode(963497464),0.2823,6,0.5908
0.293,THRUST_SEARCH,OPEN_LOOP,0.0,4e-05,2e-05,4e-05,0.0,0.0,0.5917,0.5917,0.5917,,0.67,,False,0.0,0.0,0.0,0.0,0.0,-177.7386,-177.7479,0.0045,True,False,Mode(963497464),0.2928,6,0.5908
0.304,THRUST_SEARCH,OPEN_LOOP,0.0001,5e-05,9e-05,9e-05,0.0,3e-05,0.5922,0.5922,0.5922,,0.67,,False,0.0,0.0,0.0,0.0,0.0,-177.7386,-177.7174,0.0,True,False,Mode(963497464),0.3038,6,0.5908
0.314,THRUST_SEARCH,OPEN_LOOP,0.0,5e-05,2e-05,5e-05,0.0,1e-05,0.5926,0.5926,0.5926,,0.67,,False,0.0,0.0,0.0,0.0,0.0,-177.7386,-177.7258,0.0015,True,False,Mode(963497464),0.3143,6,0.5908
0.325,THRUST_SEARCH,OPEN_LOOP,0.0,4e-05,2e-05,4e-05,0.0,-0.0,0.593,0.593,0.593,,0.67,,False,0.0,0.0,0.0,0.0,0.0,-177.7386,-177.7329,0.004,True,True,Mode(963497464),0.3252,6,0.5908
0.336,THRUST_SEARCH,OPEN_LOOP,0.0,4e-05,4e-05,4e-05,0.0,-0.0,0.5935,0.5935,0.5935,,0.67,,False,0.0,0.0,0.0,0.0,0.0,-177.7386,-177.7442,0.001,True,False,Mode(963497464),0.3364,7,0.593
0.347,THRUST_SEARCH,OPEN_LOOP,0.0,4e-05,5e-05,5e-05,0.0,0.0,0.5939,0.5939,0.5939,,0.67,,False,0.0,0.0,0.0,0.0,0.0,-177.7386,-177.7524,0.0031,True,False,Mode(963497464),0.3475,7,0.593
0.358,THRUST_SEARCH,OPEN_LOOP,0.0,4e-05,-1e-05,4e-05,0.0,-3e-05,0.5943,0.5943,0.5943,,0.67,,False,0.0,0.0,0.0,0.0,0.0,-177.7386,-177.751,0.0045,True,False,Mode(963497464),0.3579,7,0.593
0.369,THRUST_SEARCH,OPEN_LOOP,0.0,3e-05,0.0,3e-05,0.0,-5e-05,0.5948,0.5948,0.5948,,0.67,,False,0.0,0.0,0.0,0.0,0.0,-177.7386,-177.7567,0.0074,True,False,Mode(963497464),0.3692,7,0.593
0.38,THRUST_SEARCH,OPEN_LOOP,0.0,4e-05,0.0001,0.0001,0.0,-1e-05,0.5952,0.5952,0.5952,,0.67,,False,0.0,0.0,0.0,0.0,0.0,-177.7386,-177.7439,0.0008,True,True,Mode(963497464),0.3799,7,0.593
0.391,THRUST_SEARCH,OPEN_LOOP,0.0,4e-05,2e-05,4e-05,0.0,-2e-05,0.5956,0.5956,0.5956,,0.67,,False,0.0,0.0,0.0,0.0,0.0,-177.7386,-177.6992,0.003,True,False,Mode(963497464),0.3909,8,0.5952
0.401,THRUST_SEARCH,OPEN_LOOP,0.0,4e-05,4e-05,4e-05,0.0,-2e-05,0.5961,0.5961,0.5961,,0.67,,False,0.0,0.0,0.0,0.0,0.0,-177.7386,-177.7043,0.0075,True,False,Mode(963497464),0.4014,8,0.5952
0.412,THRUST_SEARCH,OPEN_LOOP,0.0,4e-05,5e-05,5e-05,0.0,-2e-05,0.5965,0.5965,0.5965,,0.67,,False,0.0,0.0,0.0,0.0,0.0,-177.7386,-177.7184,0.0009,True,False,Mode(963497464),0.4123,8,0.5952
0.423,THRUST_SEARCH,OPEN_LOOP,0.0,4e-05,3e-05,4e-05,0.0,-2e-05,0.5969,0.5969,0.5969,,0.67,,False,0.0,0.0,0.0,0.0,0.0,-177.7386,-177.6783,0.003,True,False,Mode(963497464),0.4232,8,0.5952
0.434,THRUST_SEARCH,OPEN_LOOP,0.0,4e-05,1e-05,4e-05,0.0,-3e-05,0.5973,0.5973,0.5973,,0.67,,False,0.0,0.0,0.0,0.0,0.0,-177.7386,-177.6969,0.0045,True,True,Mode(963497464),0.4337,8,0.5952
0.445,THRUST_SEARCH,OPEN_LOOP,0.0,3e-05,2e-05,3e-05,0.0,-4e-05,0.5978,0.5978,0.5978,,0.67,,False,0.0,0.0,0.0,0.0,0.0,-177.7386,-177.709,0.007,True,False,Mode(963497464),0.4447,9,0.5973
0.456,THRUST_SEARCH,OPEN_LOOP,0.0,3e-05,-1e-05,3e-05,0.0,-5e-05,0.5982,0.5982,0.5982,,0.67,,False,0.0,0.0,0.0,0.0,0.0,-177.7386,-177.7292,0.003,True,False,Mode(963497464),0.4556,9,0.5973
0.466,THRUST_SEARCH,OPEN_LOOP,0.0,3e-05,4e-05,4e-05,0.0,-5e-05,0.5986,0.5986,0.5986,,0.67,,False,0.0,0.0,0.0,0.0,0.0,-177.7386,-177.7299,0.0045,True,False,Mode(963497464),0.4661,9,0.5973
0.477,THRUST_SEARCH,OPEN_LOOP,0.0,3e-05,-0.0,3e-05,0.0,-6e-05,0.5991,0.5991,0.5991,,0.67,,False,0.0,0.0,0.0,0.0,0.0,-177.7386,-177.7348,0.007,True,False,Mode(963497464),0.4771,9,0.5973
0.488,THRUST_SEARCH,OPEN_LOOP,0.0,3e-05,7e-05,7e-05,0.0,-5e-05,0.5995,0.5995,0.5995,,0.67,,False,0.0,0.0,0.0,0.0,0.0,-177.7386,-177.7417,0.0005,True,True,Mode(963497464),0.488,9,0.5973
0.499,THRUST_SEARCH,OPEN_LOOP,0.0,3e-05,8e-05,8e-05,0.0,-3e-05,0.6,0.6,0.6,,0.67,,False,0.0,0.0,0.0,0.0,0.0,-177.7386,-177.7467,0.003,True,False,Mode(963497464),0.499,10,0.5995
0.51,THRUST_SEARCH,OPEN_LOOP,0.0,3e-05,-1e-05,3e-05,0.0,-4e-05,0.6004,0.6004,0.6004,,0.67,,False,0.0,0.0,0.0,0.0,0.0,-177.7386,-177.7469,0.0045,True,False,Mode(963497464),0.5095,10,0.5995
0.52,THRUST_SEARCH,OPEN_LOOP,0.0,3e-05,2e-05,3e-05,0.0,-4e-05,0.6008,0.6008,0.6008,,0.67,,False,0.0,0.0,0.0,0.0,0.0,-177.7386,-177.7515,0.0001,True,False,Mode(963497464),0.5202,10,0.5995
0.531,THRUST_SEARCH,OPEN_LOOP,0.0,3e-05,6e-05,6e-05,0.0,-3e-05,0.6012,0.6012,0.6012,,0.67,,False,0.0,0.0,0.0,0.0,0.0,-177.7386,-177.7074,0.0015,True,False,Mode(963497464),0.5305,10,0.5995
0.541,THRUST_SEARCH,OPEN_LOOP,0.0,4e-05,9e-05,9e-05,0.0,-1e-05,0.6017,0.6017,0.6017,,0.67,,False,0.0,0.0,0.0,0.0,0.0,-177.7386,-177.6996,0.004,True,True,Mode(963497464),0.5415,10,0.5995
0.552,THRUST_SEARCH,OPEN_LOOP,0.0,3e-05,2e-05,3e-05,0.0,-2e-05,0.6021,0.6021,0.6021,,0.67,,False,0.0,0.0,0.0,0.0,0.0,-177.7386,-177.7084,0.0067,True,False,Mode(963497464),0.5523,11,0.6017
0.563,THRUST_SEARCH,OPEN_LOOP,0.0,3e-05,-3e-05,3e-05,0.0,-4e-05,0.6025,0.6025,0.6025,,0.67,,False,0.0,0.0,0.0,0.0,0.0,-177.7386,-177.7135,0.009,True,False,Mode(963497464),0.5633,11,0.6017
0.574,THRUST_SEARCH,OPEN_LOOP,0.0,3e-05,2e-05,3e-05,0.0,-5e-05,0.603,0.603,0.603,,0.67,,False,0.0,0.0,0.0,0.0,0.0,-177.7386,-177.734,0.005,True,False,Mode(963497464),0.5743,11,0.6017
0.585,THRUST_SEARCH,OPEN_LOOP,0.0,3e-05,5e-05,5e-05,0.0,-4e-05,0.6034,0.6034,0.6034,,0.67,,False,0.0,0.0,0.0,0.0,0.0,-177.7386,-177.7388,0.0066,True,False,Mode(963497464),0.5849,11,0.6017
0.597,THRUST_SEARCH,OPEN_LOOP,0.0,3e-05,1e-05,3e-05,0.0,-4e-05,0.6038,0.6038,0.6038,,0.67,,False,0.0,0.0,0.0,0.0,0.0,-177.7386,-177.7451,0.009,True,True,Mode(963497464),0.5958,11,0.6017
0.606,THRUST_SEARCH,OPEN_LOOP,0.0,2e-05,1e-05,2e-05,0.0,-5e-05,0.6043,0.6043,0.6043,,0.67,,False,0.0,0.0,0.0,0.0,0.0,-177.7386,-177.7099,0.0036,True,False,Mode(963497464),0.6064,12,0.6038
0.617,THRUST_SEARCH,OPEN_LOOP,0.0,2e-05,0.0,2e-05,0.0,-5e-05,0.6047,0.6047,0.6047,,0.67,,False,0.0,0.0,0.0,0.0,0.0,-177.7386,-177.6729,0.006,True,False,Mode(963497464),0.6174,12,0.6038
0.628,THRUST_SEARCH,OPEN_LOOP,0.0,3e-05,9e-05,9e-05,0.0,-3e-05,0.6051,0.6051,0.6051,,0.67,,False,0.0,0.0,0.0,0.0,0.0,-177.7386,-177.6911,0.008,True,False,Mode(963497464),0.6283,12,0.6038
0.639,THRUST_SEARCH,OPEN_LOOP,0.0,3e-05,1e-05,3e-05,0.0,-4e-05,0.6056,0.6056,0.6056,,0.67,,False,0.0,0.0,0.0,0.0,0.0,-177.7386,-177.7105,0.001,True,False,Mode(963497464),0.6393,12,0.6038
0.65,THRUST_SEARCH,OPEN_LOOP,0.0,3e-05,3e-05,3e-05,0.0,-3e-05,0.606,0.606,0.606,,0.67,,False,0.0,0.0,0.0,0.0,0.0,-177.7386,-177.7167,0.006,True,True,Mode(963497464),0.6503,12,0.6038
0.661,THRUST_SEARCH,OPEN_LOOP,0.0,2e-05,-1e-05,2e-05,0.0,-5e-05,0.6065,0.6065,0.6065,,0.67,,False,0.0,0.0,0.0,0.0,0.0,-177.7386,-177.7241,0.008,True,False,Mode(963497464),0.6613,13,0.606
0.672,THRUST_SEARCH,OPEN_LOOP,0.0,2e-05,3e-05,3e-05,0.0,-4e-05,0.6069,0.6069,0.6069,,0.67,,False,0.0,0.0,0.0,0.0,0.0,-177.7386,-177.731,0.001,True,False,Mode(963497464),0.6722,13,0.606
0.683,THRUST_SEARCH,OPEN_LOOP,0.0,2e-05,-1e-05,2e-05,0.0,-6e-05,0.6073,0.6073,0.6073,,0.67,,False,0.0,0.0,0.0,0.0,0.0,-177.7386,-177.7404,0.003,True,False,Mode(963497464),0.6832,13,0.606
0.694,THRUST_SEARCH,OPEN_LOOP,0.0,2e-05,0.0,2e-05,0.0,-6e-05,0.6078,0.6078,0.6078,,0.67,,False,0.0,0.0,0.0,0.0,0.0,-177.7386,-177.7394,0.008,True,False,Mode(963497464),0.0,13,0.606
0.705,THRUST_SEARCH,OPEN_LOOP,0.0,1e-05,-2e-05,1e-05,0.0,-7e-05,0.6082,0.6082,0.6082,,0.67,,False,0.0,0.0,0.0,0.0,0.0,-177.7386,-177.7294,0.001,True,True,Mode(963497464),0.011,13,0.606
0.716,THRUST_SEARCH,OPEN_LOOP,0.0,1e-05,1e-05,1e-05,0.0,-7e-05,0.6086,0.6086,0.6086,,0.67,,False,0.0,0.0,0.0,0.0,0.0,-177.7386,-177.7397,0.003,True,False,Mode(963497464),0.0219,14,0.6082
0.727,THRUST_SEARCH,OPEN_LOOP,0.0,2e-05,6e-05,6e-05,0.0,-6e-05,0.6091,0.6091,0.6091,,0.67,,False,0.0,0.0,0.0,0.0,0.0,-177.7386,-177.7406,0.0075,True,False,Mode(963497464),0.0324,14,0.6082
0.738,THRUST_SEARCH,OPEN_LOOP,0.0,1e-05,-3e-05,1e-05,0.0,-7e-05,0.6095,0.6095,0.6095,,0.67,,False,0.0,0.0,0.0,0.0,0.0,-177.7386,-177.7092,0.001,True,False,Mode(963497464),0.0434,14,0.6082
0.749,THRUST_SEARCH,OPEN_LOOP,0.0,2e-05,7e-05,7e-05,0.0,-5e-05,0.6099,0.6099,0.6099,,0.67,,False,0.0,0.0,0.0,0.0,0.0,-177.7386,-177.7193,0.003,True,False,Mode(963497464),0.0544,14,0.6082
0.759,THRUST_SEARCH,OPEN_LOOP,0.0,2e-05,6e-05,6e-05,0.0,-4e-05,0.6104,0.6104,0.6104,,0.67,,False,0.0,0.0,0.0,0.0,0.0,-177.7386,-177.7257,0.0045,True,True,Mode(963497464),0.0648,14,0.6082
0.77,THRUST_SEARCH,OPEN_LOOP,0.0,2e-05,6e-05,6e-05,0.0,-2e-05,0.6108,0.6108,0.6108,,0.67,,False,0.0,0.0,0.0,0.0,0.0,-177.7386,-177.7354,0.001,True,False,Mode(963497464),0.0758,15,0.6104
0.781,THRUST_SEARCH,OPEN_LOOP,0.0,2e-05,-4e-05,2e-05,0.0,-4e-05,0.6112,0.6112,0.6112,,0.67,,False,0.0,0.0,0.0,0.0,0.0,-177.7386,-177.7373,0.0031,True,False,Mode(963497464),0.0869,15,0.6104
0.792,THRUST_SEARCH,OPEN_LOOP,0.0,2e-05,5e-05,5e-05,0.0,-3e-05,0.6117,0.6117,0.6117,,0.67,,False,0.0,0.0,0.0,0.0,0.0,-177.7386,-177.7212,0.005,True,False,Mode(963497464),0.0978,15,0.6104
0.803,THRUST_SEARCH,OPEN_LOOP,0.0,2e-05,4e-05,4e-05,0.0,-3e-05,0.6121,0.6121,0.6121,,0.67,,False,0.0,0.0,0.0,0.0,0.0,-177.7386,-177.7273,0.0069,True,False,Mode(963497464),0.1088,15,0.6104
0.815,THRUST_SEARCH,OPEN_LOOP,0.0,2e-05,1e-05,2e-05,0.0,-3e-05,0.6126,0.6126,0.6126,,0.67,,False,0.0,0.0,0.0,0.0,0.0,-177.7386,-177.7395,0.003,True,True,Mode(963497464),0.1198,15,0.6104
0.825,THRUST_SEARCH,OPEN_LOOP,0.0,2e-05,-1e-05,2e-05,0.0,-4e-05,0.613,0.613,0.613,,0.67,,False,0.0,0.0,0.0,0.0,0.0,-177.7386,-177.7475,0.005,True,False,Mode(963497464),0.1307,16,0.6126
0.836,THRUST_SEARCH,OPEN_LOOP,0.0,2e-05,2e-05,2e-05,0.0,-4e-05,0.6134,0.6134,0.6134,,0.67,,False,0.0,0.0,0.0,0.0,0.0,-177.7386,-177.7542,0.0073,True,False,Mode(963497464),0.142,16,0.6126
0.847,THRUST_SEARCH,OPEN_LOOP,0.0,2e-05,2e-05,2e-05,0.0,-3e-05,0.6139,0.6139,0.6139,,0.67,,False,0.0,0.0,0.0,0.0,0.0,-177.7386,-177.7544,0.001,True,False,Mode(963497464),0.153,16,0.6126
0.858,THRUST_SEARCH,OPEN_LOOP,0.0,2e-05,7e-05,7e-05,0.0,-2e-05,0.6143,0.6143,0.6143,,0.67,,False,0.0,0.0,0.0,0.0,0.0,-177.7386,-177.748,0.003,True,False,Mode(963497464),0.1639,16,0.6126
0.869,THRUST_SEARCH,OPEN_LOOP,0.0,2e-05,6e-05,6e-05,0.0,-0.0,0.6147,0.6147,0.6147,,0.67,,False,0.0,0.0,0.0,0.0,0.0,-177.7386,-177.7487,0.0075,True,True,Mode(963497464),0.1744,16,0.6126
0.88,THRUST_SEARCH,OPEN_LOOP,0.0,2e-05,-2e-05,2e-05,0.0,-2e-05,0.6152,0.6152,0.6152,,0.67,,False,0.0,0.0,0.0,0.0,0.0,-177.7386,-177.7566,0.001,True,False,Mode(963497464),0.1854,17,0.6147
0.89,THRUST_SEARCH,OPEN_LOOP,0.0,2e-05,4e-05,4e-05,0.0,-1e-05,0.6156,0.6156,0.6156,,0.67,,False,0.0,0.0,0.0,0.0,0.0,-177.7386,-177.764,0.0015,True,False,Mode(963497464),0.1959,17,0.6147
0.901,THRUST_SEARCH,OPEN_LOOP,0.0,2e-05,4e-05,4e-05,0.0,-0.0,0.616,0.616,0.616,,0.67,,False,0.0,0.0,0.0,0.0,0.0,-177.7386,-177.7585,0.006,True,False,Mode(963497464),0.2069,17,0.6147
0.912,THRUST_SEARCH,OPEN_LOOP,0.0,3e-05,6e-05,6e-05,0.0,1e-05,0.6165,0.6165,0.6165,,0.67,,False,0.0,0.0,0.0,0.0,0.0,-177.7386,-177.753,0.008,True,False,Mode(963497464),0.2178,17,0.6147
0.923,THRUST_SEARCH,OPEN_LOOP,0.0,2e-05,0.0,2e-05,0.0,0.0,0.6169,0.6169,0.6169,,0.67,,False,0.0,0.0,0.0,0.0,0.0,-177.7386,-177.742,0.004,True,True,Mode(963497464),0.2288,17,0.6147
0.934,THRUST_SEARCH,OPEN_LOOP,0.0,2e-05,-3e-05,2e-05,0.0,-2e-05,0.6174,0.6174,0.6174,,0.67,,False,0.0,0.0,0.0,0.0,0.0,-177.7386,-177.7371,0.0061,True,False,Mode(963497464),0.2399,18,0.6169
0.945,THRUST_SEARCH,OPEN_LOOP,0.0,2e-05,-1e-05,2e-05,0.0,-3e-05,0.6178,0.6178,0.6178,,0.67,,False,0.0,0.0,0.0,0.0,0.0,-177.7386,-177.7311,0.008,True,False,Mode(963497464),0.2507,18,0.6169
0.955,THRUST_SEARCH,OPEN_LOOP,-0.0,-1e-05,-0.00033,-1e-05,0.0,-0.00015,0.6182,0.6182,0.6182,,0.67,,False,0.0,0.0,0.0,0.0,0.0,-177.7386,-177.7594,0.003,True,False,Mode(963497464),0.2612,18,0.6169
0.966,THRUST_SEARCH,OPEN_LOOP,0.0,4e-05,0.00061,0.00061,0.0,7e-05,0.6186,0.6186,0.6186,,0.67,,False,0.0,0.0,0.0,0.0,0.0,-177.7386,-177.6528,0.0045,True,False,Mode(963497464),0.2717,18,0.6169
0.976,THRUST_SEARCH,OPEN_LOOP,0.0001,0.0001,0.0007,0.0007,0.0,0.00031,0.6191,0.6191,0.6191,,0.67,,False,0.0,0.0,0.0,0.0,0.0,-177.7386,-177.5817,0.0066,True,True,Mode(963497464),0.2822,18,0.6169
0.987,THRUST_SEARCH,OPEN_LOOP,0.0001,0.00011,0.00025,0.00025,0.0,0.00036,0.6195,0.6195,0.6195,,0.67,,False,0.0,0.0,0.0,0.0,0.0,-177.7386,-177.6961,0.009,True,False,Mode(963497464),0.2932,19,0.6191
0.998,THRUST_SEARCH,OPEN_LOOP,0.0002,0.00023,0.00147,0.00147,0.0,0.00084,0.6199,0.6199,0.6199,,0.67,,False,0.0,0.0,0.0,0.0,0.0,-177.7386,-177.8726,0.002,True,False,Mode(963497464),0.3042,19,0.6191
1.009,THRUST_SEARCH,OPEN_LOOP,0.0004,0.00039,0.002,0.002,0.0,0.00147,0.6204,0.6204,0.6204,,0.67,,False,0.0,0.0,0.0,0.0,0.0,-177.7386,-177.7716,0.007,True,False,Mode(963497464),0.3151,19,0.6191
1.02,THRUST_SEARCH,OPEN_LOOP,0.0006,0.00062,0.00285,0.00285,0.0,0.00234,0.6208,0.6208,0.6208,,0.67,,False,0.0,0.0,0.0,0.0,0.0,-177.7386,-177.621,0.009,True,False,Mode(963497464),0.3261,19,0.6191
1.031,THRUST_SEARCH,OPEN_LOOP,0.001,0.00104,0.00522,0.00522,0.0,0.00397,0.6212,0.6212,0.6212,,0.67,,False,0.0,0.0,0.0,0.0,0.0,-177.7386,-177.1894,0.002,True,True,Mode(963497464),0.3371,19,0.6191
1.043,THRUST_SEARCH,OPEN_LOOP,0.0016,0.00159,0.00701,0.00701,0.0,0.00608,0.6217,0.6217,0.6217,,0.67,,False,0.0,0.0,0.0,0.0,0.0,-177.7386,-177.4834,0.0038,True,False,Mode(963497464),0.3479,20,0.6212
1.053,THRUST_SEARCH,OPEN_LOOP,0.0022,0.00221,0.00808,0.00808,0.0,0.00837,0.6221,0.6221,0.6221,,0.67,,False,0.0,0.0,0.0,0.0,0.0,-177.7386,-178.071,0.006,True,False,Mode(963497464),0.3589,20,0.6212
1.064,THRUST_SEARCH,OPEN_LOOP,0.0032,0.00316,0.01221,0.01221,0.0,0.01191,0.6226,0.6226,0.6226,,0.67,,False,0.0,0.0,0.0,0.0,0.0,-177.7386,-179.4667,0.001,True,False,Mode(963497464),0.3698,20,0.6212
1.074,THRUST_SEARCH,OPEN_LOOP,0.0042,0.00417,0.01365,0.01365,0.0,0.0156,0.623,0.623,0.623,,0.67,,False,0.0,0.0,0.0,0.0,0.0,-177.7386,-179.9022,0.0045,True,False,Mode(963497464),0.3803,20,0.6212
1.085,THRUST_SEARCH,OPEN_LOOP,0.0053,0.0053,0.01545,0.01545,0.0,0.01956,0.6234,0.6234,0.6234,,0.67,,False,0.0,0.0,0.0,0.0,0.0,-177.7386,179.9789,0.007,True,True,Mode(963497464),0.3913,20,0.6212
1.097,THRUST_SEARCH,OPEN_LOOP,0.0067,0.00673,0.01941,0.01941,0.0,0.02453,0.6239,0.6239,0.6239,,0.67,,False,0.0,0.0,0.0,0.0,0.0,-177.7386,-179.5919,0.001,True,False,Mode(963497464),0.4028,21,0.6234
1.108,THRUST_SEARCH,OPEN_LOOP,0.0083,0.00827,0.02176,0.02176,0.0,0.02982,0.6243,0.6243,0.6243,,0.67,,False,0.0,0.0,0.0,0.0,0.0,-177.7386,-179.4341,0.003,True,False,Mode(963497464),0.4137,21,0.6234
1.119,THRUST_SEARCH,OPEN_LOOP,0.0098,0.00985,0.02301,0.02301,0.0,0.03498,0.6248,0.6248,0.6248,,0.67,,False,0.0,0.0,0.0,0.0,0.0,-177.7386,-179.4927,0.008,True,False,Mode(963497464),0.4247,21,0.6234
1.13,THRUST_SEARCH,OPEN_LOOP,0.0117,0.01166,0.02687,0.02687,0.0,0.04093,0.6252,0.6252,0.6252,,0.67,,False,0.0,0.0,0.0,0.0,0.0,-177.7386,179.5906,0.001,True,False,Mode(963497464),0.4355,21,0.6234
1.141,THRUST_SEARCH,OPEN_LOOP,0.0136,0.01356,0.02886,0.02886,0.0,0.04693,0.6256,0.6256,0.6256,,0.67,,False,0.0,0.0,0.0,0.0,0.0,-177.7386,178.9873,0.003,True,True,Mode(963497464),0.4465,21,0.6234
1.152,THRUST_SEARCH,OPEN_LOOP,0.0155,0.01548,0.03035,0.03035,0.0,0.05276,0.6261,0.6261,0.6261,,0.67,,False,0.0,0.0,0.0,0.0,0.0,-177.7386,178.5151,0.005,True,False,Mode(963497464),0.4575,22,0.6256
1.162,THRUST_SEARCH,OPEN_LOOP,0.0176,0.01764,0.03458,0.03458,0.0,0.05938,0.6265,0.6265,0.6265,,0.67,,False,0.0,0.0,0.0,0.0,0.0,-177.7386,178.3554,0.0006,True,False,Mode(963497464),0.468,22,0.6256
1.173,THRUST_SEARCH,OPEN_LOOP,0.0198,0.01978,0.03562,0.03562,0.0,0.06557,0.6269,0.6269,0.6269,,0.67,,False,0.0,0.0,0.0,0.0,0.0,-177.7386,178.4423,0.003,True,False,Mode(963497464),0.4789,22,0.6256
1.184,THRUST_SEARCH,OPEN_LOOP,0.0219,0.02195,0.03764,0.03764,0.0,0.07169,0.6273,0.6273,0.6273,,0.67,,False,0.0,0.0,0.0,0.0,0.0,-177.7386,178.5483,0.0045,True,False,Mode(963497464),0.4894,22,0.6256
1.194,THRUST_SEARCH,OPEN_LOOP,0.0241,0.02414,0.03942,0.03942,0.0,0.07763,0.6278,0.6278,0.6278,,0.67,,False,0.0,0.0,0.0,0.0,0.0,-177.7386,178.5181,0.0066,True,True,Mode(963497464),0.5,22,0.6256
1.205,THRUST_SEARCH,OPEN_LOOP,0.0263,0.02634,0.04063,0.04063,0.0,0.08319,0.6282,0.6282,0.6282,,0.67,,False,0.0,0.0,0.0,0.0,0.0,-177.7386,178.3631,0.009,True,False,Mode(963497464),0.511,23,0.6278
1.216,THRUST_SEARCH,OPEN_LOOP,0.0287,0.02868,0.0444,0.0444,0.0,0.08929,0.6286,0.6286,0.6286,,0.67,,False,0.0,0.0,0.0,0.0,0.0,-177.7386,178.1356,0.0045,True,False,Mode(963497464),0.5215,23,0.6278
1.227,THRUST_SEARCH,OPEN_LOOP,0.0311,0.03106,0.04602,0.04602,0.0,0.0951,0.6291,0.6291,0.6291,,0.67,,False,0.0,0.0,0.0,0.0,0.0,-177.7386,178.0422,0.007,True,False,Mode(963497464),0.5324,23,0.6278
1.238,THRUST_SEARCH,OPEN_LOOP,0.0335,0.03348,0.04812,0.04812,0.0,0.10079,0.6295,0.6295,0.6295,,0.67,,False,0.0,0.0,0.0,0.0,0.0,-177.7386,177.9233,0.009,True,False,Mode(963497464),0.5434,23,0.6278
1.248,THRUST_SEARCH,OPEN_LOOP,0.036,0.03603,0.05188,0.05188,0.0,0.10694,0.6299,0.6299,0.6299,,0.67,,False,0.0,0.0,0.0,0.0,0.0,-177.7386,177.7152,0.0015,True,True,Mode(963497464),0.5539,23,0.6278
1.259,THRUST_SEARCH,OPEN_LOOP,0.0386,0.03858,0.05329,0.05329,0.0,0.11265,0.6304,0.6304,0.6304,,0.67,,False,0.0,0.0,0.0,0.0,0.0,-177.7386,177.5429,0.006,True,False,Mode(963497464),0.5649,24,0.6299
1.271,THRUST_SEARCH,OPEN_LOOP,0.0413,0.04129,0.05634,0.05634,0.0,0.11852,0.6308,0.6308,0.6308,,0.67,,False,0.0,0.0,0.0,0.0,0.0,-177.7386,177.2879,0.0005,True,False,Mode(963497464),0.5763,24,0.6299
1.281,THRUST_SEARCH,OPEN_LOOP,0.0439,0.04394,0.05819,0.05819,0.0,0.12409,0.6313,0.6313,0.6313,,0.67,,False,0.0,0.0,0.0,0.0,0.0,-177.7386,177.2745,0.003,True,False,Mode(963497464),0.5873,24,0.6299
1.292,THRUST_SEARCH,OPEN_LOOP,0.0465,0.04651,0.05933,0.05933,0.0,0.1291,0.6317,0.6317,0.6317,,0.67,,False,0.0,0.0,0.0,0.0,0.0,-177.7386,177.3638,0.005,True,False,Mode(963497464),0.5983,24,0.6299
1.303,THRUST_SEARCH,OPEN_LOOP,0.0492,0.04924,0.06319,0.06319,0.0,0.13456,0.6321,0.6321,0.6321,,0.67,,False,0.0,0.0,0.0,0.0,0.0,-177.7386,177.3876,0.0,True,True,Mode(963497464),0.6092,24,0.6299
1.314,THRUST_SEARCH,OPEN_LOOP,0.0519,0.05192,0.06466,0.06466,0.0,0.13955,0.6326,0.6326,0.6326,,0.67,,False,0.0,0.0,0.0,0.0,0.0,-177.7386,177.3416,0.002,True,False,Mode(963497464),0.6202,25,0.6321
1.325,THRUST_SEARCH,OPEN_LOOP,0.0546,0.05456,0.06689,0.06689,0.0,0.14436,0.633,0.633,0.633,,0.67,,False,0.0,0.0,0.0,0.0,0.0,-177.7386,177.2297,0.004,True,False,Mode(963497464),0.6308,25,0.6321
1.337,THRUST_SEARCH,OPEN_LOOP,0.0572,0.05716,0.06802,0.06802,0.0,0.1486,0.6335,0.6335,0.6335,,0.67,,False,0.0,0.0,0.0,0.0,0.0,-177.7386,177.1033,0.006,True,False,Mode(963497464),0.6417,25,0.6321
1.346,THRUST_SEARCH,OPEN_LOOP,0.0598,0.05982,0.07132,0.07132,0.0,0.15308,0.6339,0.6339,0.6339,,0.67,,False,0.0,0.0,0.0,0.0,0.0,-177.7386,176.8769,0.0006,True,False,Mode(963497464),0.6523,25,0.6321
1.357,THRUST_SEARCH,OPEN_LOOP,0.0624,0.06237,0.07164,0.07164,0.0,0.15669,0.6343,0.6343,0.6343,,0.67,,False,0.0,0.0,0.0,0.0,0.0,-177.7386,176.8182,0.002,True,True,Mode(963497464),0.6633,25,0.6321
1.368,THRUST_SEARCH,OPEN_LOOP,0.0648,0.06484,0.07276,0.07276,0.0,0.15978,0.6347,0.6347,0.6347,,0.67,,False,0.0,0.0,0.0,0.0,0.0,-177.7386,176.7789,0.007,True,False,Mode(963497464),0.6743,26,0.6343
1.38,THRUST_SEARCH,OPEN_LOOP,0.0674,0.06744,0.07643,0.07643,0.0,0.16329,0.6352,0.6352,0.6352,,0.67,,False,0.0,0.0,0.0,0.0,0.0,-177.7386,176.5848,0.0005,True,False,Mode(963497464),0.6858,26,0.6343
1.39,THRUST_SEARCH,OPEN_LOOP,0.07,0.06997,0.07862,0.07862,0.0,0.16666,0.6356,0.6356,0.6356,,0.67,,False,0.0,0.0,0.0,0.0,0.0,-177.7386,176.4822,0.0015,True,False,Mode(963497464),0.6957,26,0.6343
1.401,THRUST_SEARCH,OPEN_LOOP,0.0726,0.07257,0.08025,0.08025,0.0,0.16966,0.636,0.636,0.636,,0.67,,False,0.0,0.0,0.0,0.0,0.0,-177.7386,176.3456,0.0073,True,False,Mode(963497464),0.707,26,0.6343
1.412,THRUST_SEARCH,OPEN_LOOP,0.0752,0.0752,0.08339,0.08339,0.0,0.17287,0.6365,0.6365,0.6365,,0.67,,False,0.0,0.0,0.0,0.0,0.0,-177.7386,176.0398,0.001,True,True,Mode(963497464),0.7179,26,0.6343
1.423,THRUST_SEARCH,OPEN_LOOP,0.0777,0.07767,0.08371,0.08371,0.0,0.17523,0.6369,0.6369,0.6369,,0.67,,False,0.0,0.0,0.0,0.0,0.0,-177.7386,175.7764,0.003,True,False,Mode(963497464),0.7289,27,0.6365
1.434,THRUST_SEARCH,OPEN_LOOP,0.08,0.08,0.08523,0.08523,0.0,0.17727,0.6373,0.6373,0.6373,,0.67,,False,0.0,0.0,0.0,0.0,0.0,-177.7386,175.5039,0.0045,True,False,Mode(963497464),0.7394,27,0.6365
1.444,THRUST_SEARCH,OPEN_LOOP,0.0824,0.08238,0.08751,0.08751,0.0,0.17926,0.6378,0.6378,0.6378,,0.67,,False,0.0,0.0,0.0,0.0,0.0,-177.7386,175.2612,0.0067,True,False,Mode(963497464),0.7501,27,0.6365
1.455,THRUST_SEARCH,OPEN_LOOP,0.0849,0.08492,0.09108,0.09108,0.0,0.18166,0.6382,0.6382,0.6382,,0.67,,False,0.0,0.0,0.0,0.0,0.0,-177.7386,174.9274,0.0,True,False,Mode(963497464),0.7611,27,0.6365
1.466,THRUST_SEARCH,OPEN_LOOP,0.0874,0.08741,0.09267,0.09267,0.0,0.18371,0.6386,0.6386,0.6386,,0.67,,False,0.0,0.0,0.0,0.0,0.0,-177.7386,174.8449,0.005,True,True,Mode(963497464),0.772,27,0.6365
1.478,THRUST_SEARCH,OPEN_LOOP,0.0899,0.08989,0.09378,0.09378,0.0,0.18524,0.6391,0.6391,0.6391,,0.67,,False,0.0,0.0,0.0,0.0,0.0,-177.7386,174.8653,0.0075,True,False,Mode(963497464),0.7835,28,0.6386
1.489,THRUST_SEARCH,OPEN_LOOP,0.0923,0.09226,0.09584,0.09584,0.0,0.18665,0.6395,0.6395,0.6395,,0.67,,False,0.0,0.0,0.0,0.0,0.0,-177.7386,174.7475,0.001,True,False,Mode(963497464),0.7945,28,0.6386
1.5,THRUST_SEARCH,OPEN_LOOP,0.0945,0.09453,0.09695,0.09695,0.0,0.18759,0.64,0.64,0.64,,0.67,,False,0.0,0.0,0.0,0.0,0.0,-177.7386,174.5573,0.003,True,False,Mode(963497464),0.8054,28,0.6386
1.511,THRUST_SEARCH,OPEN_LOOP,0.0968,0.09683,0.09936,0.09936,0.0,0.18859,0.6404,0.6404,0.6404,,0.67,,False,0.0,0.0,0.0,0.0,0.0,-177.7386,174.3028,0.008,True,False,Mode(963497464),0.8164,28,0.6386
1.522,THRUST_SEARCH,OPEN_LOOP,0.0992,0.0992,0.10236,0.10236,0.0,0.18983,0.6409,0.6409,0.6409,,0.67,,False,0.0,0.0,0.0,0.0,0.0,-177.7386,173.7627,0.001,True,True,Mode(963497464),0.8274,28,0.6386
1.533,THRUST_SEARCH,OPEN_LOOP,0.1015,0.10152,0.10402,0.10402,0.0,0.19081,0.6413,0.6413,0.6413,,0.67,,False,0.0,0.0,0.0,0.0,0.0,-177.7386,173.6338,0.0032,True,False,Mode(963497464),0.8385,29,0.6409
1.543,THRUST_SEARCH,OPEN_LOOP,0.1037,0.1037,0.10468,0.10468,0.0,0.19119,0.6417,0.6417,0.6417,,0.67,,False,0.0,0.0,0.0,0.0,0.0,-177.7386,173.5546,0.008,True,False,Mode(963497464),0.8493,29,0.6409
1.554,THRUST_SEARCH,OPEN_LOOP,0.1058,0.10584,0.10711,0.10711,0.0,0.19169,0.6422,0.6422,0.6422,,0.67,,False,0.0,0.0,0.0,0.0,0.0,-177.7386,173.3448,0.001,True,False,Mode(963497464),0.8599,29,0.6409
1.565,THRUST_SEARCH,OPEN_LOOP,0.108,0.10796,0.10811,0.10811,0.0,0.19175,0.6426,0.6426,0.6426,,0.67,,False,0.0,0.0,0.0,0.0,0.0,-177.7386,173.1541,0.003,True,False,Mode(963497464),0.8709,29,0.6409
1.576,THRUST_SEARCH,OPEN_LOOP,0.11,0.11002,0.11057,0.11057,0.0,0.19196,0.643,0.643,0.643,,0.67,,False,0.0,0.0,0.0,0.0,0.0,-177.7386,172.9105,0.0045,True,True,Mode(963497464),0.8813,29,0.6409
1.586,THRUST_SEARCH,OPEN_LOOP,0.1121,0.11212,0.11203,0.11212,0.0,0.19192,0.6435,0.6435,0.6435,,0.67,,False,0.0,0.0,0.0,0.0,0.0,-177.7386,172.6436,0.007,True,False,Mode(963497464),0.8923,30,0.643
1.598,THRUST_SEARCH,OPEN_LOOP,0.1143,0.11431,0.11463,0.11463,0.0,0.19205,0.6439,0.6439,0.6439,,0.67,,False,0.0,0.0,0.0,0.0,0.0,-177.7386,172.1029,0.001,True,False,Mode(963497464),0.9036,30,0.643
1.609,ASCENT,OPEN_LOOP,0.1164,0.11641,0.11631,0.11641,0.0,0.19201,0.6443,0.6443,0.6443,0.6443,0.67,,False,0.0,0.0,0.0,0.0,0.0,-177.7386,171.7497,0.006,True,False,Mode(963497464),0.9146,30,0.643
1.62,ASCENT,CLOSED_LOOP_ASCENT,0.1175,0.11842,0.11736,0.11842,0.1,0.1916,0.67,0.67,,0.6443,0.67,0.6561,True,-0.1851,0.099,0.0,0.1138,-0.7726,-177.7386,171.3784,0.008,True,False,Mode(963497464),0.9255,30,0.643
1.631,ASCENT,CLOSED_LOOP_ASCENT,0.1186,0.12042,0.1194,0.12042,0.1,0.1912,0.67,0.67,,0.6443,0.67,0.6465,True,-0.3137,0.0923,0.0,0.1154,-0.789,-177.7386,170.8608,0.001,True,True,Mode(963497464),0.9365,30,0.643
1.642,ASCENT,CLOSED_LOOP_ASCENT,0.1197,0.12241,0.12123,0.12241,0.1,0.19073,0.67,0.67,,0.6443,0.67,0.6546,True,-0.205,0.0915,0.0,0.1124,-0.8051,-177.7386,170.7011,0.006,True,False,Mode(963497464),0.9475,31,0.67
1.653,ASCENT,CLOSED_LOOP_ASCENT,0.1208,0.12441,0.1234,0.12441,0.1,0.19034,0.67,0.67,,0.6443,0.67,0.6541,True,-0.2114,0.0904,0.0,0.1094,-0.8194,-177.7386,170.59,0.008,True,False,Mode(963497464),0.9584,31,0.67
1.664,ASCENT,CLOSED_LOOP_ASCENT,0.1219,0.12647,0.12616,0.12647,0.1,0.19022,0.67,0.67,,0.6443,0.67,0.653,True,-0.2262,0.089,0.0,0.1069,-0.8319,-177.7386,170.4988,0.001,True,False,Mode(963497464),0.9694,31,0.67
1.675,ASCENT,CLOSED_LOOP_ASCENT,0.123,0.12842,0.12699,0.12842,0.1,0.18965,0.6682,0.6553,,0.6443,0.67,0.6553,False,-0.1958,0.0888,0.0,0.1057,-0.8412,-177.7386,170.3019,0.003,True,False,Mode(963497464),0.9804,31,0.67
1.687,ASCENT,CLOSED_LOOP_ASCENT,0.1241,0.13025,0.12764,0.13025,0.1,0.18863,0.6668,0.6564,,0.6443,0.67,0.6564,False,-0.1819,0.0887,0.0,0.1048,-0.8548,-177.7386,170.0678,0.005,True,True,Mode(963497464),0.9914,31,0.67
1.697,ASCENT,CLOSED_LOOP_ASCENT,0.1252,0.13197,0.12887,0.13197,0.1,0.18741,0.6656,0.6565,,0.6443,0.67,0.6565,False,-0.1806,0.0884,0.0,0.1036,-0.8711,-177.7386,169.839,0.009,True,False,Mode(963497464),1.002,32,0.6668
1.707,ASCENT,CLOSED_LOOP_ASCENT,0.1262,0.1337,0.13119,0.1337,0.1,0.18644,0.6644,0.6551,,0.6443,0.67,0.6551,False,-0.1987,0.0874,0.0,0.1034,-0.8912,-177.7386,169.5259,0.0015,True,False,Mode(963497464),1.0125,32,0.6668
1.718,ASCENT,CLOSED_LOOP_ASCENT,0.1273,0.13551,0.13307,0.13551,0.1,0.18548,0.6633,0.6553,,0.6443,0.67,0.6553,False,-0.1955,0.0866,0.0,0.0984,-0.9091,-177.7386,169.5768,0.006,True,False,Mode(963497464),1.0235,32,0.6668
1.729,ASCENT,CLOSED_LOOP_ASCENT,0.1284,0.13729,0.13455,0.13729,0.1,0.18441,0.6624,0.656,,0.6443,0.67,0.656,False,-0.1863,0.0861,0.0,0.0915,-0.9252,-177.7386,169.7587,0.008,True,False,Mode(963497464),1.0344,32,0.6668
1.74,ASCENT,CLOSED_LOOP_ASCENT,0.1295,0.13913,0.13726,0.13913,0.1,0.18368,0.6614,0.6544,,0.6443,0.67,0.6544,False,-0.2076,0.0848,0.0,0.0861,-0.9396,-177.7386,169.8661,0.001,True,True,Mode(963497464),1.0454,32,0.6668
1.751,ASCENT,CLOSED_LOOP_ASCENT,0.1306,0.14085,0.1377,0.14085,0.1,0.18245,0.6609,0.6572,,0.6443,0.67,0.6572,False,-0.1703,0.0849,0.0,0.0842,-0.96,-177.7386,169.6784,0.006,True,False,Mode(963497464),1.0564,33,0.6614
1.762,ASCENT,CLOSED_LOOP_ASCENT,0.1317,0.14271,0.14048,0.14271,0.1,0.18157,0.6602,0.6547,,0.6443,0.67,0.6547,False,-0.2037,0.0836,0.0,0.0878,-0.9887,-177.7386,169.1466,0.0014,True,False,Mode(963497464),1.0677,33,0.6614
1.773,ASCENT,CLOSED_LOOP_ASCENT,0.1328,0.14443,0.14161,0.14443,0.1,0.18047,0.6597,0.6566,,0.6443,0.67,0.6566,False,-0.1785,0.0834,0.0,0.0866,-1.0135,-177.7386,168.9184,0.003,True,False,Mode(963497464),1.0787,33,0.6614
1.784,ASCENT,CLOSED_LOOP_ASCENT,0.1339,0.14618,0.14382,0.14618,0.1,0.17954,0.6592,0.6554,,0.6443,0.67,0.6554,False,-0.1944,0.0824,0.0,0.0838,-1.0341,-177.7386,168.7818,0.005,True,False,Mode(963497464),1.0896,33,0.6614
1.795,ASCENT,CLOSED_LOOP_ASCENT,0.135,0.14795,0.14517,0.14795,0.1,0.17844,0.6589,0.6564,,0.6443,0.67,0.6564,False,-0.1815,0.082,0.0,0.0791,-1.0489,-177.7386,168.7399,0.0073,True,True,Mode(963497464),1.1009,33,0.6614
1.806,ASCENT,CLOSED_LOOP_ASCENT,0.1361,0.14969,0.14746,0.14969,0.1,0.17756,0.6585,0.6554,,0.6443,0.67,0.6554,False,-0.1943,0.081,0.0,0.0822,-1.0644,-177.7386,168.3484,0.004,True,False,Mode(963497464),1.1119,34,0.6589
1.818,ASCENT,CLOSED_LOOP_ASCENT,0.1373,0.15139,0.14778,0.15139,0.1,0.17613,0.6584,0.6578,,0.6443,0.67,0.6578,False,-0.1621,0.0812,0.0,0.0827,-1.0855,-177.7386,168.0603,0.004,True,False,Mode(963497464),1.1234,34,0.6589
1.829,ASCENT,CLOSED_LOOP_ASCENT,0.1384,0.15296,0.14927,0.15296,0.1,0.17467,0.6583,0.6575,,0.6443,0.67,0.6575,False,-0.1668,0.0809,0.0,0.0832,-1.1094,-177.7386,167.7248,0.009,True,False,Mode(963497464),1.1344,34,0.6589
1.84,ASCENT,CLOSED_LOOP_ASCENT,0.1395,0.15455,0.15107,0.15455,0.1,0.1733,0.6581,0.6571,,0.6443,0.67,0.6571,False,-0.1721,0.0803,0.0,0.0882,-1.1343,-177.7386,167.1985,0.004,True,False,Mode(963497464),1.1453,34,0.6589
1.851,ASCENT,CLOSED_LOOP_ASCENT,0.1406,0.15613,0.15279,0.15613,0.1,0.17198,0.658,0.6572,,0.6443,0.67,0.6572,False,-0.1708,0.0797,0.0,0.0847,-1.1549,-177.7386,167.0894,0.006,True,True,Mode(963497464),1.1563,34,0.6589
1.861,ASCENT,CLOSED_LOOP_ASCENT,0.1417,0.1577,0.15438,0.1577,0.1,0.17067,0.6579,0.6574,,0.6443,0.67,0.6574,False,-0.1678,0.0792,0.0,0.081,-1.1693,-177.7386,167.0375,0.008,True,False,Mode(963497464),1.1673,35,0.658
1.873,ASCENT,CLOSED_LOOP_ASCENT,0.1428,0.15931,0.15576,0.15931,0.1,0.16926,0.6579,0.6577,,0.6443,0.67,0.6577,False,-0.1635,0.0788,0.0,0.0841,-1.1846,-177.7386,166.653,0.0014,True,False,Mode(963497464),1.1787,35,0.658
1.884,ASCENT,CLOSED_LOOP_ASCENT,0.1439,0.16076,0.15658,0.16076,0.1,0.1676,0.6581,0.6591,,0.6443,0.67,0.6591,False,-0.1448,0.0789,0.0,0.0861,-1.2055,-177.7386,166.3351,0.006,True,False,Mode(963497464),1.1896,35,0.658
1.895,ASCENT,CLOSED_LOOP_ASCENT,0.145,0.16219,0.15785,0.16219,0.1,0.16589,0.6582,0.659,,0.6443,0.67,0.659,False,-0.147,0.0787,0.0,0.0855,-1.2315,-177.7386,166.1209,0.007,True,False,Mode(963497464),1.2006,35,0.658
1.906,ASCENT,CLOSED_LOOP_ASCENT,0.1462,0.16363,0.15886,0.16363,0.1,0.16399,0.6583,0.6595,,0.6443,0.67,0.6595,False,-0.1399,0.0786,0.0,0.0841,-1.2582,-177.7386,165.9134,0.001,True,True,Mode(963497464),1.2121,35,0.658
1.917,ASCENT,CLOSED_LOOP_ASCENT,0.1473,0.16498,0.16022,0.16498,0.1,0.16211,0.6585,0.6599,,0.6443,0.67,0.6599,False,-0.1344,0.0785,0.0,0.0779,-1.2791,-177.7386,165.9287,0.006,True,False,Mode(963497464),1.223,36,0.6583
1.928,ASCENT,CLOSED_LOOP_ASCENT,0.1483,0.16625,0.16177,0.16625,0.1,0.16033,0.6587,0.6599,,0.6443,0.67,0.6599,False,-0.1347,0.0783,0.0,0.0725,-1.2943,-177.7386,165.9228,0.0075,True,False,Mode(963497464),1.2335,36,0.6583
1.939,ASCENT,CLOSED_LOOP_ASCENT,0.1494,0.16758,0.16307,0.16758,0.1,0.15855,0.6588,0.6599,,0.6443,0.67,0.6599,False,-0.1343,0.078,0.0,0.0728,-1.3127,-177.7386,165.5924,0.001,True,False,Mode(963497464),1.2445,36,0.6583
1.95,ASCENT,CLOSED_LOOP_ASCENT,0.1505,0.1689,0.16453,0.1689,0.1,0.15683,0.659,0.6601,,0.6443,0.67,0.6601,False,-0.132,0.0777,0.0,0.0713,-1.334,-177.7386,165.3533,0.003,True,False,Mode(963497464),1.2555,36,0.6583
1.961,ASCENT,CLOSED_LOOP_ASCENT,0.1516,0.17017,0.16544,0.17017,0.1,0.15496,0.6592,0.6611,,0.6443,0.67,0.6611,False,-0.119,0.0778,0.0,0.07,-1.3601,-177.7386,165.1888,0.008,True,True,Mode(963497464),1.2664,36,0.6583
1.972,ASCENT,CLOSED_LOOP_ASCENT,0.1527,0.1714,0.16645,0.1714,0.1,0.15301,0.6595,0.6614,,0.6443,0.67,0.6614,False,-0.114,0.0778,0.0,0.0605,-1.3869,-177.7386,165.298,0.001,True,False,Mode(963497464),1.2774,37,0.6592
1.983,ASCENT,CLOSED_LOOP_ASCENT,0.1538,0.1726,0.16758,0.1726,0.1,0.15103,0.6598,0.6617,,0.6443,0.67,0.6617,False,-0.1106,0.0778,0.0,0.0509,-1.4057,-177.7386,165.4425,0.003,True,False,Mode(963497464),1.2884,37,0.6592
1.994,ASCENT,CLOSED_LOOP_ASCENT,0.1549,0.17378,0.16877,0.17378,0.1,0.14905,0.66,0.662,,0.6443,0.67,0.662,False,-0.1072,0.0778,0.0,0.0415,-1.42,-177.7386,165.5413,0.008,True,False,Mode(963497464),1.2994,37,0.6592
2.005,ASCENT,CLOSED_LOOP_ASCENT,0.156,0.17499,0.17058,0.17499,0.1,0.14731,0.6602,0.6613,,0.6443,0.67,0.6613,False,-0.1162,0.0773,0.0,0.0397,-1.4401,-177.7386,165.3811,0.001,True,False,Mode(963497464),1.3103,37,0.6592
2.015,ASCENT,CLOSED_LOOP_ASCENT,0.1571,0.1762,0.17188,0.1762,0.1,0.14561,0.6604,0.6619,,0.6443,0.67,0.6619,False,-0.1083,0.0772,0.0,0.0395,-1.46,-177.7386,165.1646,0.003,True,True,Mode(963497464),1.3213,37,0.6592
2.027,ASCENT,CLOSED_LOOP_ASCENT,0.1583,0.17747,0.17255,0.17747,0.1,0.14366,0.6607,0.6626,,0.6443,0.67,0.6626,False,-0.0986,0.0773,0.0,0.0418,-1.4841,-177.7386,164.9004,0.006,True,False,Mode(963497464),1.3333,38,0.6604
2.038,ASCENT,CLOSED_LOOP_ASCENT,0.1594,0.1786,0.17395,0.1786,0.1,0.14181,0.661,0.663,,0.6443,0.67,0.663,False,-0.0934,0.0774,0.0,0.0422,-1.5097,-177.7386,164.6806,0.001,True,False,Mode(963497464),1.3442,38,0.6604
2.049,ASCENT,CLOSED_LOOP_ASCENT,0.1605,0.17966,0.17447,0.17966,0.1,0.13975,0.6613,0.6641,,0.6443,0.67,0.6641,False,-0.0789,0.0778,0.0,0.0376,-1.5289,-177.7386,164.6886,0.003,True,False,Mode(963497464),1.3552,38,0.6604
2.06,ASCENT,CLOSED_LOOP_ASCENT,0.1616,0.18072,0.17576,0.18072,0.1,0.13779,0.6616,0.6636,,0.6443,0.67,0.6636,False,-0.0849,0.0778,0.0,0.0313,-1.5434,-177.7386,164.7398,0.008,True,False,Mode(963497464),1.3662,38,0.6604
2.071,ASCENT,CLOSED_LOOP_ASCENT,0.1627,0.18184,0.1778,0.18184,0.1,0.13618,0.6617,0.6626,,0.6443,0.67,0.6626,False,-0.0986,0.0772,0.0,0.0278,-1.565,-177.7386,164.6491,0.001,True,True,Mode(963497464),1.3772,38,0.6604
2.082,ASCENT,CLOSED_LOOP_ASCENT,0.1638,0.18295,0.1789,0.18295,0.1,0.13458,0.662,0.6636,,0.6443,0.67,0.6636,False,-0.085,0.0772,0.0,0.0229,-1.5845,-177.7386,164.5798,0.003,True,False,Mode(963497464),1.3881,39,0.6617
2.093,ASCENT,CLOSED_LOOP_ASCENT,0.1649,0.18398,0.17936,0.18398,0.1,0.13275,0.6623,0.6649,,0.6443,0.67,0.6649,False,-0.0686,0.0777,0.0,0.02,-1.6067,-177.7386,164.4451,0.005,True,False,Mode(963497464),1.3991,39,0.6617
2.104,ASCENT,CLOSED_LOOP_ASCENT,0.166,0.18504,0.18089,0.18504,0.1,0.1311,0.6625,0.6639,,0.6443,0.67,0.6639,False,-0.0812,0.0775,0.0,0.0148,-1.6275,-177.7386,164.3559,0.0,True,False,Mode(963497464),1.4101,39,0.6617
2.115,ASCENT,CLOSED_LOOP_ASCENT,0.1671,0.18606,0.18172,0.18606,0.1,0.12939,0.6628,0.6649,,0.6443,0.67,0.6649,False,-0.0675,0.0777,0.0,0.0086,-1.6424,-177.7386,164.3628,0.002,True,False,Mode(963497464),1.421,39,0.6617
2.126,ASCENT,CLOSED_LOOP_ASCENT,0.1682,0.18713,0.18307,0.18713,0.1,0.12778,0.663,0.6644,,0.6443,0.67,0.6644,False,-0.0743,0.0776,0.0,0.0034,-1.652,-177.7386,164.3365,0.007,True,True,Mode(963497464),1.4322,39,0.6617
2.138,ASCENT,CLOSED_LOOP_ASCENT,0.1693,0.18827,0.185,0.18827,0.1,0.12648,0.6631,0.6637,,0.6443,0.67,0.6637,False,-0.0842,0.0771,0.0,0.0032,-1.6666,-177.7386,164.0901,0.001,True,False,Mode(963497464),1.4436,40,0.663
2.149,ASCENT,CLOSED_LOOP_ASCENT,0.1704,0.18937,0.18646,0.18937,0.1,0.12533,0.6632,0.6641,,0.6443,0.67,0.6641,False,-0.0784,0.077,0.0,0.001,-1.6783,-177.7386,163.9409,0.003,True,False,Mode(963497464),1.4546,40,0.663
2.16,ASCENT,CLOSED_LOOP_ASCENT,0.1715,0.19042,0.18701,0.19042,0.1,0.12397,0.6635,0.6653,,0.6443,0.67,0.6653,False,-0.0623,0.0773,0.0,-0.0034,-1.6938,-177.7386,163.8695,0.005,True,False,Mode(963497464),1.4656,40,0.663
2.171,ASCENT,CLOSED_LOOP_ASCENT,0.1726,0.19148,0.18808,0.19148,0.1,0.12262,0.6637,0.6651,,0.6443,0.67,0.6651,False,-0.0659,0.0773,0.0,-0.0113,-1.7067,-177.7386,163.8434,0.001,True,False,Mode(963497464),1.4767,40,0.663
2.183,ASCENT,CLOSED_LOOP_ASCENT,0.1737,0.19244,0.18846,0.19244,0.1,0.12105,0.664,0.6664,,0.6443,0.67,0.6664,False,-0.0476,0.0779,0.0,-0.0216,-1.7126,-177.7386,163.9172,0.003,True,True,Mode(963497464),1.4877,40,0.663
2.192,ASCENT,CLOSED_LOOP_ASCENT,0.1748,0.19337,0.18974,0.19337,0.1,0.11961,0.6642,0.6659,,0.6443,0.67,0.6659,False,-0.0553,0.0779,0.0,-0.0295,-1.713,-177.7386,163.9273,0.0045,True,False,Mode(963497464),1.4982,41,0.664
2.203,ASCENT,CLOSED_LOOP_ASCENT,0.1759,0.19435,0.19088,0.19435,0.1,0.11824,0.6644,0.6657,,0.6443,0.67,0.6657,False,-0.0569,0.0779,0.0,-0.0354,-1.7129,-177.7386,163.8479,0.007,True,False,Mode(963497464),1.5091,41,0.664
2.215,ASCENT,CLOSED_LOOP_ASCENT,0.177,0.19544,0.19268,0.19544,0.1,0.11715,0.6645,0.6649,,0.6443,0.67,0.6649,False,-0.0679,0.0774,0.0,-0.0365,-1.7163,-177.7386,163.5295,0.004,True,False,Mode(963497464),1.5206,41,0.664
2.226,ASCENT,CLOSED_LOOP_ASCENT,0.1781,0.19645,0.19353,0.19645,0.1,0.11599,0.6647,0.6662,,0.6443,0.67,0.6662,False,-0.0507,0.0777,0.0,-0.0409,-1.724,-177.7386,163.3503,0.006,True,False,Mode(963497464),1.5316,41,0.664
2.237,ASCENT,CLOSED_LOOP_ASCENT,0.1792,0.19745,0.1946,0.19745,0.1,0.11487,0.6648,0.666,,0.6443,0.67,0.666,False,-0.0527,0.0777,0.0,-0.0479,-1.7292,-177.7386,163.2608,0.008,True,True,Mode(963497464),1.5426,41,0.664
2.248,ASCENT,CLOSED_LOOP_ASCENT,0.1803,0.19845,0.19581,0.19845,0.1,0.11382,0.665,0.666,,0.6443,0.67,0.666,False,-0.0536,0.0777,0.0,-0.0607,-1.7244,-177.7386,163.3253,0.001,True,False,Mode(963497464),1.5535,42,0.6648
2.259,ASCENT,CLOSED_LOOP_ASCENT,0.1814,0.19947,0.19708,0.19947,0.1,0.11287,0.6651,0.6659,,0.6443,0.67,0.6659,False,-0.0546,0.0776,0.0,-0.07,-1.7145,-177.7386,163.314,0.006,True,False,Mode(963497464),1.5645,42,0.6648
2.27,ASCENT,CLOSED_LOOP_ASCENT,0.1825,0.20047,0.19792,0.20047,0.1,0.11186,0.6653,0.6665,,0.6443,0.67,0.6665,False,-0.0462,0.0778,0.0,-0.0782,-1.7036,-177.7386,163.2615,0.008,True,False,Mode(963497464),1.5755,42,0.6648
2.281,ASCENT,CLOSED_LOOP_ASCENT,0.1836,0.20153,0.19978,0.20153,0.1,0.11117,0.6653,0.6652,,0.6443,0.67,0.6652,False,-0.0634,0.0774,0.0,-0.0821,-1.6966,-177.7386,162.9866,0.001,True,False,Mode(963497464),1.5865,42,0.6648
2.292,ASCENT,CLOSED_LOOP_ASCENT,0.1847,0.20256,0.20053,0.20256,0.1,0.11037,0.6654,0.6665,,0.6443,0.67,0.6665,False,-0.0472,0.0776,0.0,-0.088,-1.6949,-177.7386,162.7964,0.003,True,True,Mode(963497464),1.5974,42,0.6648
2.304,ASCENT,CLOSED_LOOP_ASCENT,0.1858,0.20355,0.20129,0.20355,0.1,0.10948,0.6656,0.6668,,0.6443,0.67,0.6668,False,-0.0428,0.0778,0.0,-0.0967,-1.6915,-177.7386,162.6838,0.008,True,False,Mode(963497464),1.6084,43,0.6654
2.314,ASCENT,CLOSED_LOOP_ASCENT,0.1869,0.20451,0.20202,0.20451,0.1,0.10849,0.6658,0.6672,,0.6443,0.67,0.6672,False,-0.038,0.0781,0.0,-0.1085,-1.6797,-177.7386,162.6322,0.001,True,False,Mode(963497464),1.6194,43,0.6654
2.325,ASCENT,CLOSED_LOOP_ASCENT,0.188,0.20548,0.20312,0.20548,0.1,0.10756,0.6659,0.6669,,0.6443,0.67,0.6669,False,-0.0411,0.0781,0.0,-0.1218,-1.6621,-177.7386,162.6318,0.003,True,False,Mode(963497464),1.6303,43,0.6654
2.338,ASCENT,CLOSED_LOOP_ASCENT,0.1892,0.20655,0.2039,0.20655,0.1,0.1065,0.6661,0.6673,,0.6443,0.67,0.6673,False,-0.0365,0.0783,0.0,-0.1322,-1.6452,-177.7386,162.5667,0.007,True,False,Mode(963497464),1.6426,43,0.6654
2.348,ASCENT,CLOSED_LOOP_ASCENT,0.1903,0.20764,0.20681,0.20764,0.1,0.10617,0.6659,0.6648,,0.6443,0.67,0.6648,False,-0.0687,0.0774,0.0,-0.1352,-1.6311,-177.7386,162.1914,0.001,True,True,Mode(963497464),1.6536,43,0.6654
2.36,ASCENT,CLOSED_LOOP_ASCENT,0.1915,0.20871,0.20692,0.20871,0.1,0.10546,0.6661,0.6675,,0.6443,0.67,0.6675,False,-0.033,0.0779,0.0,-0.1425,-1.622,-177.7386,162.0181,0.0068,True,False,Mode(963497464),1.6653,44,0.6659
2.37,ASCENT,CLOSED_LOOP_ASCENT,0.1926,0.20965,0.2075,0.20965,0.1,0.1046,0.6663,0.6678,,0.6443,0.67,0.6678,False,-0.0288,0.0784,0.0,-0.1511,-1.6122,-177.7386,161.8629,0.009,True,False,Mode(963497464),1.6763,44,0.6659
2.382,ASCENT,CLOSED_LOOP_ASCENT,0.1938,0.21069,0.20844,0.21069,0.1,0.10369,0.6665,0.6675,,0.6443,0.67,0.6675,False,-0.0338,0.0785,0.0,-0.1614,-1.5938,-177.7386,161.7522,0.005,True,False,Mode(963497464),1.6882,44,0.6659
2.394,ASCENT,CLOSED_LOOP_ASCENT,0.1949,0.21167,0.20972,0.21167,0.1,0.1029,0.6666,0.6674,,0.6443,0.67,0.6674,False,-0.0343,0.0785,0.0,-0.1723,-1.5701,-177.7386,161.659,0.0074,True,False,Mode(963497464),1.6996,44,0.6659
2.405,ASCENT,CLOSED_LOOP_ASCENT,0.196,0.21269,0.21149,0.21269,0.1,0.10242,0.6666,0.6665,,0.6443,0.67,0.6665,False,-0.0464,0.0781,0.0,-0.1753,-1.5506,-177.7386,161.2781,0.001,True,True,Mode(963497464),1.7106,44,0.6659
2.416,ASCENT,CLOSED_LOOP_ASCENT,0.1971,0.21373,0.21292,0.21373,0.1,0.1021,0.6666,0.6665,,0.6443,0.67,0.6665,False,-0.0465,0.0779,0.0,-0.1812,-1.5305,-177.7386,160.9801,0.003,True,False,Mode(963497464),1.7215,45,0.6666
2.427,ASCENT,CLOSED_LOOP_ASCENT,0.1982,0.21472,0.21334,0.21472,0.1,0.10155,0.6667,0.6678,,0.6443,0.67,0.6678,False,-0.0288,0.0783,0.0,-0.1874,-1.5156,-177.7386,160.7181,0.005,True,False,Mode(963497464),1.7325,45,0.6666
2.438,ASCENT,CLOSED_LOOP_ASCENT,0.1993,0.21571,0.21445,0.21571,0.1,0.10104,0.6668,0.6673,,0.6443,0.67,0.6673,False,-0.0362,0.0783,0.0,-0.1949,-1.501,-177.7386,160.4752,0.001,True,False,Mode(963497464),1.7435,45,0.6666
2.449,ASCENT,CLOSED_LOOP_ASCENT,0.2004,0.2166,0.21438,0.2166,0.1,0.10015,0.6671,0.6691,,0.6443,0.67,0.6691,False,-0.0119,0.0791,0.0,-0.2085,-1.479,-177.7386,160.4776,0.003,True,False,Mode(963497464),1.7545,45,0.6666
2.46,ASCENT,CLOSED_LOOP_ASCENT,0.2015,0.21751,0.2155,0.21751,0.1,0.09935,0.6672,0.6682,,0.6443,0.67,0.6682,False,-0.0246,0.0792,0.0,-0.2234,-1.4518,-177.7386,160.5337,0.005,True,True,Mode(963497464),1.7654,45,0.6666
2.471,ASCENT,CLOSED_LOOP_ASCENT,0.2026,0.21854,0.21787,0.21854,0.1,0.09908,0.6671,0.6662,,0.6443,0.67,0.6662,False,-0.0506,0.0784,0.0,-0.2337,-1.431,-177.7386,160.4213,0.001,True,False,Mode(963497464),1.7764,46,0.6672
2.482,ASCENT,CLOSED_LOOP_ASCENT,0.2037,0.21954,0.21863,0.21954,0.1,0.09872,0.6672,0.6677,,0.6443,0.67,0.6677,False,-0.0301,0.0786,0.0,-0.2451,-1.409,-177.7386,160.3021,0.003,True,False,Mode(963497464),1.7874,46,0.6672
2.493,ASCENT,CLOSED_LOOP_ASCENT,0.2048,0.22053,0.21959,0.22053,0.1,0.09835,0.6672,0.6677,,0.6443,0.67,0.6677,False,-0.0309,0.0787,0.0,-0.2526,-1.3918,-177.7386,160.0949,0.005,True,False,Mode(963497464),1.7983,46,0.6672
2.504,ASCENT,CLOSED_LOOP_ASCENT,0.2059,0.22155,0.22062,0.22155,0.1,0.09798,0.6673,0.6677,,0.6443,0.67,0.6677,False,-0.031,0.0787,0.0,-0.2595,-1.3781,-177.7386,159.9091,0.0073,True,False,Mode(963497464),1.8096,46,0.6672
2.515,ASCENT,CLOSED_LOOP_ASCENT,0.207,0.2225,0.22127,0.2225,0.1,0.09748,0.6674,0.6683,,0.6443,0.67,0.6683,False,-0.0223,0.079,0.0,-0.2647,-1.3573,-177.7386,159.598,0.002,True,True,Mode(963497464),1.8206,46,0.6672
2.527,ASCENT,CLOSED_LOOP_ASCENT,0.2081,0.22348,0.22252,0.22348,0.1,0.0971,0.6674,0.6677,,0.6443,0.67,0.6677,False,-0.0308,0.079,0.0,-0.2723,-1.3323,-177.7386,159.4425,0.004,True,False,Mode(963497464),1.8316,47,0.6674
2.537,ASCENT,CLOSED_LOOP_ASCENT,0.2092,0.2245,0.22398,0.2245,0.1,0.0969,0.6674,0.6672,,0.6443,0.67,0.6672,False,-0.0368,0.0787,0.0,-0.2782,-1.3097,-177.7386,159.2713,0.006,True,False,Mode(963497464),1.8425,47,0.6674
2.548,ASCENT,CLOSED_LOOP_ASCENT,0.2103,0.22562,0.22628,0.22628,0.1,0.09716,0.6672,0.6657,,0.6443,0.67,0.6657,False,-0.058,0.0779,0.0,-0.2796,-1.2895,-177.7386,158.8438,0.001,True,False,Mode(963497464),1.8535,47,0.6674
2.559,ASCENT,CLOSED_LOOP_ASCENT,0.2114,0.22669,0.22675,0.22675,0.1,0.09719,0.6672,0.6675,,0.6443,0.67,0.6675,False,-0.0327,0.0782,0.0,-0.2862,-1.272,-177.7386,158.6676,0.0061,True,False,Mode(963497464),1.8646,47,0.6674
2.571,ASCENT,CLOSED_LOOP_ASCENT,0.2125,0.22778,0.22751,0.22778,0.1,0.09708,0.6673,0.6676,,0.6443,0.67,0.6676,False,-0.0321,0.0784,0.0,-0.2931,-1.2569,-177.7386,158.571,0.0085,True,True,Mode(963497464),0.0,47,0.6674
2.581,ASCENT,CLOSED_LOOP_ASCENT,0.2136,0.22881,0.22843,0.22881,0.1,0.09692,0.6673,0.6676,,0.6443,0.67,0.6676,False,-0.0325,0.0785,0.0,-0.2958,-1.2355,-177.7386,158.3051,0.001,True,False,Mode(963497464),0.011,48,0.6673
2.592,ASCENT,CLOSED_LOOP_ASCENT,0.2147,0.22986,0.22968,0.22986,0.1,0.09685,0.6673,0.6672,,0.6443,0.67,0.6672,False,-0.0379,0.0784,0.0,-0.2992,-1.2107,-177.7386,158.1292,0.006,True,False,Mode(963497464),0.0219,48,0.6673
2.603,ASCENT,CLOSED_LOOP_ASCENT,0.2158,0.23093,0.23101,0.23101,0.1,0.09688,0.6673,0.6669,,0.6443,0.67,0.6669,False,-0.0415,0.0782,0.0,-0.2996,-1.1884,-177.7386,157.8767,0.008,True,False,Mode(963497464),0.0329,48,0.6673
2.614,ASCENT,CLOSED_LOOP_ASCENT,0.2169,0.23214,0.23365,0.23365,0.1,0.09748,0.6669,0.6647,,0.6443,0.67,0.6647,False,-0.0711,0.0771,0.0,-0.294,-1.1699,-177.7386,157.2923,0.001,True,False,Mode(963497464),0.0439,48,0.6673
2.625,ASCENT,CLOSED_LOOP_ASCENT,0.218,0.2333,0.23427,0.23427,0.1,0.09787,0.6669,0.6666,,0.6443,0.67,0.6666,False,-0.0454,0.0773,0.0,-0.2953,-1.1533,-177.7386,157.0717,0.003,True,True,Mode(963497464),0.0549,48,0.6673
2.636,ASCENT,CLOSED_LOOP_ASCENT,0.2191,0.23442,0.23497,0.23497,0.1,0.09809,0.6669,0.6668,,0.6443,0.67,0.6668,False,-0.0428,0.0774,0.0,-0.2966,-1.1389,-177.7386,156.916,0.008,True,False,Mode(963497464),0.0658,49,0.6669
2.647,ASCENT,CLOSED_LOOP_ASCENT,0.2202,0.23557,0.23631,0.23631,0.1,0.09838,0.6668,0.6661,,0.6443,0.67,0.6661,False,-0.0524,0.0772,0.0,-0.2979,-1.1189,-177.7386,156.7618,0.001,True,False,Mode(963497464),0.0768,49,0.6669
2.658,ASCENT,CLOSED_LOOP_ASCENT,0.2213,0.2368,0.23832,0.23832,0.1,0.09898,0.6666,0.6648,,0.6443,0.67,0.6648,False,-0.0688,0.0765,0.0,-0.3008,-1.0967,-177.7386,156.7047,0.0031,True,False,Mode(963497464),0.0879,49,0.6669
2.669,ASCENT,CLOSED_LOOP_ASCENT,0.2224,0.23803,0.23962,0.23962,0.1,0.09961,0.6664,0.6652,,0.6443,0.67,0.6652,False,-0.0637,0.0762,0.0,-0.3015,-1.0773,-177.7386,156.6201,0.008,True,False,Mode(963497464),0.0987,49,0.6669
2.68,ASCENT,CLOSED_LOOP_ASCENT,0.2235,0.23943,0.24265,0.24265,0.1,0.10089,0.6659,0.6624,,0.6443,0.67,0.6624,False,-0.1019,0.0747,0.0,-0.3,-1.0585,-177.7386,156.3734,0.001,True,True,Mode(963497464),0.1097,49,0.6669
2.691,ASCENT,CLOSED_LOOP_ASCENT,0.2247,0.24081,0.24314,0.24314,0.1,0.10181,0.6658,0.665,,0.6443,0.67,0.665,False,-0.0663,0.0749,0.0,-0.2998,-1.0432,-177.7386,156.2517,0.004,True,False,Mode(963497464),0.1212,50,0.6659
2.702,ASCENT,CLOSED_LOOP_ASCENT,0.2258,0.24216,0.24462,0.24462,0.1,0.10278,0.6655,0.6637,,0.6443,0.67,0.6637,False,-0.0844,0.0744,0.0,-0.2992,-1.0271,-177.7386,156.135,0.006,True,False,Mode(963497464),0.1321,50,0.6659
2.713,ASCENT,CLOSED_LOOP_ASCENT,0.2269,0.24352,0.24588,0.24588,0.1,0.10372,0.6653,0.6638,,0.6443,0.67,0.6638,False,-0.083,0.074,0.0,-0.2936,-1.0071,-177.7386,155.7714,0.001,True,False,Mode(963497464),0.1431,50,0.6659
2.724,ASCENT,CLOSED_LOOP_ASCENT,0.228,0.24498,0.24839,0.24839,0.1,0.10507,0.6649,0.6617,,0.6443,0.67,0.6617,False,-0.1102,0.0729,0.0,-0.2905,-0.9853,-177.7386,155.6057,0.003,True,False,Mode(963497464),0.1541,50,0.6659
2.736,ASCENT,CLOSED_LOOP_ASCENT,0.2291,0.24643,0.24953,0.24953,0.1,0.1063,0.6646,0.6628,,0.6443,0.67,0.6628,False,-0.0963,0.0725,0.0,-0.2855,-0.966,-177.7386,155.441,0.005,True,True,Mode(963497464),0.165,50,0.6659
2.746,ASCENT,CLOSED_LOOP_ASCENT,0.2301,0.24803,0.25268,0.25268,0.1,0.10813,0.664,0.6596,,0.6443,0.67,0.6596,False,-0.1387,0.0709,0.0,-0.2771,-0.9486,-177.7386,155.0853,0.001,True,False,Mode(963497464),0.1759,51,0.6646
2.757,ASCENT,CLOSED_LOOP_ASCENT,0.2312,0.24962,0.25381,0.25381,0.1,0.10979,0.6637,0.6612,,0.6443,0.67,0.6612,False,-0.1167,0.0704,0.0,-0.2718,-0.9342,-177.7386,154.9492,0.0031,True,False,Mode(963497464),0.1871,51,0.6646
2.768,ASCENT,CLOSED_LOOP_ASCENT,0.2323,0.25119,0.25501,0.25501,0.1,0.1113,0.6634,0.6611,,0.6443,0.67,0.6611,False,-0.1187,0.07,0.0,-0.2666,-0.9183,-177.7386,154.7793,0.005,True,False,Mode(963497464),0.1979,51,0.6646
2.779,ASCENT,CLOSED_LOOP_ASCENT,0.2334,0.25289,0.25808,0.25808,0.1,0.11335,0.6627,0.658,,0.6443,0.67,0.658,False,-0.1594,0.0683,0.0,-0.2557,-0.9022,-177.7386,154.3248,0.001,True,False,Mode(963497464),0.2087,51,0.6646
2.79,ASCENT,CLOSED_LOOP_ASCENT,0.2345,0.25466,0.26008,0.26008,0.1,0.11549,0.6622,0.6585,,0.6443,0.67,0.6585,False,-0.1538,0.0672,0.0,-0.2468,-0.8866,-177.7386,154.0685,0.0035,True,True,Mode(963497464),0.2197,51,0.6646
2.801,ASCENT,CLOSED_LOOP_ASCENT,0.2356,0.25645,0.26199,0.26199,0.1,0.11768,0.6617,0.6578,,0.6443,0.67,0.6578,False,-0.1623,0.0662,0.0,-0.2372,-0.8724,-177.7386,153.815,0.006,True,False,Mode(963497464),0.2307,52,0.6622
2.812,ASCENT,CLOSED_LOOP_ASCENT,0.2367,0.25829,0.26385,0.26385,0.1,0.11987,0.6612,0.6575,,0.6443,0.67,0.6575,False,-0.1665,0.0652,0.0,-0.2259,-0.8572,-177.7386,153.5237,0.008,True,False,Mode(963497464),0.2418,52,0.6622
2.822,ASCENT,CLOSED_LOOP_ASCENT,0.2378,0.26021,0.26711,0.26711,0.1,0.12258,0.6604,0.6541,,0.6443,0.67,0.6541,False,-0.2123,0.063,0.0,-0.2106,-0.8464,-177.7386,152.8677,0.001,True,False,Mode(963497464),0.2523,52,0.6622
2.833,ASCENT,CLOSED_LOOP_ASCENT,0.2389,0.26211,0.26806,0.26806,0.1,0.12492,0.6599,0.6569,,0.6443,0.67,0.6569,False,-0.1742,0.0626,0.0,-0.1998,-0.8367,-177.7386,152.5221,0.006,True,False,Mode(963497464),0.2633,52,0.6622
2.844,ASCENT,CLOSED_LOOP_ASCENT,0.24,0.2641,0.27058,0.27058,0.1,0.12747,0.6593,0.6545,,0.6443,0.67,0.6545,False,-0.2071,0.0611,0.0,-0.1908,-0.8292,-177.7386,152.2107,0.008,True,True,Mode(963497464),0.2743,52,0.6622
2.855,ASCENT,CLOSED_LOOP_ASCENT,0.2411,0.26629,0.27459,0.27459,0.1,0.13074,0.6583,0.6513,,0.6443,0.67,0.6513,False,-0.2499,0.0586,0.0,-0.178,-0.8237,-177.7386,151.7822,0.001,True,False,Mode(963497464),0.2853,53,0.6593
2.866,ASCENT,CLOSED_LOOP_ASCENT,0.2422,0.26851,0.27673,0.27673,0.1,0.13397,0.6576,0.652,,0.6443,0.67,0.652,False,-0.2397,0.0571,0.0,-0.1696,-0.8173,-177.7386,151.674,0.003,True,False,Mode(963497464),0.2962,53,0.6593
2.877,ASCENT,CLOSED_LOOP_ASCENT,0.2433,0.27073,0.27864,0.27864,0.1,0.13709,0.6569,0.6517,,0.6443,0.67,0.6517,False,-0.2439,0.0558,0.0,-0.16,-0.8098,-177.7386,151.5144,0.008,True,False,Mode(963497464),0.3072,53,0.6593
2.888,ASCENT,CLOSED_LOOP_ASCENT,0.2444,0.27313,0.28269,0.28269,0.1,0.14085,0.6558,0.6479,,0.6443,0.67,0.6479,False,-0.2947,0.053,0.0,-0.1488,-0.8136,-177.7386,151.1249,0.001,True,False,Mode(963497464),0.3181,53,0.6593
2.9,ASCENT,CLOSED_LOOP_ASCENT,0.2455,0.2755,0.28418,0.28418,0.1,0.14426,0.6551,0.6499,,0.6443,0.67,0.6499,False,-0.2685,0.0518,0.0,-0.1416,-0.8229,-177.7386,151.0095,0.003,True,True,Mode(963497464),0.3291,53,0.6593
2.91,ASCENT,CLOSED_LOOP_ASCENT,0.2465,0.27779,0.28599,0.28599,0.1,0.14747,0.6543,0.6486,,0.6443,0.67,0.6486,False,-0.2859,0.0502,0.0,-0.1339,-0.8327,-177.7386,150.9151,0.0045,True,False,Mode(963497464),0.3396,54,0.6551
2.921,ASCENT,CLOSED_LOOP_ASCENT,0.2476,0.28046,0.29161,0.29161,0.1,0.15184,0.653,0.6433,,0.6443,0.67,0.6433,False,-0.3554,0.0467,0.0,-0.1277,-0.84,-177.7386,150.9928,0.001,True,False,Mode(963497464),0.3505,54,0.6551
2.932,ASCENT,CLOSED_LOOP_ASCENT,0.2487,0.28314,0.29385,0.29385,0.1,0.15604,0.652,0.645,,0.6443,0.67,0.645,False,-0.3327,0.0448,0.0,-0.1183,-0.8455,-177.7386,150.872,0.003,True,False,Mode(963497464),0.3615,54,0.6551
2.943,ASCENT,CLOSED_LOOP_ASCENT,0.2498,0.28583,0.29611,0.29611,0.1,0.16007,0.6511,0.6444,,0.6443,0.67,0.6444,False,-0.3418,0.0429,0.0,-0.1085,-0.8555,-177.7386,150.7017,0.005,True,False,Mode(963497464),0.3725,54,0.6551
2.954,ASCENT,CLOSED_LOOP_ASCENT,0.2509,0.28869,0.30032,0.30032,0.1,0.16464,0.6499,0.6408,,0.6443,0.67,0.6408,False,-0.3897,0.0398,0.0,-0.0951,-0.8836,-177.7386,150.1558,0.001,True,True,Mode(963497464),0.3835,54,0.6551
2.965,ASCENT,CLOSED_LOOP_ASCENT,0.252,0.29153,0.30245,0.30245,0.1,0.16892,0.6489,0.6419,,0.6443,0.67,0.6419,False,-0.3746,0.0379,0.0,-0.0861,-0.9104,-177.7386,149.9806,0.0032,True,False,Mode(963497464),0.3946,55,0.6499
2.976,ASCENT,CLOSED_LOOP_ASCENT,0.2531,0.29439,0.305,0.305,0.1,0.17309,0.6479,0.6408,,0.6443,0.67,0.6408,False,-0.3897,0.0358,0.0,-0.0772,-0.9336,-177.7386,149.8029,0.005,True,False,Mode(963497464),0.4054,55,0.6499
2.986,ASCENT,CLOSED_LOOP_ASCENT,0.2542,0.29726,0.30819,0.30819,0.1,0.17737,0.6468,0.6384,,0.6443,0.67,0.6384,False,-0.4213,0.033,0.0,-0.0683,-0.9528,-177.7386,149.6711,0.0066,True,False,Mode(963497464),0.416,55,0.6499
2.997,ASCENT,CLOSED_LOOP_ASCENT,0.2552,0.30045,0.31358,0.31358,0.1,0.18251,0.6454,0.6348,,0.6443,0.67,0.6348,False,-0.47,0.0292,0.0,-0.0535,-0.9763,-177.7386,149.1758,0.003,True,False,Mode(963497464),0.427,55,0.6499
3.008,ASCENT,CLOSED_LOOP_ASCENT,0.2563,0.30366,0.31642,0.31642,0.1,0.18751,0.6442,0.6355,,0.6443,0.67,0.6355,False,-0.4596,0.0266,0.0,-0.0423,-1.0029,-177.7386,148.8886,0.005,True,True,Mode(963497464),0.438,55,0.6499
3.019,ASCENT,CLOSED_LOOP_ASCENT,0.2574,0.30685,0.31887,0.31887,0.1,0.19222,0.6431,0.6352,,0.6443,0.67,0.6352,False,-0.464,0.0243,0.0,-0.0316,-1.0334,-177.7386,148.6405,0.007,True,False,Mode(963497464),0.4489,56,0.6442
3.031,ASCENT,CLOSED_LOOP_ASCENT,0.2586,0.31032,0.32358,0.32358,0.1,0.19744,0.6417,0.6322,,0.6443,0.67,0.6322,False,-0.5039,0.0209,0.0,-0.0224,-1.0699,-177.7386,148.4777,0.001,True,False,Mode(963497464),0.4604,56,0.6442
3.041,ASCENT,CLOSED_LOOP_ASCENT,0.2597,0.3137,0.32648,0.32648,0.1,0.20247,0.6405,0.6312,,0.6443,0.67,0.6312,False,-0.5168,0.0178,0.0,-0.0141,-1.1016,-177.7386,148.3628,0.003,True,False,Mode(963497464),0.4714,56,0.6442
3.052,ASCENT,CLOSED_LOOP_ASCENT,0.2608,0.31712,0.32964,0.32964,0.1,0.2074,0.6392,0.6304,,0.6443,0.67,0.6304,False,-0.5274,0.0149,0.0,-0.0065,-1.1301,-177.7386,148.2616,0.008,True,False,Mode(963497464),0.4823,56,0.6442
3.064,ASCENT,CLOSED_LOOP_ASCENT,0.2619,0.32084,0.33559,0.33559,0.1,0.21322,0.6376,0.6256,,0.6443,0.67,0.6256,False,-0.5915,0.0104,0.0,0.0046,-1.1686,-177.7386,147.9783,0.0015,True,True,Mode(963497464),0.4935,56,0.6442
3.075,ASCENT,CLOSED_LOOP_ASCENT,0.263,0.32452,0.33867,0.33867,0.1,0.2188,0.6362,0.6263,,0.6443,0.67,0.6263,False,-0.583,0.0072,0.0,0.0146,-1.2065,-177.7386,147.8004,0.004,True,False,Mode(963497464),0.5045,57,0.6376
3.086,ASCENT,CLOSED_LOOP_ASCENT,0.2641,0.32829,0.34146,0.34146,0.1,0.22401,0.6351,0.627,,0.6443,0.67,0.627,False,-0.5733,0.0047,0.0,0.0218,-1.2477,-177.7386,147.7747,0.007,True,False,Mode(963497464),0.5159,57,0.6376
3.098,ASCENT,CLOSED_LOOP_ASCENT,0.2653,0.33226,0.34675,0.34675,0.1,0.22977,0.6335,0.6222,,0.6443,0.67,0.6222,False,-0.6367,0.0003,0.0,0.0315,-1.2863,-177.7386,147.667,0.001,True,False,Mode(963497464),0.5274,57,0.6376
3.108,ASCENT,CLOSED_LOOP_ASCENT,0.2664,0.33611,0.34998,0.34998,0.1,0.23528,0.632,0.6217,,0.6443,0.67,0.6217,False,-0.6434,-0.0033,0.0,0.0423,-1.3214,-177.7386,147.5,0.006,True,False,Mode(963497464),0.5384,57,0.6376
3.119,ASCENT,CLOSED_LOOP_ASCENT,0.2675,0.33998,0.35341,0.35341,0.1,0.24061,0.6307,0.6211,,0.6443,0.67,0.6211,False,-0.6527,-0.0067,0.0,0.0539,-1.3547,-177.7386,147.3197,0.007,True,True,Mode(963497464),0.5494,57,0.6376
3.131,ASCENT,CLOSED_LOOP_ASCENT,0.2686,0.34417,0.35978,0.35978,0.1,0.24681,0.6289,0.6161,,0.6443,0.67,0.6161,False,-0.7181,-0.0118,0.0,0.077,-1.3936,-177.7386,146.7017,0.0007,True,False,Mode(963497464),0.5606,58,0.6307
3.142,ASCENT,CLOSED_LOOP_ASCENT,0.2697,0.34823,0.36236,0.36236,0.1,0.25242,0.6276,0.6179,,0.6443,0.67,0.6179,False,-0.6952,-0.015,0.0,0.0923,-1.4321,-177.7386,146.4277,0.003,True,False,Mode(963497464),0.5716,58,0.6307
3.153,ASCENT,CLOSED_LOOP_ASCENT,0.2708,0.35229,0.36568,0.36568,0.1,0.25773,0.6263,0.6167,,0.6443,0.67,0.6167,False,-0.7109,-0.0183,0.0,0.1056,-1.4712,-177.7386,146.2571,0.008,True,False,Mode(963497464),0.5825,58,0.6307
3.164,ASCENT,CLOSED_LOOP_ASCENT,0.2719,0.35653,0.37126,0.37126,0.1,0.26357,0.6246,0.6124,,0.6443,0.67,0.6124,False,-0.7681,-0.0232,0.0,0.1197,-1.504,-177.7386,146.023,0.001,True,False,Mode(963497464),0.5935,58,0.6307
3.176,ASCENT,CLOSED_LOOP_ASCENT,0.273,0.36075,0.37471,0.37471,0.1,0.2691,0.6232,0.6131,,0.6443,0.67,0.6131,False,-0.7587,-0.0268,0.0,0.1325,-1.534,-177.7386,145.8963,0.003,True,True,Mode(963497464),0.6045,58,0.6307
3.185,ASCENT,CLOSED_LOOP_ASCENT,0.274,0.3648,0.37798,0.37798,0.1,0.2743,0.6218,0.6112,,0.6443,0.67,0.6112,False,-0.7845,-0.0307,0.0,0.1466,-1.5626,-177.7386,145.6737,0.0074,True,False,Mode(963497464),0.6148,59,0.6232
