time,state,controller_mode,target_z,curr_z,raw_z,height_for_safety,target_vz,curr_vz,thrust,raw_thrust,search_thrust,liftoff_thrust,hover_thrust_est,thrust_no_floor,floor_applied,a_cmd_z,v_cmd_z,z_integral,roll_cmd_deg,pitch_cmd_deg,yaw_cmd_deg,yaw_mocap_deg,mocap_age,kf_used_measurement,mavlink_sent,mav_mode,mav_heartbeat_age,mav_send_count,mav_last_thrust
0.007,THRUST_SEARCH,OPEN_LOOP,0.001,0.00103,0.001,0.00103,0.0,-2e-05,0.58,0.58,0.58,,0.67,,False,0.0,0.0,0.0,0.0,0.0,-0.1609,-0.5553,0.009,True,True,Mode(963497464),0.0,0,
0.011,THRUST_SEARCH,OPEN_LOOP,0.0009,0.00091,0.00077,0.00091,0.0,-0.0004,0.5802,0.5802,0.5802,,0.67,,False,0.0,0.0,0.0,0.0,0.0,-0.1609,-0.5271,0.0008,True,False,Mode(963497464),0.0108,1,0.58
0.022,THRUST_SEARCH,OPEN_LOOP,0.0009,0.00086,0.00077,0.00086,0.0,-0.00078,0.5804,0.5804,0.5804,,0.67,,False,0.0,0.0,0.0,0.0,0.0,-0.1609,-0.4387,0.002,True,False,Mode(963497464),0.0218,1,0.58
0.033,THRUST_SEARCH,OPEN_LOOP,0.0009,0.0009,0.00102,0.00102,0.0,-0.00014,0.5807,0.5807,0.5807,,0.67,,False,0.0,0.0,0.0,0.0,0.0,-0.1609,-0.4618,0.001,True,False,Mode(963497464),0.0329,1,0.58
0.045,THRUST_SEARCH,OPEN_LOOP,0.0009,0.00094,0.00102,0.00102,0.0,0.00039,0.5809,0.5809,0.5809,,0.67,,False,0.0,0.0,0.0,0.0,0.0,-0.1609,-0.4618,0.0125,True,False,Mode(963497464),0.0444,1,0.58
0.055,THRUST_SEARCH,OPEN_LOOP,0.0011,0.00109,0.00144,0.00144,0.0,0.00264,0.5811,0.5811,0.5811,,0.67,,False,0.0,0.0,0.0,0.0,0.0,-0.1609,-0.5502,0.004,True,True,Mode(963497464),0.0554,1,0.58
0.067,THRUST_SEARCH,OPEN_LOOP,0.0012,0.00117,0.0013,0.0013,0.0,0.00345,0.5813,0.5813,0.5813,,0.67,,False,0.0,0.0,0.0,0.0,0.0,-0.1609,-0.5884,0.009,True,False,Mode(963497464),0.0664,2,0.5811
0.077,THRUST_SEARCH,OPEN_LOOP,0.0013,0.00131,0.00158,0.00158,0.0,0.00498,0.5815,0.5815,0.5815,,0.67,,False,0.0,0.0,0.0,0.0,0.0,-0.1609,-0.6794,0.0015,True,False,Mode(963497464),0.0769,2,0.5811
0.088,THRUST_SEARCH,OPEN_LOOP,0.0014,0.00141,0.00151,0.00151,0.0,0.00554,0.5818,0.5818,0.5818,,0.67,,False,0.0,0.0,0.0,0.0,0.0,-0.1609,-0.7244,0.006,True,False,Mode(963497464),0.0878,2,0.5811
0.099,THRUST_SEARCH,OPEN_LOOP,0.0015,0.00151,0.00162,0.00162,0.0,0.00606,0.582,0.582,0.582,,0.67,,False,0.0,0.0,0.0,0.0,0.0,-0.1609,-0.7439,0.008,True,False,Mode(963497464),0.0988,2,0.5811
0.111,THRUST_SEARCH,OPEN_LOOP,0.0015,0.00151,0.00131,0.00151,0.0,0.00525,0.5822,0.5822,0.5822,,0.67,,False,0.0,0.0,0.0,0.0,0.0,-0.1609,-0.7419,0.01,True,True,Mode(963497464),0.1098,2,0.5811
0.121,THRUST_SEARCH,OPEN_LOOP,0.0013,0.00134,0.00067,0.00134,0.0,0.00275,0.5824,0.5824,0.5824,,0.67,,False,0.0,0.0,0.0,0.0,0.0,-0.1609,-0.6724,0.0044,True,False,Mode(963497464),0.1212,3,0.5822
0.132,THRUST_SEARCH,OPEN_LOOP,0.0012,0.00122,0.00076,0.00122,0.0,0.00124,0.5826,0.5826,0.5826,,0.67,,False,0.0,0.0,0.0,0.0,0.0,-0.1609,-0.6213,0.0069,True,False,Mode(963497464),0.132,3,0.5822
0.143,THRUST_SEARCH,OPEN_LOOP,0.0011,0.00106,0.00048,0.00106,0.0,-0.00045,0.5829,0.5829,0.5829,,0.67,,False,0.0,0.0,0.0,0.0,0.0,-0.1609,-0.5521,0.009,True,False,Mode(963497464),0.143,3,0.5822
0.154,THRUST_SEARCH,OPEN_LOOP,0.001,0.001,0.00079,0.001,0.0,-0.00097,0.5831,0.5831,0.5831,,0.67,,False,0.0,0.0,0.0,0.0,0.0,-0.1609,-0.4118,0.005,True,False,Mode(963497464),0.1539,3,0.5822
0.165,THRUST_SEARCH,OPEN_LOOP,0.001,0.00098,0.00095,0.00098,0.0,-0.00104,0.5833,0.5833,0.5833,,0.67,,False,0.0,0.0,0.0,0.0,0.0,-0.1609,-0.3137,0.0066,True,True,Mode(963497464),0.1646,3,0.5822
0.176,THRUST_SEARCH,OPEN_LOOP,0.001,0.00102,0.00123,0.00123,0.0,-0.00062,0.5835,0.5835,0.5835,,0.67,,False,0.0,0.0,0.0,0.0,0.0,-0.1609,-0.2731,0.009,True,False,Mode(963497464),0.1755,4,0.5833
0.186,THRUST_SEARCH,OPEN_LOOP,0.0012,0.00121,0.00204,0.00204,0.0,0.0009,0.5837,0.5837,0.5837,,0.67,,False,0.0,0.0,0.0,0.0,0.0,-0.1609,-0.4232,0.0015,True,False,Mode(963497464),0.186,4,0.5833
0.197,THRUST_SEARCH,OPEN_LOOP,0.0016,0.0016,0.0033,0.0033,0.0,0.00371,0.5839,0.5839,0.5839,,0.67,,False,0.0,0.0,0.0,0.0,0.0,-0.1609,-0.6123,0.006,True,False,Mode(963497464),0.197,4,0.5833
0.208,THRUST_SEARCH,OPEN_LOOP,0.0022,0.0022,0.00475,0.00475,0.0,0.00757,0.5842,0.5842,0.5842,,0.67,,False,0.0,0.0,0.0,0.0,0.0,-0.1609,-0.8397,0.008,True,False,Mode(963497464),0.208,4,0.5833
0.219,THRUST_SEARCH,OPEN_LOOP,0.0033,0.00331,0.00824,0.00824,0.0,0.0144,0.5844,0.5844,0.5844,,0.67,,False,0.0,0.0,0.0,0.0,0.0,-0.1609,-1.1789,0.003,True,True,Mode(963497464),0.2193,4,0.5833
0.23,THRUST_SEARCH,OPEN_LOOP,0.0046,0.00456,0.01016,0.01016,0.0,0.02148,0.5846,0.5846,0.5846,,0.67,,False,0.0,0.0,0.0,0.0,0.0,-0.1609,-1.2705,0.0045,True,False,Mode(963497464),0.2298,5,0.5844
0.241,THRUST_SEARCH,OPEN_LOOP,0.0058,0.0058,0.01114,0.01114,0.0,0.0277,0.5848,0.5848,0.5848,,0.67,,False,0.0,0.0,0.0,0.0,0.0,-0.1609,-1.2619,0.0067,True,False,Mode(963497464),0.2405,5,0.5844
0.251,THRUST_SEARCH,OPEN_LOOP,0.007,0.00704,0.01225,0.01225,0.0,0.03331,0.585,0.585,0.585,,0.67,,False,0.0,0.0,0.0,0.0,0.0,-0.1609,-1.2824,0.009,True,False,Mode(963497464),0.2514,5,0.5844
0.262,THRUST_SEARCH,OPEN_LOOP,0.0085,0.00847,0.01455,0.01455,0.0,0.0394,0.5852,0.5852,0.5852,,0.67,,False,0.0,0.0,0.0,0.0,0.0,-0.1609,-1.1892,0.004,True,False,Mode(963497464),0.2624,5,0.5844
0.274,THRUST_SEARCH,OPEN_LOOP,0.01,0.01,0.01655,0.01655,0.0,0.04551,0.5855,0.5855,0.5855,,0.67,,False,0.0,0.0,0.0,0.0,0.0,-0.1609,-1.1757,0.006,True,True,Mode(963497464),0.2734,5,0.5844
0.284,THRUST_SEARCH,OPEN_LOOP,0.0116,0.01162,0.0187,0.0187,0.0,0.05168,0.5857,0.5857,0.5857,,0.67,,False,0.0,0.0,0.0,0.0,0.0,-0.1609,-0.9258,0.0015,True,False,Mode(963497464),0.2839,6,0.5855
0.295,THRUST_SEARCH,OPEN_LOOP,0.0132,0.01318,0.01954,0.01954,0.0,0.05689,0.5859,0.5859,0.5859,,0.67,,False,0.0,0.0,0.0,0.0,0.0,-0.1609,-0.7086,0.002,True,False,Mode(963497464),0.2949,6,0.5855
0.306,THRUST_SEARCH,OPEN_LOOP,0.0149,0.01486,0.02168,0.02168,0.0,0.06217,0.5861,0.5861,0.5861,,0.67,,False,0.0,0.0,0.0,0.0,0.0,-0.1609,-0.4942,0.007,True,False,Mode(963497464),0.3061,6,0.5855
0.317,THRUST_SEARCH,OPEN_LOOP,0.0162,0.01624,0.021,0.021,0.0,0.06566,0.5863,0.5863,0.5863,,0.67,,False,0.0,0.0,0.0,0.0,0.0,-0.1609,-0.424,0.006,True,False,Mode(963497464),0.3171,6,0.5855
0.328,THRUST_SEARCH,OPEN_LOOP,0.0176,0.0176,0.02212,0.02212,0.0,0.0688,0.5866,0.5866,0.5866,,0.67,,False,0.0,0.0,0.0,0.0,0.0,-0.1609,-0.568,0.0039,True,True,Mode(963497464),0.328,6,0.5855
0.339,THRUST_SEARCH,OPEN_LOOP,0.019,0.01897,0.02336,0.02336,0.0,0.07171,0.5868,0.5868,0.5868,,0.67,,False,0.0,0.0,0.0,0.0,0.0,-0.1609,-0.728,0.006,True,False,Mode(963497464),0.339,7,0.5866
0.35,THRUST_SEARCH,OPEN_LOOP,0.0203,0.02028,0.02418,0.02418,0.0,0.07417,0.587,0.587,0.587,,0.67,,False,0.0,0.0,0.0,0.0,0.0,-0.1609,-0.8748,0.008,True,False,Mode(963497464),0.3499,7,0.5866
0.36,THRUST_SEARCH,OPEN_LOOP,0.0215,0.02148,0.02474,0.02474,0.0,0.07614,0.5872,0.5872,0.5872,,0.67,,False,0.0,0.0,0.0,0.0,0.0,-0.1609,-0.9771,0.003,True,False,Mode(963497464),0.3603,7,0.5866
0.371,THRUST_SEARCH,OPEN_LOOP,0.0226,0.02264,0.02546,0.02546,0.0,0.07777,0.5874,0.5874,0.5874,,0.67,,False,0.0,0.0,0.0,0.0,0.0,-0.1609,-0.9764,0.0045,True,False,Mode(963497464),0.3708,7,0.5866
0.382,THRUST_SEARCH,OPEN_LOOP,0.0237,0.02372,0.02559,0.02559,0.0,0.07881,0.5876,0.5876,0.5876,,0.67,,False,0.0,0.0,0.0,0.0,0.0,-0.1609,-0.9946,0.007,True,True,Mode(963497464),0.3818,7,0.5866
0.393,THRUST_SEARCH,OPEN_LOOP,0.0247,0.02468,0.02506,0.02506,0.0,0.07901,0.5879,0.5879,0.5879,,0.67,,False,0.0,0.0,0.0,0.0,0.0,-0.1609,-1.2827,0.001,True,False,Mode(963497464),0.3933,8,0.5876
0.404,THRUST_SEARCH,OPEN_LOOP,0.0254,0.02542,0.0247,0.02542,0.0,0.07864,0.5881,0.5881,0.5881,,0.67,,False,0.0,0.0,0.0,0.0,0.0,-0.1609,-1.5039,0.003,True,False,Mode(963497464),0.4038,8,0.5876
0.415,THRUST_SEARCH,OPEN_LOOP,0.0261,0.02611,0.02464,0.02611,0.0,0.07789,0.5883,0.5883,0.5883,,0.67,,False,0.0,0.0,0.0,0.0,0.0,-0.1609,-1.7846,0.005,True,False,Mode(963497464),0.4147,8,0.5876
0.426,THRUST_SEARCH,OPEN_LOOP,0.0267,0.02673,0.02472,0.02673,0.0,0.07691,0.5885,0.5885,0.5885,,0.67,,False,0.0,0.0,0.0,0.0,0.0,-0.1609,-2.0718,0.001,True,False,Mode(963497464),0.4257,8,0.5876
0.439,THRUST_SEARCH,OPEN_LOOP,0.0274,0.02736,0.02474,0.02736,0.0,0.07564,0.5888,0.5888,0.5888,,0.67,,False,0.0,0.0,0.0,0.0,0.0,-0.1609,-1.983,0.0001,True,True,Mode(963497464),0.4378,8,0.5876
0.449,THRUST_SEARCH,OPEN_LOOP,0.0279,0.02786,0.025,0.02786,0.0,0.07429,0.589,0.589,0.589,,0.67,,False,0.0,0.0,0.0,0.0,0.0,-0.1609,-1.6997,0.002,True,False,Mode(963497464),0.4486,9,0.5888
0.461,THRUST_SEARCH,OPEN_LOOP,0.0282,0.02824,0.02436,0.02824,0.0,0.07249,0.5892,0.5892,0.5892,,0.67,,False,0.0,0.0,0.0,0.0,0.0,-0.1609,-1.3571,0.01,True,False,Mode(963497464),0.4596,9,0.5888
0.47,THRUST_SEARCH,OPEN_LOOP,0.0284,0.02837,0.02262,0.02837,0.0,0.06989,0.5894,0.5894,0.5894,,0.67,,False,0.0,0.0,0.0,0.0,0.0,-0.1609,-0.8545,0.0045,True,False,Mode(963497464),0.0,9,0.5888
0.481,THRUST_SEARCH,OPEN_LOOP,0.0284,0.02842,0.02197,0.02842,0.0,0.06703,0.5896,0.5896,0.5896,,0.67,,False,0.0,0.0,0.0,0.0,0.0,-0.1609,-0.8386,0.0037,True,False,Mode(963497464),0.0107,9,0.5888
0.493,THRUST_SEARCH,OPEN_LOOP,0.0284,0.02836,0.02086,0.02836,0.0,0.06376,0.5898,0.5898,0.5898,,0.67,,False,0.0,0.0,0.0,0.0,0.0,-0.1609,-1.0426,0.009,True,True,Mode(963497464),0.0216,9,0.5888
0.502,THRUST_SEARCH,OPEN_LOOP,0.0281,0.02812,0.01946,0.02812,0.0,0.06005,0.59,0.59,0.59,,0.67,,False,0.0,0.0,0.0,0.0,0.0,-0.1609,-1.3159,0.0015,True,False,Mode(963497464),0.0321,10,0.5898
0.513,THRUST_SEARCH,OPEN_LOOP,0.0278,0.02783,0.01887,0.02783,0.0,0.05627,0.5903,0.5903,0.5903,,0.67,,False,0.0,0.0,0.0,0.0,0.0,-0.1609,-1.2602,0.0045,True,False,Mode(963497464),0.0426,10,0.5898
0.523,THRUST_SEARCH,OPEN_LOOP,0.0274,0.02743,0.01766,0.02743,0.0,0.05221,0.5905,0.5905,0.5905,,0.67,,False,0.0,0.0,0.0,0.0,0.0,-0.1609,-1.067,0.0045,True,False,Mode(963497464),0.0532,10,0.5898
0.534,THRUST_SEARCH,OPEN_LOOP,0.0268,0.02684,0.01539,0.02684,0.0,0.04748,0.5907,0.5907,0.5907,,0.67,,False,0.0,0.0,0.0,0.0,0.0,-0.1609,-0.5316,0.001,True,False,Mode(963497464),0.0641,10,0.5898
0.545,THRUST_SEARCH,OPEN_LOOP,0.0261,0.02613,0.0139,0.02613,0.0,0.04248,0.5909,0.5909,0.5909,,0.67,,False,0.0,0.0,0.0,0.0,0.0,-0.1609,-0.4136,0.003,True,True,Mode(963497464),0.0751,10,0.5898
0.556,THRUST_SEARCH,OPEN_LOOP,0.0254,0.02538,0.01319,0.02538,0.0,0.03752,0.5911,0.5911,0.5911,,0.67,,False,0.0,0.0,0.0,0.0,0.0,-0.1609,-0.4647,0.005,True,False,Mode(963497464),0.086,11,0.5909
0.567,THRUST_SEARCH,OPEN_LOOP,0.0244,0.0244,0.01033,0.0244,0.0,0.03184,0.5913,0.5913,0.5913,,0.67,,False,0.0,0.0,0.0,0.0,0.0,-0.1609,-0.9661,0.001,True,False,Mode(963497464),0.097,11,0.5909
0.578,THRUST_SEARCH,OPEN_LOOP,0.0234,0.02336,0.00931,0.02336,0.0,0.02619,0.5916,0.5916,0.5916,,0.67,,False,0.0,0.0,0.0,0.0,0.0,-0.1609,-1.1474,0.0031,True,False,Mode(963497464),0.1081,11,0.5909
0.589,THRUST_SEARCH,OPEN_LOOP,0.0223,0.02228,0.00845,0.02228,0.0,0.02068,0.5918,0.5918,0.5918,,0.67,,False,0.0,0.0,0.0,0.0,0.0,-0.1609,-1.2027,0.0045,True,False,Mode(963497464),0.1185,11,0.5909
0.6,THRUST_SEARCH,OPEN_LOOP,0.0212,0.02116,0.00739,0.02116,0.0,0.01521,0.592,0.592,0.592,,0.67,,False,0.0,0.0,0.0,0.0,0.0,-0.1609,-1.0879,0.0071,True,True,Mode(963497464),0.1295,11,0.5909
0.611,THRUST_SEARCH,OPEN_LOOP,0.02,0.01998,0.00603,0.01998,0.0,0.00968,0.5922,0.5922,0.5922,,0.67,,False,0.0,0.0,0.0,0.0,0.0,-0.1609,-0.4178,0.001,True,False,Mode(963497464),0.1405,12,0.592
0.622,THRUST_SEARCH,OPEN_LOOP,0.0191,0.01906,0.00853,0.01906,0.0,0.00552,0.5924,0.5924,0.5924,,0.67,,False,0.0,0.0,0.0,0.0,0.0,-0.1609,-0.2768,0.006,True,False,Mode(963497464),0.1514,12,0.592
0.632,THRUST_SEARCH,OPEN_LOOP,0.0181,0.01806,0.00707,0.01806,0.0,0.00119,0.5926,0.5926,0.5926,,0.67,,False,0.0,0.0,0.0,0.0,0.0,-0.1609,-0.3014,0.008,True,False,Mode(963497464),0.1624,12,0.592
0.644,THRUST_SEARCH,OPEN_LOOP,0.0172,0.01718,0.00787,0.01718,0.0,-0.00249,0.5929,0.5929,0.5929,,0.67,,False,0.0,0.0,0.0,0.0,0.0,-0.1609,-0.3895,0.007,True,False,Mode(963497464),0.1736,12,0.592
0.656,THRUST_SEARCH,OPEN_LOOP,0.0163,0.01634,0.00798,0.01634,0.0,-0.00578,0.5931,0.5931,0.5931,,0.67,,False,0.0,0.0,0.0,0.0,0.0,-0.1609,-0.3868,0.005,True,True,Mode(963497464),0.1845,12,0.592
0.665,THRUST_SEARCH,OPEN_LOOP,0.0158,0.01577,0.0104,0.01577,0.0,-0.00789,0.5933,0.5933,0.5933,,0.67,,False,0.0,0.0,0.0,0.0,0.0,-0.1609,-0.0858,0.001,True,False,Mode(963497464),0.195,13,0.5931
0.676,THRUST_SEARCH,OPEN_LOOP,0.0152,0.01517,0.00984,0.01517,0.0,-0.00998,0.5935,0.5935,0.5935,,0.67,,False,0.0,0.0,0.0,0.0,0.0,-0.1609,0.4934,0.009,True,False,Mode(963497464),0.206,13,0.5931
0.687,THRUST_SEARCH,OPEN_LOOP,0.0148,0.0148,0.01203,0.0148,0.0,-0.01106,0.5937,0.5937,0.5937,,0.67,,False,0.0,0.0,0.0,0.0,0.0,-0.1609,1.7978,0.0,True,False,Mode(963497464),0.217,13,0.5931
0.698,THRUST_SEARCH,OPEN_LOOP,0.0146,0.01456,0.01334,0.01456,0.0,-0.01154,0.594,0.594,0.594,,0.67,,False,0.0,0.0,0.0,0.0,0.0,-0.1609,2.1163,0.004,True,False,Mode(963497464),0.2279,13,0.5931
0.71,THRUST_SEARCH,OPEN_LOOP,0.0145,0.01445,0.01461,0.01461,0.0,-0.01148,0.5942,0.5942,0.5942,,0.67,,False,0.0,0.0,0.0,0.0,0.0,-0.1609,2.2593,0.0095,True,True,Mode(963497464),0.2387,13,0.5931
0.72,THRUST_SEARCH,OPEN_LOOP,0.0144,0.01445,0.0157,0.0157,0.0,-0.01099,0.5944,0.5944,0.5944,,0.67,,False,0.0,0.0,0.0,0.0,0.0,-0.1609,2.0047,0.004,True,False,Mode(963497464),0.2497,14,0.5942
0.731,THRUST_SEARCH,OPEN_LOOP,0.0144,0.01444,0.0156,0.0156,0.0,-0.01053,0.5946,0.5946,0.5946,,0.67,,False,0.0,0.0,0.0,0.0,0.0,-0.1609,1.8035,0.005,True,False,Mode(963497464),0.2607,14,0.5942
0.741,THRUST_SEARCH,OPEN_LOOP,0.0146,0.01457,0.01719,0.01719,0.0,-0.00951,0.5948,0.5948,0.5948,,0.67,,False,0.0,0.0,0.0,0.0,0.0,-0.1609,2.063,0.0,True,False,Mode(963497464),0.2714,14,0.5942
0.752,THRUST_SEARCH,OPEN_LOOP,0.0147,0.01474,0.01766,0.01766,0.0,-0.00837,0.595,0.595,0.595,,0.67,,False,0.0,0.0,0.0,0.0,0.0,-0.1609,2.4435,0.002,True,False,Mode(963497464),0.2823,14,0.5942
0.763,THRUST_SEARCH,OPEN_LOOP,0.0149,0.01491,0.01761,0.01761,0.0,-0.00732,0.5953,0.5953,0.5953,,0.67,,False,0.0,0.0,0.0,0.0,0.0,-0.1609,2.7567,0.004,True,True,Mode(963497464),0.2931,14,0.5942
0.775,THRUST_SEARCH,OPEN_LOOP,0.0149,0.01494,0.0162,0.0162,0.0,-0.00683,0.5955,0.5955,0.5955,,0.67,,False,0.0,0.0,0.0,0.0,0.0,-0.1609,2.9646,0.006,True,False,Mode(963497464),0.3045,15,0.5953
0.786,THRUST_SEARCH,OPEN_LOOP,0.015,0.015,0.01642,0.01642,0.0,-0.00627,0.5957,0.5957,0.5957,,0.67,,False,0.0,0.0,0.0,0.0,0.0,-0.1609,2.5646,0.002,True,False,Mode(963497464),0.3155,15,0.5953
0.797,THRUST_SEARCH,OPEN_LOOP,0.0152,0.01515,0.01742,0.01742,0.0,-0.00538,0.5959,0.5959,0.5959,,0.67,,False,0.0,0.0,0.0,0.0,0.0,-0.1609,2.0059,0.004,True,False,Mode(963497464),0.3265,15,0.5953
0.809,THRUST_SEARCH,OPEN_LOOP,0.0153,0.01532,0.01772,0.01772,0.0,-0.00443,0.5962,0.5962,0.5962,,0.67,,False,0.0,0.0,0.0,0.0,0.0,-0.1609,1.472,0.006,True,False,Mode(963497464),0.3374,15,0.5953
0.818,THRUST_SEARCH,OPEN_LOOP,0.0154,0.01544,0.01718,0.01718,0.0,-0.00375,0.5964,0.5964,0.5964,,0.67,,False,0.0,0.0,0.0,0.0,0.0,-0.1609,0.9242,0.0014,True,True,Mode(963497464),0.3478,15,0.5953
0.829,THRUST_SEARCH,OPEN_LOOP,0.0155,0.01551,0.01673,0.01673,0.0,-0.00328,0.5966,0.5966,0.5966,,0.67,,False,0.0,0.0,0.0,0.0,0.0,-0.1609,0.9484,0.003,True,False,Mode(963497464),0.3588,16,0.5964
0.84,THRUST_SEARCH,OPEN_LOOP,0.0155,0.01553,0.01611,0.01611,0.0,-0.00305,0.5968,0.5968,0.5968,,0.67,,False,0.0,0.0,0.0,0.0,0.0,-0.1609,1.2365,0.004,True,False,Mode(963497464),0.3697,16,0.5964
0.851,THRUST_SEARCH,OPEN_LOOP,0.0154,0.01542,0.01461,0.01542,0.0,-0.00337,0.597,0.597,0.597,,0.67,,False,0.0,0.0,0.0,0.0,0.0,-0.1609,1.9185,0.001,True,False,Mode(963497464),0.3812,16,0.5964
0.862,THRUST_SEARCH,OPEN_LOOP,0.0153,0.01528,0.01421,0.01528,0.0,-0.00379,0.5972,0.5972,0.5972,,0.67,,False,0.0,0.0,0.0,0.0,0.0,-0.1609,1.8401,0.003,True,False,Mode(963497464),0.3922,16,0.5964
0.873,THRUST_SEARCH,OPEN_LOOP,0.0152,0.01515,0.0142,0.01515,0.0,-0.00416,0.5975,0.5975,0.5975,,0.67,,False,0.0,0.0,0.0,0.0,0.0,-0.1609,1.5888,0.0045,True,True,Mode(963497464),0.4027,16,0.5964
0.884,THRUST_SEARCH,OPEN_LOOP,0.0149,0.01494,0.01315,0.01494,0.0,-0.00487,0.5977,0.5977,0.5977,,0.67,,False,0.0,0.0,0.0,0.0,0.0,-0.1609,1.3617,0.001,True,False,Mode(963497464),0.4136,17,0.5975
0.895,THRUST_SEARCH,OPEN_LOOP,0.0147,0.0147,0.01283,0.0147,0.0,-0.0056,0.5979,0.5979,0.5979,,0.67,,False,0.0,0.0,0.0,0.0,0.0,-0.1609,1.5766,0.003,True,False,Mode(963497464),0.4246,17,0.5975
0.905,THRUST_SEARCH,OPEN_LOOP,0.0145,0.01449,0.01289,0.01449,0.0,-0.00623,0.5981,0.5981,0.5981,,0.67,,False,0.0,0.0,0.0,0.0,0.0,-0.1609,1.8595,0.0045,True,False,Mode(963497464),0.4351,17,0.5975
0.916,THRUST_SEARCH,OPEN_LOOP,0.0142,0.01419,0.01164,0.01419,0.0,-0.00723,0.5983,0.5983,0.5983,,0.67,,False,0.0,0.0,0.0,0.0,0.0,-0.1609,2.1221,0.007,True,False,Mode(963497464),0.4461,17,0.5975
0.927,THRUST_SEARCH,OPEN_LOOP,0.0138,0.0138,0.01062,0.0138,0.0,-0.00847,0.5985,0.5985,0.5985,,0.67,,False,0.0,0.0,0.0,0.0,0.0,-0.1609,2.5237,0.003,True,True,Mode(963497464),0.457,17,0.5975
0.938,THRUST_SEARCH,OPEN_LOOP,0.0133,0.0133,0.00893,0.0133,0.0,-0.01019,0.5988,0.5988,0.5988,,0.67,,False,0.0,0.0,0.0,0.0,0.0,-0.1609,2.5809,0.005,True,False,Mode(963497464),0.468,18,0.5985
0.949,THRUST_SEARCH,OPEN_LOOP,0.0128,0.01283,0.00902,0.01283,0.0,-0.01168,0.599,0.599,0.599,,0.67,,False,0.0,0.0,0.0,0.0,0.0,-0.1609,2.6333,0.007,True,False,Mode(963497464),0.4791,18,0.5985
0.96,THRUST_SEARCH,OPEN_LOOP,0.0123,0.01233,0.00836,0.01233,0.0,-0.01323,0.5992,0.5992,0.5992,,0.67,,False,0.0,0.0,0.0,0.0,0.0,-0.1609,2.6656,0.009,True,False,Mode(963497464),0.4896,18,0.5985
0.971,THRUST_SEARCH,OPEN_LOOP,0.0119,0.01188,0.0087,0.01188,0.0,-0.01448,0.5994,0.5994,0.5994,,0.67,,False,0.0,0.0,0.0,0.0,0.0,-0.1609,3.0542,0.004,True,False,Mode(963497464),0.5006,18,0.5985
0.982,THRUST_SEARCH,OPEN_LOOP,0.0116,0.01157,0.01001,0.01157,0.0,-0.01509,0.5996,0.5996,0.5996,,0.67,,False,0.0,0.0,0.0,0.0,0.0,-0.1609,3.3959,0.0066,True,True,Mode(963497464),0.5116,18,0.5985
0.993,THRUST_SEARCH,OPEN_LOOP,0.0113,0.01135,0.01068,0.01135,0.0,-0.01535,0.5999,0.5999,0.5999,,0.67,,False,0.0,0.0,0.0,0.0,0.0,-0.1609,3.6769,0.009,True,False,Mode(963497464),0.5226,19,0.5996
1.004,THRUST_SEARCH,OPEN_LOOP,0.0112,0.01119,0.01132,0.01132,0.0,-0.0153,0.6001,0.6001,0.6001,,0.67,,False,0.0,0.0,0.0,0.0,0.0,-0.1609,3.6064,0.004,True,False,Mode(963497464),0.5335,19,0.5996
1.015,THRUST_SEARCH,OPEN_LOOP,0.0111,0.01114,0.01238,0.01238,0.0,-0.01481,0.6003,0.6003,0.6003,,0.67,,False,0.0,0.0,0.0,0.0,0.0,-0.1609,3.5306,0.004,True,False,Mode(963497464),0.5445,19,0.5996
1.026,THRUST_SEARCH,OPEN_LOOP,0.0113,0.01127,0.01439,0.01439,0.0,-0.01358,0.6005,0.6005,0.6005,,0.67,,False,0.0,0.0,0.0,0.0,0.0,-0.1609,3.148,0.001,True,False,Mode(963497464),0.5557,19,0.5996
1.039,THRUST_SEARCH,OPEN_LOOP,0.0115,0.01146,0.01504,0.01504,0.0,-0.01218,0.6008,0.6008,0.6008,,0.67,,False,0.0,0.0,0.0,0.0,0.0,-0.1609,3.0569,0.0004,True,True,Mode(963497464),0.5681,19,0.5996
1.048,THRUST_SEARCH,OPEN_LOOP,0.0117,0.0117,0.01563,0.01563,0.0,-0.01063,0.601,0.601,0.601,,0.67,,False,0.0,0.0,0.0,0.0,0.0,-0.1609,3.0103,0.003,True,False,Mode(963497464),0.5777,20,0.6008
1.059,THRUST_SEARCH,OPEN_LOOP,0.012,0.01202,0.01664,0.01664,0.0,-0.00881,0.6012,0.6012,0.6012,,0.67,,False,0.0,0.0,0.0,0.0,0.0,-0.1609,2.8451,0.001,True,False,Mode(963497464),0.5887,20,0.6008
1.069,THRUST_SEARCH,OPEN_LOOP,0.0124,0.01242,0.01756,0.01756,0.0,-0.0068,0.6014,0.6014,0.6014,,0.67,,False,0.0,0.0,0.0,0.0,0.0,-0.1609,2.5986,0.003,True,False,Mode(963497464),0.5991,20,0.6008
1.08,THRUST_SEARCH,OPEN_LOOP,0.0128,0.01284,0.01812,0.01812,0.0,-0.00473,0.6016,0.6016,0.6016,,0.67,,False,0.0,0.0,0.0,0.0,0.0,-0.1609,2.3489,0.005,True,False,Mode(963497464),0.6101,20,0.6008
1.092,THRUST_SEARCH,OPEN_LOOP,0.0133,0.01331,0.01875,0.01875,0.0,-0.00259,0.6018,0.6018,0.6018,,0.67,,False,0.0,0.0,0.0,0.0,0.0,-0.1609,1.9966,0.006,True,True,Mode(963497464),0.6211,20,0.6008
1.102,THRUST_SEARCH,OPEN_LOOP,0.0139,0.01389,0.02039,0.02039,0.0,-6e-05,0.602,0.602,0.602,,0.67,,False,0.0,0.0,0.0,0.0,0.0,-0.1609,1.4472,0.0015,True,False,Mode(963497464),0.6316,21,0.6018
1.113,THRUST_SEARCH,OPEN_LOOP,0.0144,0.01444,0.02029,0.02029,0.0,0.00223,0.6023,0.6023,0.6023,,0.67,,False,0.0,0.0,0.0,0.0,0.0,-0.1609,1.415,0.003,True,False,Mode(963497464),0.6425,21,0.6018
1.123,THRUST_SEARCH,OPEN_LOOP,0.015,0.01501,0.02081,0.02081,0.0,0.00449,0.6025,0.6025,0.6025,,0.67,,False,0.0,0.0,0.0,0.0,0.0,-0.1609,1.5446,0.0045,True,False,Mode(963497464),0.653,21,0.6018
1.134,THRUST_SEARCH,OPEN_LOOP,0.0155,0.01548,0.01999,0.01999,0.0,0.00624,0.6027,0.6027,0.6027,,0.67,,False,0.0,0.0,0.0,0.0,0.0,-0.1609,1.8401,0.001,True,False,Mode(963497464),0.6639,21,0.6018
1.145,THRUST_SEARCH,OPEN_LOOP,0.016,0.01598,0.02049,0.02049,0.0,0.00801,0.6029,0.6029,0.6029,,0.67,,False,0.0,0.0,0.0,0.0,0.0,-0.1609,1.8622,0.003,True,True,Mode(963497464),0.6749,21,0.6018
1.156,THRUST_SEARCH,OPEN_LOOP,0.0164,0.01636,0.01945,0.01945,0.0,0.00921,0.6031,0.6031,0.6031,,0.67,,False,0.0,0.0,0.0,0.0,0.0,-0.1609,1.6941,0.005,True,False,Mode(963497464),0.6859,22,0.6029
1.167,THRUST_SEARCH,OPEN_LOOP,0.0167,0.01673,0.01962,0.01962,0.0,0.01034,0.6033,0.6033,0.6033,,0.67,,False,0.0,0.0,0.0,0.0,0.0,-0.1609,1.0508,0.001,True,False,Mode(963497464),0.6969,22,0.6029
1.178,THRUST_SEARCH,OPEN_LOOP,0.017,0.01704,0.01911,0.01911,0.0,0.01115,0.6036,0.6036,0.6036,,0.67,,False,0.0,0.0,0.0,0.0,0.0,-0.1609,0.8627,0.003,True,False,Mode(963497464),0.7078,22,0.6029
1.189,THRUST_SEARCH,OPEN_LOOP,0.0174,0.01742,0.02009,0.02009,0.0,0.0122,0.6038,0.6038,0.6038,,0.67,,False,0.0,0.0,0.0,0.0,0.0,-0.1609,0.8906,0.005,True,False,Mode(963497464),0.7188,22,0.6029
1.2,THRUST_SEARCH,OPEN_LOOP,0.0176,0.01764,0.0186,0.0186,0.0,0.01257,0.604,0.604,0.604,,0.67,,False,0.0,0.0,0.0,0.0,0.0,-0.1609,1.4498,0.001,True,True,Mode(963497464),0.7298,22,0.6029
1.211,THRUST_SEARCH,OPEN_LOOP,0.0178,0.0178,0.01799,0.01799,0.0,0.01265,0.6042,0.6042,0.6042,,0.67,,False,0.0,0.0,0.0,0.0,0.0,-0.1609,1.8068,0.001,True,False,Mode(963497464),0.7412,23,0.604
1.222,THRUST_SEARCH,OPEN_LOOP,0.0179,0.01786,0.01702,0.01786,0.0,0.01232,0.6044,0.6044,0.6044,,0.67,,False,0.0,0.0,0.0,0.0,0.0,-0.1609,1.9501,0.006,True,False,Mode(963497464),0.7522,23,0.604
1.233,THRUST_SEARCH,OPEN_LOOP,0.0179,0.01788,0.01665,0.01788,0.0,0.01183,0.6047,0.6047,0.6047,,0.67,,False,0.0,0.0,0.0,0.0,0.0,-0.1609,1.8224,0.008,True,False,Mode(963497464),0.7632,23,0.604
1.244,THRUST_SEARCH,OPEN_LOOP,0.0177,0.01772,0.01467,0.01772,0.0,0.01064,0.6049,0.6049,0.6049,,0.67,,False,0.0,0.0,0.0,0.0,0.0,-0.1609,1.0177,0.002,True,False,Mode(963497464),0.7736,23,0.604
1.256,THRUST_SEARCH,OPEN_LOOP,0.0175,0.01755,0.0145,0.01755,0.0,0.00944,0.6051,0.6051,0.6051,,0.67,,False,0.0,0.0,0.0,0.0,0.0,-0.1609,0.6208,0.003,True,True,Mode(963497464),0.785,23,0.604
1.266,THRUST_SEARCH,OPEN_LOOP,0.0173,0.0173,0.01363,0.0173,0.0,0.00801,0.6053,0.6053,0.6053,,0.67,,False,0.0,0.0,0.0,0.0,0.0,-0.1609,0.3435,0.0045,True,False,Mode(963497464),0.7955,24,0.6051
1.277,THRUST_SEARCH,OPEN_LOOP,0.017,0.01696,0.01245,0.01696,0.0,0.00624,0.6055,0.6055,0.6055,,0.67,,False,0.0,0.0,0.0,0.0,0.0,-0.1609,0.2162,0.001,True,False,Mode(963497464),0.8065,24,0.6051
1.288,THRUST_SEARCH,OPEN_LOOP,0.0165,0.01648,0.0107,0.01648,0.0,0.00397,0.6058,0.6058,0.6058,,0.67,,False,0.0,0.0,0.0,0.0,0.0,-0.1609,0.338,0.0032,True,False,Mode(963497464),0.8176,24,0.6051
1.298,THRUST_SEARCH,OPEN_LOOP,0.016,0.01603,0.01082,0.01603,0.0,0.00193,0.606,0.606,0.606,,0.67,,False,0.0,0.0,0.0,0.0,0.0,-0.1609,0.577,0.005,True,False,Mode(963497464),0.8284,24,0.6051
1.31,THRUST_SEARCH,OPEN_LOOP,0.0155,0.01545,0.00914,0.01545,0.0,-0.00054,0.6062,0.6062,0.6062,,0.67,,False,0.0,0.0,0.0,0.0,0.0,-0.1609,0.8226,0.0095,True,True,Mode(963497464),0.8391,24,0.6051
1.321,THRUST_SEARCH,OPEN_LOOP,0.015,0.01496,0.00975,0.01496,0.0,-0.00258,0.6064,0.6064,0.6064,,0.67,,False,0.0,0.0,0.0,0.0,0.0,-0.1609,0.8125,0.003,True,False,Mode(963497464),0.8501,25,0.6062
1.331,THRUST_SEARCH,OPEN_LOOP,0.0144,0.01442,0.00897,0.01442,0.0,-0.00471,0.6066,0.6066,0.6066,,0.67,,False,0.0,0.0,0.0,0.0,0.0,-0.1609,0.5971,0.0045,True,False,Mode(963497464),0.8606,25,0.6062
1.342,THRUST_SEARCH,OPEN_LOOP,0.014,0.01396,0.00971,0.01396,0.0,-0.00637,0.6068,0.6068,0.6068,,0.67,,False,0.0,0.0,0.0,0.0,0.0,-0.1609,0.4087,0.007,True,False,Mode(963497464),0.8715,25,0.6062
1.353,THRUST_SEARCH,OPEN_LOOP,0.0135,0.01354,0.00983,0.01354,0.0,-0.00782,0.6071,0.6071,0.6071,,0.67,,False,0.0,0.0,0.0,0.0,0.0,-0.1609,0.2775,0.002,True,False,Mode(963497464),0.8825,25,0.6062
1.364,THRUST_SEARCH,OPEN_LOOP,0.0131,0.01312,0.00957,0.01312,0.0,-0.00921,0.6073,0.6073,0.6073,,0.67,,False,0.0,0.0,0.0,0.0,0.0,-0.1609,0.284,0.004,True,True,Mode(963497464),0.8937,25,0.6062
1.375,THRUST_SEARCH,OPEN_LOOP,0.0127,0.01271,0.00941,0.01271,0.0,-0.0105,0.6075,0.6075,0.6075,,0.67,,False,0.0,0.0,0.0,0.0,0.0,-0.1609,0.2416,0.009,True,False,Mode(963497464),0.9047,26,0.6073
1.386,THRUST_SEARCH,OPEN_LOOP,0.0124,0.01237,0.0101,0.01237,0.0,-0.01139,0.6077,0.6077,0.6077,,0.67,,False,0.0,0.0,0.0,0.0,0.0,-0.1609,-0.0153,0.002,True,False,Mode(963497464),0.9157,26,0.6073
1.396,THRUST_SEARCH,OPEN_LOOP,0.0121,0.01208,0.01023,0.01208,0.0,-0.01211,0.6079,0.6079,0.6079,,0.67,,False,0.0,0.0,0.0,0.0,0.0,-0.1609,-0.1832,0.004,True,False,Mode(963497464),0.9262,26,0.6073
1.407,THRUST_SEARCH,OPEN_LOOP,0.0118,0.01177,0.00984,0.01177,0.0,-0.01287,0.6081,0.6081,0.6081,,0.67,,False,0.0,0.0,0.0,0.0,0.0,-0.1609,-0.2987,0.006,True,False,Mode(963497464),0.9367,26,0.6073
1.418,THRUST_SEARCH,OPEN_LOOP,0.0115,0.01147,0.00978,0.01147,0.0,-0.01353,0.6084,0.6084,0.6084,,0.67,,False,0.0,0.0,0.0,0.0,0.0,-0.1609,-0.4869,0.001,True,True,Mode(963497464),0.9477,26,0.6073
1.429,THRUST_SEARCH,OPEN_LOOP,0.0112,0.01118,0.00963,0.01118,0.0,-0.01413,0.6086,0.6086,0.6086,,0.67,,False,0.0,0.0,0.0,0.0,0.0,-0.1609,-0.7313,0.003,True,False,Mode(963497464),0.9587,27,0.6084
1.441,THRUST_SEARCH,OPEN_LOOP,0.0109,0.01088,0.00933,0.01088,0.0,-0.01473,0.6088,0.6088,0.6088,,0.67,,False,0.0,0.0,0.0,0.0,0.0,-0.1609,-1.0591,0.005,True,False,Mode(963497464),0.9696,27,0.6084
1.451,THRUST_SEARCH,OPEN_LOOP,0.0106,0.0106,0.00934,0.0106,0.0,-0.01522,0.609,0.609,0.609,,0.67,,False,0.0,0.0,0.0,0.0,0.0,-0.1609,-1.8643,0.001,True,False,Mode(963497464),0.9806,27,0.6084
1.462,THRUST_SEARCH,OPEN_LOOP,0.0104,0.01037,0.00973,0.01037,0.0,-0.01547,0.6092,0.6092,0.6092,,0.67,,False,0.0,0.0,0.0,0.0,0.0,-0.1609,-2.0225,0.002,True,False,Mode(963497464),0.9916,27,0.6084
1.474,THRUST_SEARCH,OPEN_LOOP,0.0102,0.01019,0.01009,0.01019,0.0,-0.01551,0.6095,0.6095,0.6095,,0.67,,False,0.0,0.0,0.0,0.0,0.0,-0.1609,-1.9443,0.004,True,True,Mode(963497464),1.0025,27,0.6084
1.483,THRUST_SEARCH,OPEN_LOOP,0.01,0.01003,0.01003,0.01003,0.0,-0.01551,0.6097,0.6097,0.6097,,0.67,,False,0.0,0.0,0.0,0.0,0.0,-0.1609,-1.7161,0.0046,True,False,Mode(963497464),1.0131,28,0.6095
1.494,THRUST_SEARCH,OPEN_LOOP,0.0098,0.00983,0.00958,0.00983,0.0,-0.01561,0.6099,0.6099,0.6099,,0.67,,False,0.0,0.0,0.0,0.0,0.0,-0.1609,-1.3438,0.006,True,False,Mode(963497464),0.0,28,0.6095
1.505,THRUST_SEARCH,OPEN_LOOP,0.0097,0.00972,0.01038,0.01038,0.0,-0.01535,0.6101,0.6101,0.6101,,0.67,,False,0.0,0.0,0.0,0.0,0.0,-0.1609,-1.1147,0.001,True,False,Mode(963497464),0.011,28,0.6095
1.517,THRUST_SEARCH,OPEN_LOOP,0.0095,0.00955,0.00953,0.00955,0.0,-0.01536,0.6103,0.6103,0.6103,,0.67,,False,0.0,0.0,0.0,0.0,0.0,-0.1609,-1.3745,0.007,True,False,Mode(963497464),0.0224,28,0.6095
1.528,THRUST_SEARCH,OPEN_LOOP,0.0095,0.00946,0.01041,0.01041,0.0,-0.01498,0.6106,0.6106,0.6106,,0.67,,False,0.0,0.0,0.0,0.0,0.0,-0.1609,-2.1431,0.003,True,True,Mode(963497464),0.0339,28,0.6095
1.539,THRUST_SEARCH,OPEN_LOOP,0.0094,0.00942,0.0107,0.0107,0.0,-0.01448,0.6108,0.6108,0.6108,,0.67,,False,0.0,0.0,0.0,0.0,0.0,-0.1609,-2.6218,0.006,True,False,Mode(963497464),0.045,29,0.6106
1.55,THRUST_SEARCH,OPEN_LOOP,0.0094,0.00942,0.01111,0.01111,0.0,-0.01381,0.611,0.611,0.611,,0.67,,False,0.0,0.0,0.0,0.0,0.0,-0.1609,-2.9353,0.008,True,False,Mode(963497464),0.056,29,0.6106
1.561,THRUST_SEARCH,OPEN_LOOP,0.0093,0.0093,0.00963,0.00963,0.0,-0.01368,0.6112,0.6112,0.6112,,0.67,,False,0.0,0.0,0.0,0.0,0.0,-0.1609,-3.0157,0.001,True,False,Mode(963497464),0.0667,29,0.6106
1.572,THRUST_SEARCH,OPEN_LOOP,0.0092,0.00921,0.00981,0.00981,0.0,-0.01345,0.6114,0.6114,0.6114,,0.67,,False,0.0,0.0,0.0,0.0,0.0,-0.1609,-2.9454,0.006,True,False,Mode(963497464),0.0777,29,0.6106
1.583,THRUST_SEARCH,OPEN_LOOP,0.0091,0.00905,0.00897,0.00905,0.0,-0.01348,0.6117,0.6117,0.6117,,0.67,,False,0.0,0.0,0.0,0.0,0.0,-0.1609,-2.8962,0.008,True,True,Mode(963497464),0.0886,29,0.6106
1.594,THRUST_SEARCH,OPEN_LOOP,0.0089,0.00885,0.00832,0.00885,0.0,-0.01369,0.6119,0.6119,0.6119,,0.67,,False,0.0,0.0,0.0,0.0,0.0,-0.1609,-3.3916,0.001,True,False,Mode(963497464),0.0996,30,0.6117
1.605,THRUST_SEARCH,OPEN_LOOP,0.0087,0.00866,0.00815,0.00866,0.0,-0.01389,0.6121,0.6121,0.6121,,0.67,,False,0.0,0.0,0.0,0.0,0.0,-0.1609,-3.8474,0.003,True,False,Mode(963497464),0.1106,30,0.6117
1.616,THRUST_SEARCH,OPEN_LOOP,0.0085,0.00853,0.00875,0.00875,0.0,-0.0138,0.6123,0.6123,0.6123,,0.67,,False,0.0,0.0,0.0,0.0,0.0,-0.1609,-4.3968,0.008,True,False,Mode(963497464),0.1216,30,0.6117
1.626,THRUST_SEARCH,OPEN_LOOP,0.0084,0.00843,0.00897,0.00897,0.0,-0.01359,0.6125,0.6125,0.6125,,0.67,,False,0.0,0.0,0.0,0.0,0.0,-0.1609,-5.058,0.0008,True,False,Mode(963497464),0.1319,30,0.6117
1.637,THRUST_SEARCH,OPEN_LOOP,0.0083,0.00828,0.00824,0.00828,0.0,-0.0136,0.6127,0.6127,0.6127,,0.67,,False,0.0,0.0,0.0,0.0,0.0,-0.1609,-5.0757,0.003,True,True,Mode(963497464),0.1429,30,0.6117
1.648,THRUST_SEARCH,OPEN_LOOP,0.0082,0.00823,0.00928,0.00928,0.0,-0.01319,0.613,0.613,0.613,,0.67,,False,0.0,0.0,0.0,0.0,0.0,-0.1609,-5.1597,0.005,True,False,Mode(963497464),0.1538,31,0.6127
1.659,THRUST_SEARCH,OPEN_LOOP,0.0082,0.00824,0.00983,0.00983,0.0,-0.01257,0.6132,0.6132,0.6132,,0.67,,False,0.0,0.0,0.0,0.0,0.0,-0.1609,-5.8361,0.001,True,False,Mode(963497464),0.1648,31,0.6127
1.67,THRUST_SEARCH,OPEN_LOOP,0.0083,0.00832,0.01067,0.01067,0.0,-0.01165,0.6134,0.6134,0.6134,,0.67,,False,0.0,0.0,0.0,0.0,0.0,-0.1609,-6.4982,0.003,True,False,Mode(963497464),0.1758,31,0.6127
1.681,THRUST_SEARCH,OPEN_LOOP,0.0084,0.00842,0.01077,0.01077,0.0,-0.01072,0.6136,0.6136,0.6136,,0.67,,False,0.0,0.0,0.0,0.0,0.0,-0.1609,-7.0262,0.002,True,False,Mode(963497464),0.1868,31,0.6127
1.693,THRUST_SEARCH,OPEN_LOOP,0.0086,0.00858,0.01152,0.01152,0.0,-0.00957,0.6138,0.6138,0.6138,,0.67,,False,0.0,0.0,0.0,0.0,0.0,-0.1609,-7.2492,0.007,True,True,Mode(963497464),0.1977,31,0.6127
1.703,THRUST_SEARCH,OPEN_LOOP,0.0089,0.00885,0.01287,0.01287,0.0,-0.00799,0.6141,0.6141,0.6141,,0.67,,False,0.0,0.0,0.0,0.0,0.0,-0.1609,-7.1953,0.0098,True,False,Mode(963497464),0.2087,32,0.6138
1.714,THRUST_SEARCH,OPEN_LOOP,0.0091,0.00907,0.01222,0.01222,0.0,-0.00676,0.6143,0.6143,0.6143,,0.67,,False,0.0,0.0,0.0,0.0,0.0,-0.1609,-6.7981,0.003,True,False,Mode(963497464),0.2197,32,0.6138
1.725,THRUST_SEARCH,OPEN_LOOP,0.0094,0.00942,0.01393,0.01393,0.0,-0.00498,0.6145,0.6145,0.6145,,0.67,,False,0.0,0.0,0.0,0.0,0.0,-0.1609,-5.9328,0.001,True,False,Mode(963497464),0.2306,32,0.6138
1.736,THRUST_SEARCH,OPEN_LOOP,0.0098,0.00978,0.01419,0.01419,0.0,-0.00325,0.6147,0.6147,0.6147,,0.67,,False,0.0,0.0,0.0,0.0,0.0,-0.1609,-6.153,0.003,True,False,Mode(963497464),0.2416,32,0.6138
1.747,THRUST_SEARCH,OPEN_LOOP,0.0101,0.01013,0.01422,0.01422,0.0,-0.00165,0.6149,0.6149,0.6149,,0.67,,False,0.0,0.0,0.0,0.0,0.0,-0.1609,-6.7418,0.004,True,True,Mode(963497464),0.2526,32,0.6138
1.758,THRUST_SEARCH,OPEN_LOOP,0.0105,0.01053,0.0149,0.0149,0.0,7e-05,0.6152,0.6152,0.6152,,0.67,,False,0.0,0.0,0.0,0.0,0.0,-0.1609,-7.4178,0.006,True,False,Mode(963497464),0.264,33,0.6149
1.769,THRUST_SEARCH,OPEN_LOOP,0.0109,0.0109,0.01476,0.01476,0.0,0.0016,0.6154,0.6154,0.6154,,0.67,,False,0.0,0.0,0.0,0.0,0.0,-0.1609,-8.2674,0.002,True,False,Mode(963497464),0.275,33,0.6149
1.78,THRUST_SEARCH,OPEN_LOOP,0.0112,0.01121,0.01432,0.01432,0.0,0.00282,0.6156,0.6156,0.6156,,0.67,,False,0.0,0.0,0.0,0.0,0.0,-0.1609,-8.2051,0.004,True,False,Mode(963497464),0.2859,33,0.6149
1.791,THRUST_SEARCH,OPEN_LOOP,0.0115,0.01152,0.01446,0.01446,0.0,0.00398,0.6158,0.6158,0.6158,,0.67,,False,0.0,0.0,0.0,0.0,0.0,-0.1609,-7.5767,0.0006,True,False,Mode(963497464),0.2971,33,0.6149
1.802,THRUST_SEARCH,OPEN_LOOP,0.0118,0.01176,0.01381,0.01381,0.0,0.00478,0.616,0.616,0.616,,0.67,,False,0.0,0.0,0.0,0.0,0.0,-0.1609,-7.2972,0.002,True,True,Mode(963497464),0.3074,33,0.6149
1.812,THRUST_SEARCH,OPEN_LOOP,0.0119,0.01194,0.01334,0.01334,0.0,0.00533,0.6162,0.6162,0.6162,,0.67,,False,0.0,0.0,0.0,0.0,0.0,-0.1609,-7.2324,0.0007,True,False,Mode(963497464),0.3181,34,0.616
1.823,THRUST_SEARCH,OPEN_LOOP,0.0122,0.0122,0.01432,0.01432,0.0,0.00616,0.6165,0.6165,0.6165,,0.67,,False,0.0,0.0,0.0,0.0,0.0,-0.1609,-7.4162,0.006,True,False,Mode(963497464),0.329,34,0.616
1.834,THRUST_SEARCH,OPEN_LOOP,0.0124,0.01243,0.01418,0.01418,0.0,0.00684,0.6167,0.6167,0.6167,,0.67,,False,0.0,0.0,0.0,0.0,0.0,-0.1609,-7.8148,0.0075,True,False,Mode(963497464),0.3395,34,0.616
1.845,THRUST_SEARCH,OPEN_LOOP,0.0127,0.01266,0.01429,0.01429,0.0,0.00747,0.6169,0.6169,0.6169,,0.67,,False,0.0,0.0,0.0,0.0,0.0,-0.1609,-9.4823,0.001,True,False,Mode(963497464),0.3505,34,0.616
1.856,THRUST_SEARCH,OPEN_LOOP,0.013,0.01297,0.01535,0.01535,0.0,0.00841,0.6171,0.6171,0.6171,,0.67,,False,0.0,0.0,0.0,0.0,0.0,-0.1609,-10.445,0.006,True,True,Mode(963497464),0.3614,34,0.616
1.867,THRUST_SEARCH,OPEN_LOOP,0.0133,0.01326,0.01533,0.01533,0.0,0.00922,0.6173,0.6173,0.6173,,0.67,,False,0.0,0.0,0.0,0.0,0.0,-0.1609,-10.801,0.008,True,False,Mode(963497464),0.3724,35,0.6171
1.878,THRUST_SEARCH,OPEN_LOOP,0.0137,0.01367,0.01704,0.01704,0.0,0.01053,0.6176,0.6176,0.6176,,0.67,,False,0.0,0.0,0.0,0.0,0.0,-0.1609,-10.7764,0.009,True,False,Mode(963497464),0.3834,35,0.6171
1.889,THRUST_SEARCH,OPEN_LOOP,0.0143,0.01428,0.0195,0.0195,0.0,0.01258,0.6178,0.6178,0.6178,,0.67,,False,0.0,0.0,0.0,0.0,0.0,-0.1609,-10.2288,0.003,True,False,Mode(963497464),0.3944,35,0.6171
1.899,THRUST_SEARCH,OPEN_LOOP,0.0149,0.01489,0.01988,0.01988,0.0,0.01453,0.618,0.618,0.618,,0.67,,False,0.0,0.0,0.0,0.0,0.0,-0.1609,-10.1509,0.008,True,False,Mode(963497464),0.4054,35,0.6171
1.911,THRUST_SEARCH,OPEN_LOOP,0.0157,0.01566,0.02205,0.02205,0.0,0.01704,0.6182,0.6182,0.6182,,0.67,,False,0.0,0.0,0.0,0.0,0.0,-0.1609,-10.3734,0.009,True,True,Mode(963497464),0.4164,35,0.6171
1.922,THRUST_SEARCH,OPEN_LOOP,0.0165,0.01648,0.02316,0.02316,0.0,0.01966,0.6184,0.6184,0.6184,,0.67,,False,0.0,0.0,0.0,0.0,0.0,-0.1609,-11.7004,0.004,True,False,Mode(963497464),0.4275,36,0.6182
1.933,THRUST_SEARCH,OPEN_LOOP,0.0173,0.01731,0.02375,0.02375,0.0,0.02219,0.6187,0.6187,0.6187,,0.67,,False,0.0,0.0,0.0,0.0,0.0,-0.1609,-12.4314,0.006,True,False,Mode(963497464),0.4384,36,0.6182
1.943,THRUST_SEARCH,OPEN_LOOP,0.0181,0.01808,0.02365,0.02365,0.0,0.02437,0.6189,0.6189,0.6189,,0.67,,False,0.0,0.0,0.0,0.0,0.0,-0.1609,-12.8466,0.0102,True,False,Mode(963497464),0.4494,36,0.6182
1.954,THRUST_SEARCH,OPEN_LOOP,0.019,0.01897,0.0255,0.0255,0.0,0.02694,0.6191,0.6191,0.6191,,0.67,,False,0.0,0.0,0.0,0.0,0.0,-0.1609,-12.8246,0.004,True,False,Mode(963497464),0.4604,36,0.6182
1.965,THRUST_SEARCH,OPEN_LOOP,0.0199,0.01989,0.02671,0.02671,0.0,0.02961,0.6193,0.6193,0.6193,,0.67,,False,0.0,0.0,0.0,0.0,0.0,-0.1609,-12.6972,0.0061,True,True,Mode(963497464),0.471,36,0.6182
1.976,THRUST_SEARCH,OPEN_LOOP,0.0209,0.02089,0.02802,0.02802,0.0,0.0324,0.6195,0.6195,0.6195,,0.67,,False,0.0,0.0,0.0,0.0,0.0,-0.1609,-12.5676,0.008,True,False,Mode(963497464),0.4818,37,0.6193
1.987,THRUST_SEARCH,OPEN_LOOP,0.0219,0.02192,0.02904,0.02904,0.0,0.03519,0.6197,0.6197,0.6197,,0.67,,False,0.0,0.0,0.0,0.0,0.0,-0.1609,-12.4237,0.004,True,False,Mode(963497464),0.4928,37,0.6193
1.998,THRUST_SEARCH,OPEN_LOOP,0.0229,0.02293,0.0294,0.0294,0.0,0.03773,0.62,0.62,0.62,,0.67,,False,0.0,0.0,0.0,0.0,0.0,-0.1609,-12.3985,0.0069,True,False,Mode(963497464),0.5041,37,0.6193
2.009,THRUST_SEARCH,OPEN_LOOP,0.0238,0.02384,0.02907,0.02907,0.0,0.03979,0.6202,0.6202,0.6202,,0.67,,False,0.0,0.0,0.0,0.0,0.0,-0.1609,-12.297,0.009,True,False,Mode(963497464),0.515,37,0.6193
2.02,THRUST_SEARCH,OPEN_LOOP,0.0248,0.02479,0.03017,0.03017,0.0,0.0419,0.6204,0.6204,0.6204,,0.67,,False,0.0,0.0,0.0,0.0,0.0,-0.1609,-12.3543,0.004,True,True,Mode(963497464),0.526,37,0.6193
2.032,THRUST_SEARCH,OPEN_LOOP,0.0257,0.0257,0.03016,0.03016,0.0,0.04366,0.6206,0.6206,0.6206,,0.67,,False,0.0,0.0,0.0,0.0,0.0,-0.1609,-12.512,0.0069,True,False,Mode(963497464),0.5374,38,0.6204
2.042,THRUST_SEARCH,OPEN_LOOP,0.0266,0.02656,0.03062,0.03062,0.0,0.04526,0.6208,0.6208,0.6208,,0.67,,False,0.0,0.0,0.0,0.0,0.0,-0.1609,-12.6743,0.009,True,False,Mode(963497464),0.5484,38,0.6204
2.053,THRUST_SEARCH,OPEN_LOOP,0.0274,0.0274,0.03102,0.03102,0.0,0.04669,0.6211,0.6211,0.6211,,0.67,,False,0.0,0.0,0.0,0.0,0.0,-0.1609,-12.9689,0.001,True,False,Mode(963497464),0.5594,38,0.6204
2.065,THRUST_SEARCH,OPEN_LOOP,0.0283,0.0283,0.03213,0.03213,0.0,0.04821,0.6213,0.6213,0.6213,,0.67,,False,0.0,0.0,0.0,0.0,0.0,-0.1609,-13.0052,0.0069,True,False,Mode(963497464),0.5707,38,0.6204
2.077,THRUST_SEARCH,OPEN_LOOP,0.0291,0.02906,0.03152,0.03152,0.0,0.04918,0.6215,0.6215,0.6215,,0.67,,False,0.0,0.0,0.0,0.0,0.0,-0.1609,-13.032,0.009,True,True,Mode(963497464),0.5817,38,0.6204
2.086,THRUST_SEARCH,OPEN_LOOP,0.0297,0.0297,0.03093,0.03093,0.0,0.04967,0.6217,0.6217,0.6217,,0.67,,False,0.0,0.0,0.0,0.0,0.0,-0.1609,-13.4648,0.0015,True,False,Mode(963497464),0.5922,39,0.6215
2.097,THRUST_SEARCH,OPEN_LOOP,0.0302,0.03022,0.03,0.03022,0.0,0.04958,0.6219,0.6219,0.6219,,0.67,,False,0.0,0.0,0.0,0.0,0.0,-0.1609,-13.982,0.006,True,False,Mode(963497464),0.6031,39,0.6215
2.109,THRUST_SEARCH,OPEN_LOOP,0.0307,0.03067,0.02972,0.03067,0.0,0.04921,0.6222,0.6222,0.6222,,0.67,,False,0.0,0.0,0.0,0.0,0.0,-0.1609,-14.6307,0.008,True,False,Mode(963497464),0.6141,39,0.6215
2.12,THRUST_SEARCH,OPEN_LOOP,0.031,0.03101,0.02869,0.03101,0.0,0.04829,0.6224,0.6224,0.6224,,0.67,,False,0.0,0.0,0.0,0.0,0.0,-0.1609,-15.9239,0.0015,True,False,Mode(963497464),0.6256,39,0.6215
2.132,THRUST_SEARCH,OPEN_LOOP,0.0313,0.0313,0.02876,0.0313,0.0,0.04728,0.6226,0.6226,0.6226,,0.67,,False,0.0,0.0,0.0,0.0,0.0,-0.1609,-16.4559,0.006,True,True,Mode(963497464),0.6365,39,0.6215
2.142,THRUST_SEARCH,OPEN_LOOP,0.0316,0.03155,0.02875,0.03155,0.0,0.04618,0.6228,0.6228,0.6228,,0.67,,False,0.0,0.0,0.0,0.0,0.0,-0.1609,-16.8606,0.008,True,False,Mode(963497464),0.6475,40,0.6226
2.153,THRUST_SEARCH,OPEN_LOOP,0.0316,0.03162,0.02702,0.03162,0.0,0.04436,0.6231,0.6231,0.6231,,0.67,,False,0.0,0.0,0.0,0.0,0.0,-0.1609,-17.3957,0.003,True,False,Mode(963497464),0.6585,40,0.6226
2.164,THRUST_SEARCH,OPEN_LOOP,0.0316,0.03161,0.02636,0.03161,0.0,0.04229,0.6233,0.6233,0.6233,,0.67,,False,0.0,0.0,0.0,0.0,0.0,-0.1609,-17.65,0.005,True,False,Mode(963497464),0.6694,40,0.6226
2.174,THRUST_SEARCH,OPEN_LOOP,0.0314,0.03144,0.02481,0.03144,0.0,0.03967,0.6235,0.6235,0.6235,,0.67,,False,0.0,0.0,0.0,0.0,0.0,-0.1609,-18.0866,0.0066,True,False,Mode(963497464),0.6804,40,0.6226
2.186,THRUST_SEARCH,OPEN_LOOP,0.0311,0.03111,0.02314,0.03111,0.0,0.03653,0.6237,0.6237,0.6237,,0.67,,False,0.0,0.0,0.0,0.0,0.0,-0.1609,-19.238,0.0031,True,True,Mode(963497464),0.6915,40,0.6226
2.196,THRUST_SEARCH,OPEN_LOOP,0.0307,0.03067,0.02183,0.03067,0.0,0.03304,0.6239,0.6239,0.6239,,0.67,,False,0.0,0.0,0.0,0.0,0.0,-0.1609,-19.8085,0.005,True,False,Mode(963497464),0.7023,41,0.6237
2.207,THRUST_SEARCH,OPEN_LOOP,0.0303,0.03027,0.02226,0.03027,0.0,0.02988,0.6241,0.6241,0.6241,,0.67,,False,0.0,0.0,0.0,0.0,0.0,-0.1609,-20.3106,0.007,True,False,Mode(963497464),0.7133,41,0.6237
2.219,THRUST_SEARCH,OPEN_LOOP,0.0296,0.0296,0.01897,0.0296,0.0,0.02567,0.6244,0.6244,0.6244,,0.67,,False,0.0,0.0,0.0,0.0,0.0,-0.1609,-20.8026,0.001,True,False,Mode(963497464),0.7248,41,0.6237
2.23,THRUST_SEARCH,OPEN_LOOP,0.0289,0.02887,0.01833,0.02887,0.0,0.0215,0.6246,0.6246,0.6246,,0.67,,False,0.0,0.0,0.0,0.0,0.0,-0.1609,-20.7949,0.003,True,False,Mode(963497464),0.7358,41,0.6237
2.241,THRUST_SEARCH,OPEN_LOOP,0.0281,0.02807,0.01718,0.02807,0.0,0.01717,0.6248,0.6248,0.6248,,0.67,,False,0.0,0.0,0.0,0.0,0.0,-0.1609,-20.8049,0.0085,True,True,Mode(963497464),0.7473,41,0.6237
2.252,THRUST_SEARCH,OPEN_LOOP,0.027,0.02703,0.01423,0.02703,0.0,0.01211,0.625,0.625,0.625,,0.67,,False,0.0,0.0,0.0,0.0,0.0,-0.1609,-21.1256,0.0015,True,False,Mode(963497464),0.7577,42,0.6248
2.263,THRUST_SEARCH,OPEN_LOOP,0.0259,0.02585,0.01216,0.02585,0.0,0.0067,0.6253,0.6253,0.6253,,0.67,,False,0.0,0.0,0.0,0.0,0.0,-0.1609,-21.501,0.003,True,False,Mode(963497464),0.7687,42,0.6248
2.274,THRUST_SEARCH,OPEN_LOOP,0.0246,0.02464,0.01116,0.02464,0.0,0.00137,0.6255,0.6255,0.6255,,0.67,,False,0.0,0.0,0.0,0.0,0.0,-0.1609,-21.9305,0.008,True,False,Mode(963497464),0.7797,42,0.6248
2.285,THRUST_SEARCH,OPEN_LOOP,0.0234,0.02336,0.0098,0.02336,0.0,-0.00398,0.6257,0.6257,0.6257,,0.67,,False,0.0,0.0,0.0,0.0,0.0,-0.1609,-22.3664,0.0009,True,False,Mode(963497464),0.7905,42,0.6248
2.297,THRUST_SEARCH,OPEN_LOOP,0.0221,0.02208,0.00907,0.02208,0.0,-0.00911,0.6259,0.6259,0.6259,,0.67,,False,0.0,0.0,0.0,0.0,0.0,-0.1609,-22.2216,0.003,True,True,Mode(963497464),0.8015,42,0.6248
2.307,THRUST_SEARCH,OPEN_LOOP,0.021,0.02098,0.01053,0.02098,0.0,-0.01324,0.6261,0.6261,0.6261,,0.67,,False,0.0,0.0,0.0,0.0,0.0,-0.1609,-22.145,0.002,True,False,Mode(963497464),0.8125,43,0.6259
2.318,THRUST_SEARCH,OPEN_LOOP,0.0201,0.0201,0.01232,0.0201,0.0,-0.0163,0.6264,0.6264,0.6264,,0.67,,False,0.0,0.0,0.0,0.0,0.0,-0.1609,-22.9373,0.001,True,False,Mode(963497464),0.8234,43,0.6259
2.329,THRUST_SEARCH,OPEN_LOOP,0.0194,0.01937,0.01362,0.01937,0.0,-0.01857,0.6266,0.6266,0.6266,,0.67,,False,0.0,0.0,0.0,0.0,0.0,-0.1609,-23.7048,0.002,True,False,Mode(963497464),0.8344,43,0.6259
2.339,THRUST_SEARCH,OPEN_LOOP,0.0187,0.01874,0.01423,0.01874,0.0,-0.02035,0.6268,0.6268,0.6268,,0.67,,False,0.0,0.0,0.0,0.0,0.0,-0.1609,-24.5205,0.001,True,False,Mode(963497464),0.8454,43,0.6259
2.35,THRUST_SEARCH,OPEN_LOOP,0.0182,0.01822,0.01509,0.01822,0.0,-0.02158,0.627,0.627,0.627,,0.67,,False,0.0,0.0,0.0,0.0,0.0,-0.1609,-25.2309,0.008,True,True,Mode(963497464),0.8563,43,0.6259
2.362,THRUST_SEARCH,OPEN_LOOP,0.0179,0.01788,0.01704,0.01788,0.0,-0.02192,0.6272,0.6272,0.6272,,0.67,,False,0.0,0.0,0.0,0.0,0.0,-0.1609,-25.9225,0.004,True,False,Mode(963497464),0.8684,44,0.627
2.373,THRUST_SEARCH,OPEN_LOOP,0.0176,0.01763,0.01745,0.01763,0.0,-0.02199,0.6275,0.6275,0.6275,,0.67,,False,0.0,0.0,0.0,0.0,0.0,-0.1609,-25.8777,0.0045,True,False,Mode(963497464),0.8789,44,0.627
2.384,THRUST_SEARCH,OPEN_LOOP,0.0176,0.01757,0.01943,0.01943,0.0,-0.02125,0.6277,0.6277,0.6277,,0.67,,False,0.0,0.0,0.0,0.0,0.0,-0.1609,-25.7088,0.001,True,False,Mode(963497464),0.8898,44,0.627
2.395,THRUST_SEARCH,OPEN_LOOP,0.0175,0.01755,0.01977,0.01977,0.0,-0.02037,0.6279,0.6279,0.6279,,0.67,,False,0.0,0.0,0.0,0.0,0.0,-0.1609,-25.904,0.003,True,False,Mode(963497464),0.9008,44,0.627
2.405,THRUST_SEARCH,OPEN_LOOP,0.0176,0.01756,0.01992,0.01992,0.0,-0.01944,0.6281,0.6281,0.6281,,0.67,,False,0.0,0.0,0.0,0.0,0.0,-0.1609,-26.3245,0.0045,True,True,Mode(963497464),0.9113,44,0.627
2.416,THRUST_SEARCH,OPEN_LOOP,0.0176,0.01763,0.0206,0.0206,0.0,-0.01827,0.6283,0.6283,0.6283,,0.67,,False,0.0,0.0,0.0,0.0,0.0,-0.1609,-26.9759,0.007,True,False,Mode(963497464),0.9223,45,0.6281
2.427,THRUST_SEARCH,OPEN_LOOP,0.0177,0.01771,0.02062,0.02062,0.0,-0.01713,0.6285,0.6285,0.6285,,0.67,,False,0.0,0.0,0.0,0.0,0.0,-0.1609,-27.7198,0.009,True,False,Mode(963497464),0.9327,45,0.6281
2.438,THRUST_SEARCH,OPEN_LOOP,0.0179,0.01788,0.02168,0.02168,0.0,-0.01564,0.6288,0.6288,0.6288,,0.67,,False,0.0,0.0,0.0,0.0,0.0,-0.1609,-28.6111,0.005,True,False,Mode(963497464),0.9437,45,0.6281
2.449,THRUST_SEARCH,OPEN_LOOP,0.018,0.01802,0.02124,0.02124,0.0,-0.01437,0.629,0.629,0.629,,0.67,,False,0.0,0.0,0.0,0.0,0.0,-0.1609,-28.5517,0.007,True,False,Mode(963497464),0.0,45,0.6281
2.461,THRUST_SEARCH,OPEN_LOOP,0.0182,0.01819,0.02172,0.02172,0.0,-0.01299,0.6292,0.6292,0.6292,,0.67,,False,0.0,0.0,0.0,0.0,0.0,-0.1609,-28.2394,0.009,True,True,Mode(963497464),0.011,45,0.6281
2.471,THRUST_SEARCH,OPEN_LOOP,0.0184,0.01836,0.02159,0.02159,0.0,-0.01172,0.6294,0.6294,0.6294,,0.67,,False,0.0,0.0,0.0,0.0,0.0,-0.1609,-27.7616,0.004,True,False,Mode(963497464),0.0219,46,0.6292
2.482,THRUST_SEARCH,OPEN_LOOP,0.0185,0.01855,0.02191,0.02191,0.0,-0.0104,0.6296,0.6296,0.6296,,0.67,,False,0.0,0.0,0.0,0.0,0.0,-0.1609,-27.7827,0.0065,True,False,Mode(963497464),0.0328,46,0.6292
2.494,THRUST_SEARCH,OPEN_LOOP,0.0187,0.01868,0.0213,0.0213,0.0,-0.00937,0.6299,0.6299,0.6299,,0.67,,False,0.0,0.0,0.0,0.0,0.0,-0.1609,-27.9966,0.009,True,False,Mode(963497464),0.0438,46,0.6292
2.503,THRUST_SEARCH,OPEN_LOOP,0.0188,0.01881,0.02117,0.02117,0.0,-0.00845,0.6301,0.6301,0.6301,,0.67,,False,0.0,0.0,0.0,0.0,0.0,-0.1609,-28.3352,0.0105,True,False,Mode(963497464),0.0543,46,0.6292
2.515,THRUST_SEARCH,OPEN_LOOP,0.0189,0.01887,0.02055,0.02055,0.0,-0.00779,0.6303,0.6303,0.6303,,0.67,,False,0.0,0.0,0.0,0.0,0.0,-0.1609,-28.794,0.004,True,True,Mode(963497464),0.0653,46,0.6292
2.525,THRUST_SEARCH,OPEN_LOOP,0.0189,0.01889,0.01997,0.01997,0.0,-0.00737,0.6305,0.6305,0.6305,,0.67,,False,0.0,0.0,0.0,0.0,0.0,-0.1609,-28.7563,0.006,True,False,Mode(963497464),0.0762,47,0.6303
2.536,THRUST_SEARCH,OPEN_LOOP,0.0189,0.01889,0.01982,0.01982,0.0,-0.00701,0.6307,0.6307,0.6307,,0.67,,False,0.0,0.0,0.0,0.0,0.0,-0.1609,-28.5162,0.0105,True,False,Mode(963497464),0.0877,47,0.6303
2.547,THRUST_SEARCH,OPEN_LOOP,0.0188,0.01883,0.01903,0.01903,0.0,-0.00693,0.6309,0.6309,0.6309,,0.67,,False,0.0,0.0,0.0,0.0,0.0,-0.1609,-28.1708,0.003,True,False,Mode(963497464),0.0987,47,0.6303
2.56,THRUST_SEARCH,OPEN_LOOP,0.0188,0.01879,0.01917,0.01917,0.0,-0.00678,0.6312,0.6312,0.6312,,0.67,,False,0.0,0.0,0.0,0.0,0.0,-0.1609,-28.0751,0.009,True,False,Mode(963497464),0.1106,47,0.6303
2.57,THRUST_SEARCH,OPEN_LOOP,0.0187,0.01867,0.01817,0.01867,0.0,-0.00698,0.6314,0.6314,0.6314,,0.67,,False,0.0,0.0,0.0,0.0,0.0,-0.1609,-28.1478,0.0015,True,True,Mode(963497464),0.1211,47,0.6303
2.581,THRUST_SEARCH,OPEN_LOOP,0.0185,0.01854,0.01805,0.01854,0.0,-0.00718,0.6316,0.6316,0.6316,,0.67,,False,0.0,0.0,0.0,0.0,0.0,-0.1609,-28.2305,0.006,True,False,Mode(963497464),0.1321,48,0.6314
2.592,THRUST_SEARCH,OPEN_LOOP,0.0183,0.01832,0.01678,0.01832,0.0,-0.00778,0.6318,0.6318,0.6318,,0.67,,False,0.0,0.0,0.0,0.0,0.0,-0.1609,-28.2844,0.008,True,False,Mode(963497464),0.1431,48,0.6314
2.603,THRUST_SEARCH,OPEN_LOOP,0.018,0.018,0.01552,0.018,0.0,-0.00876,0.6321,0.6321,0.6321,,0.67,,False,0.0,0.0,0.0,0.0,0.0,-0.1609,-28.5794,0.001,True,False,Mode(963497464),0.154,48,0.6314
2.614,THRUST_SEARCH,OPEN_LOOP,0.0176,0.0176,0.01438,0.0176,0.0,-0.01003,0.6323,0.6323,0.6323,,0.67,,False,0.0,0.0,0.0,0.0,0.0,-0.1609,-28.8878,0.006,True,False,Mode(963497464),0.165,48,0.6314
2.624,THRUST_SEARCH,OPEN_LOOP,0.0172,0.01722,0.0144,0.01722,0.0,-0.01114,0.6325,0.6325,0.6325,,0.67,,False,0.0,0.0,0.0,0.0,0.0,-0.1609,-29.2255,0.0075,True,True,Mode(963497464),0.1755,48,0.6314
2.635,THRUST_SEARCH,OPEN_LOOP,0.0168,0.01676,0.01314,0.01676,0.0,-0.01256,0.6327,0.6327,0.6327,,0.67,,False,0.0,0.0,0.0,0.0,0.0,-0.1609,-29.8441,0.001,True,False,Mode(963497464),0.1865,49,0.6325
2.646,THRUST_SEARCH,OPEN_LOOP,0.0164,0.01635,0.01357,0.01635,0.0,-0.01365,0.6329,0.6329,0.6329,,0.67,,False,0.0,0.0,0.0,0.0,0.0,-0.1609,-29.9793,0.003,True,False,Mode(963497464),0.1974,49,0.6325
2.657,THRUST_SEARCH,OPEN_LOOP,0.016,0.01598,0.01355,0.01598,0.0,-0.01461,0.6331,0.6331,0.6331,,0.67,,False,0.0,0.0,0.0,0.0,0.0,-0.1609,-29.9999,0.0075,True,False,Mode(963497464),0.2079,49,0.6325
2.668,THRUST_SEARCH,OPEN_LOOP,0.0156,0.01559,0.01312,0.01559,0.0,-0.01557,0.6334,0.6334,0.6334,,0.67,,False,0.0,0.0,0.0,0.0,0.0,-0.1609,-30.0808,0.001,True,False,Mode(963497464),0.2189,49,0.6325
2.679,THRUST_SEARCH,OPEN_LOOP,0.0153,0.01526,0.01357,0.01526,0.0,-0.01623,0.6336,0.6336,0.6336,,0.67,,False,0.0,0.0,0.0,0.0,0.0,-0.1609,-30.2837,0.0031,True,True,Mode(963497464),0.23,49,0.6325
2.69,THRUST_SEARCH,OPEN_LOOP,0.0149,0.01489,0.01289,0.01489,0.0,-0.01702,0.6338,0.6338,0.6338,,0.67,,False,0.0,0.0,0.0,0.0,0.0,-0.1609,-30.6021,0.005,True,False,Mode(963497464),0.2408,50,0.6336
2.701,THRUST_SEARCH,OPEN_LOOP,0.0147,0.01469,0.01458,0.01469,0.0,-0.01706,0.634,0.634,0.634,,0.67,,False,0.0,0.0,0.0,0.0,0.0,-0.1609,-31.2714,0.001,True,False,Mode(963497464),0.2518,50,0.6336
2.714,THRUST_SEARCH,OPEN_LOOP,0.0145,0.01451,0.01477,0.01477,0.0,-0.01696,0.6343,0.6343,0.6343,,0.67,,False,0.0,0.0,0.0,0.0,0.0,-0.1609,-31.5314,0.0001,True,False,Mode(963497464),0.2649,50,0.6336
2.724,THRUST_SEARCH,OPEN_LOOP,0.0144,0.01444,0.01557,0.01557,0.0,-0.01651,0.6345,0.6345,0.6345,,0.67,,False,0.0,0.0,0.0,0.0,0.0,-0.1609,-31.6877,0.007,True,False,Mode(963497464),0.2747,50,0.6336
2.734,THRUST_SEARCH,OPEN_LOOP,0.0144,0.01443,0.01629,0.01629,0.0,-0.01578,0.6347,0.6347,0.6347,,0.67,,False,0.0,0.0,0.0,0.0,0.0,-0.1609,-31.4436,0.002,True,True,Mode(963497464),0.2857,50,0.6336
2.746,THRUST_SEARCH,OPEN_LOOP,0.0145,0.01452,0.01729,0.01729,0.0,-0.01468,0.6349,0.6349,0.6349,,0.67,,False,0.0,0.0,0.0,0.0,0.0,-0.1609,-31.2249,0.002,True,False,Mode(963497464),0.2971,51,0.6347
2.757,THRUST_SEARCH,OPEN_LOOP,0.0147,0.01466,0.01782,0.01782,0.0,-0.01343,0.6351,0.6351,0.6351,,0.67,,False,0.0,0.0,0.0,0.0,0.0,-0.1609,-31.1565,0.007,True,False,Mode(963497464),0.3081,51,0.6347
2.768,THRUST_SEARCH,OPEN_LOOP,0.0148,0.0148,0.01783,0.01783,0.0,-0.01223,0.6354,0.6354,0.6354,,0.67,,False,0.0,0.0,0.0,0.0,0.0,-0.1609,-31.2475,0.008,True,False,Mode(963497464),0.319,51,0.6347
2.78,THRUST_SEARCH,OPEN_LOOP,0.0149,0.01493,0.01783,0.01783,0.0,-0.01107,0.6356,0.6356,0.6356,,0.67,,False,0.0,0.0,0.0,0.0,0.0,-0.1609,-31.2475,0.0199,True,False,Mode(963497464),0.331,51,0.6347
2.791,THRUST_SEARCH,OPEN_LOOP,0.0153,0.0153,0.02035,0.02035,0.0,-0.00906,0.6358,0.6358,0.6358,,0.67,,False,0.0,0.0,0.0,0.0,0.0,-0.1609,-31.6469,0.008,True,True,Mode(963497464),0.342,51,0.6347
2.803,THRUST_SEARCH,OPEN_LOOP,0.0157,0.01573,0.02123,0.02123,0.0,-0.00686,0.636,0.636,0.636,,0.67,,False,0.0,0.0,0.0,0.0,0.0,-0.1609,-31.9952,0.0099,True,False,Mode(963497464),0.3533,52,0.6358
2.813,THRUST_SEARCH,OPEN_LOOP,0.0161,0.01608,0.02055,0.02055,0.0,-0.00508,0.6363,0.6363,0.6363,,0.67,,False,0.0,0.0,0.0,0.0,0.0,-0.1609,-32.3886,0.004,True,False,Mode(963497464),0.3643,52,0.6358
2.824,THRUST_SEARCH,OPEN_LOOP,0.0165,0.01648,0.02122,0.02122,0.0,-0.00319,0.6365,0.6365,0.6365,,0.67,,False,0.0,0.0,0.0,0.0,0.0,-0.1609,-32.4086,0.006,True,False,Mode(963497464),0.3753,52,0.6358
2.835,THRUST_SEARCH,OPEN_LOOP,0.0169,0.01689,0.02151,0.02151,0.0,-0.00135,0.6367,0.6367,0.6367,,0.67,,False,0.0,0.0,0.0,0.0,0.0,-0.1609,-32.7316,0.002,True,False,Mode(963497464),0.3862,52,0.6358
2.846,THRUST_SEARCH,OPEN_LOOP,0.0174,0.01737,0.0225,0.0225,0.0,0.00069,0.6369,0.6369,0.6369,,0.67,,False,0.0,0.0,0.0,0.0,0.0,-0.1609,-33.0739,0.004,True,True,Mode(963497464),0.3972,52,0.6358
2.858,THRUST_SEARCH,OPEN_LOOP,0.0178,0.01781,0.02225,0.02225,0.0,0.00247,0.6372,0.6372,0.6372,,0.67,,False,0.0,0.0,0.0,0.0,0.0,-0.1609,-33.4797,0.0073,True,False,Mode(963497464),0.409,53,0.6369
2.869,THRUST_SEARCH,OPEN_LOOP,0.0183,0.01834,0.02354,0.02354,0.0,0.00455,0.6374,0.6374,0.6374,,0.67,,False,0.0,0.0,0.0,0.0,0.0,-0.1609,-34.2909,0.001,True,False,Mode(963497464),0.4199,53,0.6369
2.88,THRUST_SEARCH,OPEN_LOOP,0.0188,0.01882,0.02333,0.02333,0.0,0.00635,0.6376,0.6376,0.6376,,0.67,,False,0.0,0.0,0.0,0.0,0.0,-0.1609,-34.5021,0.003,True,False,Mode(963497464),0.4309,53,0.6369
2.891,THRUST_SEARCH,OPEN_LOOP,0.0193,0.01927,0.02322,0.02322,0.0,0.00792,0.6378,0.6378,0.6378,,0.67,,False,0.0,0.0,0.0,0.0,0.0,-0.1609,-34.5384,0.008,True,False,Mode(963497464),0.4419,53,0.6369
2.902,THRUST_SEARCH,OPEN_LOOP,0.0197,0.01966,0.02284,0.02284,0.0,0.00919,0.638,0.638,0.638,,0.67,,False,0.0,0.0,0.0,0.0,0.0,-0.1609,-34.5776,0.001,True,True,Mode(963497464),0.4528,53,0.6369
2.913,THRUST_SEARCH,OPEN_LOOP,0.0201,0.02009,0.02343,0.02343,0.0,0.01052,0.6383,0.6383,0.6383,,0.67,,False,0.0,0.0,0.0,0.0,0.0,-0.1609,-34.612,0.001,True,False,Mode(963497464),0.4638,54,0.638
2.924,THRUST_SEARCH,OPEN_LOOP,0.0205,0.02046,0.02318,0.02318,0.0,0.0116,0.6385,0.6385,0.6385,,0.67,,False,0.0,0.0,0.0,0.0,0.0,-0.1609,-34.6846,0.006,True,False,Mode(963497464),0.4748,54,0.638
2.935,THRUST_SEARCH,OPEN_LOOP,0.0209,0.02087,0.02375,0.02375,0.0,0.01274,0.6387,0.6387,0.6387,,0.67,,False,0.0,0.0,0.0,0.0,0.0,-0.1609,-34.7294,0.002,True,False,Mode(963497464),0.4857,54,0.638
2.946,THRUST_SEARCH,OPEN_LOOP,0.0212,0.02117,0.02289,0.02289,0.0,0.01343,0.6389,0.6389,0.6389,,0.67,,False,0.0,0.0,0.0,0.0,0.0,-0.1609,-34.636,0.004,True,False,Mode(963497464),0.4967,54,0.638
2.956,THRUST_SEARCH,OPEN_LOOP,0.0214,0.02139,0.0221,0.0221,0.0,0.01371,0.6391,0.6391,0.6391,,0.67,,False,0.0,0.0,0.0,0.0,0.0,-0.1609,-34.5224,0.006,True,True,Mode(963497464),0.5077,54,0.638
2.967,THRUST_SEARCH,OPEN_LOOP,0.0216,0.02161,0.02237,0.02237,0.0,0.01401,0.6393,0.6393,0.6393,,0.67,,False,0.0,0.0,0.0,0.0,0.0,-0.1609,-34.5315,0.008,True,False,Mode(963497464),0.5187,55,0.6391
2.978,THRUST_SEARCH,OPEN_LOOP,0.0218,0.02178,0.02199,0.02199,0.0,0.01409,0.6396,0.6396,0.6396,,0.67,,False,0.0,0.0,0.0,0.0,0.0,-0.1609,-34.6449,0.01,True,False,Mode(963497464),0.5295,55,0.6391
2.989,THRUST_SEARCH,OPEN_LOOP,0.0219,0.02186,0.02105,0.02186,0.0,0.01377,0.6398,0.6398,0.6398,,0.67,,False,0.0,0.0,0.0,0.0,0.0,-0.1609,-35.2666,0.007,True,False,Mode(963497464),0.5405,55,0.6391
3.0,THRUST_SEARCH,OPEN_LOOP,0.0218,0.0218,0.01955,0.0218,0.0,0.01289,0.64,0.64,0.64,,0.67,,False,0.0,0.0,0.0,0.0,0.0,-0.1609,-35.608,0.009,True,False,Mode(963497464),0.5515,55,0.6391
3.011,THRUST_SEARCH,OPEN_LOOP,0.0217,0.02171,0.01937,0.02171,0.0,0.01196,0.6402,0.6402,0.6402,,0.67,,False,0.0,0.0,0.0,0.0,0.0,-0.1609,-36.0415,0.001,True,True,Mode(963497464),0.5624,55,0.6391
3.022,THRUST_SEARCH,OPEN_LOOP,0.0215,0.02148,0.01765,0.02148,0.0,0.01045,0.6404,0.6404,0.6404,,0.67,,False,0.0,0.0,0.0,0.0,0.0,-0.1609,-36.0939,0.0058,True,False,Mode(963497464),0.5732,56,0.6402
3.034,THRUST_SEARCH,OPEN_LOOP,0.0212,0.02125,0.01763,0.02125,0.0,0.00903,0.6407,0.6407,0.6407,,0.67,,False,0.0,0.0,0.0,0.0,0.0,-0.1609,-36.1872,0.006,True,False,Mode(963497464),0.5842,56,0.6402
3.043,THRUST_SEARCH,OPEN_LOOP,0.0208,0.02085,0.01566,0.02085,0.0,0.00699,0.6409,0.6409,0.6409,,0.67,,False,0.0,0.0,0.0,0.0,0.0,-0.1609,-36.6275,0.0015,True,False,Mode(963497464),0.5947,56,0.6402
3.054,THRUST_SEARCH,OPEN_LOOP,0.0205,0.02046,0.01557,0.02046,0.0,0.00506,0.6411,0.6411,0.6411,,0.67,,False,0.0,0.0,0.0,0.0,0.0,-0.1609,-37.0947,0.003,True,False,Mode(963497464),0.6056,56,0.6402
3.067,THRUST_SEARCH,OPEN_LOOP,0.02,0.02001,0.01463,0.02001,0.0,0.00295,0.6413,0.6413,0.6413,,0.67,,False,0.0,0.0,0.0,0.0,0.0,-0.1609,-37.5099,0.005,True,True,Mode(963497464),0.6166,56,0.6402
3.076,THRUST_SEARCH,OPEN_LOOP,0.0195,0.01951,0.01391,0.01951,0.0,0.00076,0.6415,0.6415,0.6415,,0.67,,False,0.0,0.0,0.0,0.0,0.0,-0.1609,-37.7977,0.001,True,False,Mode(963497464),0.6272,57,0.6413
3.087,THRUST_SEARCH,OPEN_LOOP,0.0191,0.01906,0.01422,0.01906,0.0,-0.00114,0.6417,0.6417,0.6417,,0.67,,False,0.0,0.0,0.0,0.0,0.0,-0.1609,-37.7278,0.003,True,False,Mode(963497464),0.6382,57,0.6413
3.098,THRUST_SEARCH,OPEN_LOOP,0.0185,0.0185,0.01275,0.0185,0.0,-0.00339,0.642,0.642,0.642,,0.67,,False,0.0,0.0,0.0,0.0,0.0,-0.1609,-37.6707,0.005,True,False,Mode(963497464),0.6492,57,0.6413
3.109,THRUST_SEARCH,OPEN_LOOP,0.0181,0.0181,0.01428,0.0181,0.0,-0.00489,0.6422,0.6422,0.6422,,0.67,,False,0.0,0.0,0.0,0.0,0.0,-0.1609,-37.8373,0.001,True,False,Mode(963497464),0.6601,57,0.6413
3.12,THRUST_SEARCH,OPEN_LOOP,0.0177,0.01767,0.01372,0.01767,0.0,-0.00644,0.6424,0.6424,0.6424,,0.67,,False,0.0,0.0,0.0,0.0,0.0,-0.1609,-38.1466,0.003,True,True,Mode(963497464),0.6711,57,0.6413
3.131,THRUST_SEARCH,OPEN_LOOP,0.0174,0.01736,0.01482,0.01736,0.0,-0.00744,0.6426,0.6426,0.6426,,0.67,,False,0.0,0.0,0.0,0.0,0.0,-0.1609,-38.596,0.005,True,False,Mode(963497464),0.6821,58,0.6424
3.142,THRUST_SEARCH,OPEN_LOOP,0.0171,0.01714,0.01571,0.01714,0.0,-0.008,0.6428,0.6428,0.6428,,0.67,,False,0.0,0.0,0.0,0.0,0.0,-0.1609,-39.0618,0.006,True,False,Mode(963497464),0.693,58,0.6424
3.153,THRUST_SEARCH,OPEN_LOOP,0.017,0.01703,0.01679,0.01703,0.0,-0.0081,0.6431,0.6431,0.6431,,0.67,,False,0.0,0.0,0.0,0.0,0.0,-0.1609,-39.5901,0.001,True,False,Mode(963497464),0.704,58,0.6424
3.164,THRUST_SEARCH,OPEN_LOOP,0.017,0.017,0.01764,0.01764,0.0,-0.00785,0.6433,0.6433,0.6433,,0.67,,False,0.0,0.0,0.0,0.0,0.0,-0.1609,-39.5785,0.003,True,False,Mode(963497464),0.715,58,0.6424
3.177,THRUST_SEARCH,OPEN_LOOP,0.017,0.01695,0.01729,0.01729,0.0,-0.00772,0.6435,0.6435,0.6435,,0.67,,False,0.0,0.0,0.0,0.0,0.0,-0.1609,-39.4953,0.007,True,True,Mode(963497464),0.726,58,0.6424
3.186,THRUST_SEARCH,OPEN_LOOP,0.017,0.01704,0.01884,0.01884,0.0,-0.00701,0.6437,0.6437,0.6437,,0.67,,False,0.0,0.0,0.0,0.0,0.0,-0.1609,-39.3366,0.002,True,False,Mode(963497464),0.7369,59,0.6435
3.196,THRUST_SEARCH,OPEN_LOOP,0.0173,0.01726,0.02042,0.02042,0.0,-0.00577,0.6439,0.6439,0.6439,,0.67,,False,0.0,0.0,0.0,0.0,0.0,-0.1609,-39.4822,0.0036,True,False,Mode(963497464),0.7475,59,0.6435
3.208,THRUST_SEARCH,OPEN_LOOP,0.0175,0.01753,0.02098,0.02098,0.0,-0.00442,0.6442,0.6442,0.6442,,0.67,,False,0.0,0.0,0.0,0.0,0.0,-0.1609,-39.7013,0.006,True,False,Mode(963497464),0.7585,59,0.6435
3.218,THRUST_SEARCH,OPEN_LOOP,0.018,0.01796,0.02305,0.02305,0.0,-0.00243,0.6444,0.6444,0.6444,,0.67,,False,0.0,0.0,0.0,0.0,0.0,-0.1609,-39.9819,0.002,True,False,Mode(963497464),0.769,59,0.6435
3.229,THRUST_SEARCH,OPEN_LOOP,0.0184,0.0184,0.0233,0.0233,0.0,-0.00051,0.6446,0.6446,0.6446,,0.67,,False,0.0,0.0,0.0,0.0,0.0,-0.1609,-40.0074,0.004,True,True,Mode(963497464),0.7802,59,0.6435
3.244,THRUST_SEARCH,OPEN_LOOP,0.0189,0.01891,0.02425,0.02425,0.0,0.00164,0.6449,0.6449,0.6449,,0.67,,False,0.0,0.0,0.0,0.0,0.0,-0.1609,-39.8745,0.0001,True,False,Mode(963497464),0.7948,60,0.6446
3.254,THRUST_SEARCH,OPEN_LOOP,0.0195,0.01948,0.02516,0.02516,0.0,0.00393,0.6451,0.6451,0.6451,,0.67,,False,0.0,0.0,0.0,0.0,0.0,-0.1609,-39.9381,0.005,True,False,Mode(963497464),0.8057,60,0.6446
3.265,THRUST_SEARCH,OPEN_LOOP,0.0201,0.02014,0.02655,0.02655,0.0,0.00651,0.6453,0.6453,0.6453,,0.67,,False,0.0,0.0,0.0,0.0,0.0,-0.1609,-40.1543,0.007,True,False,Mode(963497464),0.8166,60,0.6446
3.276,THRUST_SEARCH,OPEN_LOOP,0.0209,0.02086,0.02751,0.02751,0.0,0.00917,0.6455,0.6455,0.6455,,0.67,,False,0.0,0.0,0.0,0.0,0.0,-0.1609,-40.4993,0.009,True,False,Mode(963497464),0.8271,60,0.6446
3.287,THRUST_SEARCH,OPEN_LOOP,0.0216,0.0216,0.02824,0.02824,0.0,0.01182,0.6457,0.6457,0.6457,,0.67,,False,0.0,0.0,0.0,0.0,0.0,-0.1609,-41.4397,0.004,True,True,Mode(963497464),0.8381,60,0.6446
3.297,THRUST_SEARCH,OPEN_LOOP,0.0223,0.0223,0.0284,0.0284,0.0,0.01425,0.6459,0.6459,0.6459,,0.67,,False,0.0,0.0,0.0,0.0,0.0,-0.1609,-41.9482,0.006,True,False,Mode(963497464),0.8486,61,0.6457
3.308,THRUST_SEARCH,OPEN_LOOP,0.023,0.02303,0.02902,0.02902,0.0,0.01662,0.6462,0.6462,0.6462,,0.67,,False,0.0,0.0,0.0,0.0,0.0,-0.1609,-42.4153,0.0075,True,False,Mode(963497464),0.8591,61,0.6457
3.319,THRUST_SEARCH,OPEN_LOOP,0.0237,0.02371,0.02894,0.02894,0.0,0.01869,0.6464,0.6464,0.6464,,0.67,,False,0.0,0.0,0.0,0.0,0.0,-0.1609,-43.4022,0.001,True,False,Mode(963497464),0.87,61,0.6457
3.33,THRUST_SEARCH,OPEN_LOOP,0.0244,0.02439,0.02938,0.02938,0.0,0.02067,0.6466,0.6466,0.6466,,0.67,,False,0.0,0.0,0.0,0.0,0.0,-0.1609,-43.9419,0.003,True,False,Mode(963497464),0.881,61,0.6457
3.341,THRUST_SEARCH,OPEN_LOOP,0.0252,0.0252,0.03128,0.03128,0.0,0.02307,0.6468,0.6468,0.6468,,0.67,,False,0.0,0.0,0.0,0.0,0.0,-0.1609,-44.4323,0.008,True,True,Mode(963497464),0.892,61,0.6457
3.352,THRUST_SEARCH,OPEN_LOOP,0.0259,0.02593,0.03101,0.03101,0.0,0.02508,0.647,0.647,0.647,,0.67,,False,0.0,0.0,0.0,0.0,0.0,-0.1609,-45.3498,0.001,True,False,Mode(963497464),0.9029,62,0.6468
3.363,THRUST_SEARCH,OPEN_LOOP,0.0266,0.02663,0.03108,0.03108,0.0,0.02684,0.6473,0.6473,0.6473,,0.67,,False,0.0,0.0,0.0,0.0,0.0,-0.1609,-45.726,0.003,True,False,Mode(963497464),0.9139,62,0.6468
