time,state,controller_mode,target_z,curr_z,raw_z,height_for_safety,target_vz,curr_vz,thrust,raw_thrust,search_thrust,liftoff_thrust,hover_thrust_est,thrust_no_floor,floor_applied,a_cmd_z,v_cmd_z,z_integral,roll_cmd_deg,pitch_cmd_deg,yaw_cmd_deg,yaw_mocap_deg,mocap_age,kf_used_measurement,mavlink_sent,mav_mode,mav_heartbeat_age,mav_send_count,mav_last_thrust
0.002,THRUST_SEARCH,OPEN_LOOP,-0.0,-1e-05,-2e-05,-1e-05,0.0,-0.0,0.58,0.58,0.58,,0.67,,False,0.0,0.0,0.0,0.0,0.0,-27.4248,-27.4255,0.002,True,True,Mode(963497464),0.0,0,
0.011,THRUST_SEARCH,OPEN_LOOP,-0.0,-1e-05,-1e-05,-1e-05,0.0,0.0,0.5804,0.5804,0.5804,,0.67,,False,0.0,0.0,0.0,0.0,0.0,-27.4248,-27.4244,0.006,True,False,Mode(963497464),0.011,1,0.58
0.022,THRUST_SEARCH,OPEN_LOOP,-0.0,-1e-05,-1e-05,-1e-05,0.0,2e-05,0.5809,0.5809,0.5809,,0.67,,False,0.0,0.0,0.0,0.0,0.0,-27.4248,-27.4239,0.008,True,False,Mode(963497464),0.0219,1,0.58
0.033,THRUST_SEARCH,OPEN_LOOP,-0.0,-1e-05,-2e-05,-1e-05,0.0,-0.0,0.5813,0.5813,0.5813,,0.67,,False,0.0,0.0,0.0,0.0,0.0,-27.4248,-27.4233,0.0011,True,False,Mode(963497464),0.0331,1,0.58
0.044,THRUST_SEARCH,OPEN_LOOP,-0.0,-1e-05,-2e-05,-1e-05,0.0,-2e-05,0.5818,0.5818,0.5818,,0.67,,False,0.0,0.0,0.0,0.0,0.0,-27.4248,-27.4237,0.006,True,False,Mode(963497464),0.044,1,0.58
0.055,THRUST_SEARCH,OPEN_LOOP,-0.0,-1e-05,0.0,0.0,0.0,6e-05,0.5822,0.5822,0.5822,,0.67,,False,0.0,0.0,0.0,0.0,0.0,-27.4248,-27.425,0.008,True,True,Mode(963497464),0.055,1,0.58
0.066,THRUST_SEARCH,OPEN_LOOP,-0.0,-0.0,2e-05,2e-05,0.0,0.00016,0.5826,0.5826,0.5826,,0.67,,False,0.0,0.0,0.0,0.0,0.0,-27.4248,-27.4264,0.001,True,False,Mode(963497464),0.0659,2,0.5822
0.077,THRUST_SEARCH,OPEN_LOOP,0.0,0.0,1e-05,1e-05,0.0,0.00019,0.5831,0.5831,0.5831,,0.67,,False,0.0,0.0,0.0,0.0,0.0,-27.4248,-27.427,0.006,True,False,Mode(963497464),0.0769,2,0.5822
0.087,THRUST_SEARCH,OPEN_LOOP,0.0,0.0,-1e-05,0.0,0.0,0.00015,0.5835,0.5835,0.5835,,0.67,,False,0.0,0.0,0.0,0.0,0.0,-27.4248,-27.4268,0.0075,True,False,Mode(963497464),0.0874,2,0.5822
0.098,THRUST_SEARCH,OPEN_LOOP,0.0,0.0,0.0,0.0,0.0,0.00014,0.5839,0.5839,0.5839,,0.67,,False,0.0,0.0,0.0,0.0,0.0,-27.4248,-27.4278,0.001,True,False,Mode(963497464),0.0984,2,0.5822
0.109,THRUST_SEARCH,OPEN_LOOP,-0.0,-0.0,-2e-05,-0.0,0.0,6e-05,0.5844,0.5844,0.5844,,0.67,,False,0.0,0.0,0.0,0.0,0.0,-27.4248,-27.4285,0.003,True,True,Mode(963497464),0.1093,2,0.5822
0.12,THRUST_SEARCH,OPEN_LOOP,-0.0,-1e-05,-3e-05,-1e-05,0.0,-2e-05,0.5848,0.5848,0.5848,,0.67,,False,0.0,0.0,0.0,0.0,0.0,-27.4248,-27.4254,0.008,True,False,Mode(963497464),0.1203,3,0.5844
0.131,THRUST_SEARCH,OPEN_LOOP,-0.0,-2e-05,-5e-05,-2e-05,0.0,-0.00013,0.5852,0.5852,0.5852,,0.67,,False,0.0,0.0,0.0,0.0,0.0,-27.4248,-27.4231,0.001,True,False,Mode(963497464),0.1308,3,0.5844
0.142,THRUST_SEARCH,OPEN_LOOP,-0.0,-2e-05,0.0,0.0,0.0,-8e-05,0.5857,0.5857,0.5857,,0.67,,False,0.0,0.0,0.0,0.0,0.0,-27.4248,-27.4255,0.003,True,False,Mode(963497464),0.1418,3,0.5844
0.152,THRUST_SEARCH,OPEN_LOOP,-0.0,-2e-05,-2e-05,-2e-05,0.0,-8e-05,0.5861,0.5861,0.5861,,0.67,,False,0.0,0.0,0.0,0.0,0.0,-27.4248,-27.4253,0.0045,True,False,Mode(963497464),0.1523,3,0.5844
0.163,THRUST_SEARCH,OPEN_LOOP,-0.0,-2e-05,-2e-05,-2e-05,0.0,-9e-05,0.5865,0.5865,0.5865,,0.67,,False,0.0,0.0,0.0,0.0,0.0,-27.4248,-27.4248,0.001,True,True,Mode(963497464),0.1632,3,0.5844
0.174,THRUST_SEARCH,OPEN_LOOP,-0.0,-1e-05,2e-05,2e-05,0.0,-3e-05,0.587,0.587,0.587,,0.67,,False,0.0,0.0,0.0,0.0,0.0,-27.4248,-27.4262,0.003,True,False,Mode(963497464),0.1742,4,0.5865
0.185,THRUST_SEARCH,OPEN_LOOP,-0.0,-1e-05,-0.0,-0.0,0.0,-2e-05,0.5874,0.5874,0.5874,,0.67,,False,0.0,0.0,0.0,0.0,0.0,-27.4248,-27.4252,0.0045,True,False,Mode(963497464),0.1847,4,0.5865
0.195,THRUST_SEARCH,OPEN_LOOP,-0.0,-1e-05,-1e-05,-1e-05,0.0,-1e-05,0.5878,0.5878,0.5878,,0.67,,False,0.0,0.0,0.0,0.0,0.0,-27.4248,-27.4263,0.0065,True,False,Mode(963497464),0.1952,4,0.5865
0.206,THRUST_SEARCH,OPEN_LOOP,-0.0,-1e-05,-1e-05,-1e-05,0.0,-1e-05,0.5882,0.5882,0.5882,,0.67,,False,0.0,0.0,0.0,0.0,0.0,-27.4248,-27.426,0.009,True,False,Mode(963497464),0.2062,4,0.5865
0.217,THRUST_SEARCH,OPEN_LOOP,-0.0,-1e-05,0.0,0.0,0.0,1e-05,0.5887,0.5887,0.5887,,0.67,,False,0.0,0.0,0.0,0.0,0.0,-27.4248,-27.4267,0.005,True,True,Mode(963497464),0.2171,4,0.5865
0.229,THRUST_SEARCH,OPEN_LOOP,-0.0,-1e-05,-3e-05,-1e-05,0.0,-2e-05,0.5891,0.5891,0.5891,,0.67,,False,0.0,0.0,0.0,0.0,0.0,-27.4248,-27.4275,0.0075,True,False,Mode(963497464),0.2286,5,0.5887
0.24,THRUST_SEARCH,OPEN_LOOP,-0.0,-1e-05,-3e-05,-1e-05,0.0,-3e-05,0.5896,0.5896,0.5896,,0.67,,False,0.0,0.0,0.0,0.0,0.0,-27.4248,-27.4307,0.0015,True,False,Mode(963497464),0.2401,5,0.5887
0.251,THRUST_SEARCH,OPEN_LOOP,-0.0,-1e-05,1e-05,1e-05,0.0,-1e-05,0.5901,0.5901,0.5901,,0.67,,False,0.0,0.0,0.0,0.0,0.0,-27.4248,-27.4315,0.003,True,False,Mode(963497464),0.251,5,0.5887
0.261,THRUST_SEARCH,OPEN_LOOP,-0.0,-1e-05,-1e-05,-1e-05,0.0,-1e-05,0.5905,0.5905,0.5905,,0.67,,False,0.0,0.0,0.0,0.0,0.0,-27.4248,-27.4287,0.0074,True,False,Mode(963497464),0.2614,5,0.5887
0.273,THRUST_SEARCH,OPEN_LOOP,-0.0,-1e-05,-1e-05,-1e-05,0.0,-1e-05,0.5909,0.5909,0.5909,,0.67,,False,0.0,0.0,0.0,0.0,0.0,-27.4248,-27.4276,0.0013,True,True,Mode(963497464),0.2727,5,0.5887
0.284,THRUST_SEARCH,OPEN_LOOP,-0.0,-1e-05,-1e-05,-1e-05,0.0,-0.0,0.5913,0.5913,0.5913,,0.67,,False,0.0,0.0,0.0,0.0,0.0,-27.4248,-27.4285,0.003,True,False,Mode(963497464),0.2837,6,0.5909
0.295,THRUST_SEARCH,OPEN_LOOP,-0.0,-1e-05,-1e-05,-1e-05,0.0,-0.0,0.5918,0.5918,0.5918,,0.67,,False,0.0,0.0,0.0,0.0,0.0,-27.4248,-27.4269,0.005,True,False,Mode(963497464),0.2947,6,0.5909
0.306,THRUST_SEARCH,OPEN_LOOP,-0.0,-1e-05,-4e-05,-1e-05,0.0,-2e-05,0.5922,0.5922,0.5922,,0.67,,False,0.0,0.0,0.0,0.0,0.0,-27.4248,-27.429,0.0,True,False,Mode(963497464),0.3057,6,0.5909
0.317,THRUST_SEARCH,OPEN_LOOP,-0.0,-1e-05,3e-05,3e-05,0.0,1e-05,0.5927,0.5927,0.5927,,0.67,,False,0.0,0.0,0.0,0.0,0.0,-27.4248,-27.4315,0.002,True,False,Mode(963497464),0.3166,6,0.5909
0.328,THRUST_SEARCH,OPEN_LOOP,-0.0,-1e-05,-1e-05,-1e-05,0.0,1e-05,0.5931,0.5931,0.5931,,0.67,,False,0.0,0.0,0.0,0.0,0.0,-27.4248,-27.4317,0.007,True,True,Mode(963497464),0.3276,6,0.5909
0.339,THRUST_SEARCH,OPEN_LOOP,-0.0,-1e-05,-4e-05,-1e-05,0.0,-1e-05,0.5935,0.5935,0.5935,,0.67,,False,0.0,0.0,0.0,0.0,0.0,-27.4248,-27.4282,0.0006,True,False,Mode(963497464),0.3387,7,0.5931
0.35,THRUST_SEARCH,OPEN_LOOP,-0.0,-1e-05,-0.0,-0.0,0.0,-0.0,0.594,0.594,0.594,,0.67,,False,0.0,0.0,0.0,0.0,0.0,-27.4248,-27.4265,0.003,True,False,Mode(963497464),0.3496,7,0.5931
0.36,THRUST_SEARCH,OPEN_LOOP,-0.0,-1e-05,-2e-05,-1e-05,0.0,-1e-05,0.5944,0.5944,0.5944,,0.67,,False,0.0,0.0,0.0,0.0,0.0,-27.4248,-27.424,0.0045,True,False,Mode(963497464),0.3601,7,0.5931
0.371,THRUST_SEARCH,OPEN_LOOP,-0.0,-1e-05,-2e-05,-1e-05,0.0,-2e-05,0.5948,0.5948,0.5948,,0.67,,False,0.0,0.0,0.0,0.0,0.0,-27.4248,-27.4249,0.0065,True,False,Mode(963497464),0.3707,7,0.5931
0.383,THRUST_SEARCH,OPEN_LOOP,-0.0,-1e-05,-0.0,-0.0,0.0,-1e-05,0.5953,0.5953,0.5953,,0.67,,False,0.0,0.0,0.0,0.0,0.0,-27.4248,-27.427,0.009,True,True,Mode(963497464),0.3816,7,0.5931
0.393,THRUST_SEARCH,OPEN_LOOP,-0.0,-1e-05,1e-05,1e-05,0.0,0.0,0.5957,0.5957,0.5957,,0.67,,False,0.0,0.0,0.0,0.0,0.0,-27.4248,-27.4302,0.004,True,False,Mode(963497464),0.3926,8,0.5953
0.404,THRUST_SEARCH,OPEN_LOOP,-0.0,-1e-05,-1e-05,-1e-05,0.0,0.0,0.5961,0.5961,0.5961,,0.67,,False,0.0,0.0,0.0,0.0,0.0,-27.4248,-27.4286,0.006,True,False,Mode(963497464),0.4036,8,0.5953
0.415,THRUST_SEARCH,OPEN_LOOP,-0.0,-1e-05,-1e-05,-1e-05,0.0,0.0,0.5966,0.5966,0.5966,,0.67,,False,0.0,0.0,0.0,0.0,0.0,-27.4248,-27.431,0.002,True,False,Mode(963497464),0.4145,8,0.5953
0.425,THRUST_SEARCH,OPEN_LOOP,-0.0,-1e-05,-0.0,-0.0,0.0,0.0,0.597,0.597,0.597,,0.67,,False,0.0,0.0,0.0,0.0,0.0,-27.4248,-27.4305,0.0037,True,False,Mode(963497464),0.4252,8,0.5953
0.436,THRUST_SEARCH,OPEN_LOOP,-0.0,-1e-05,-3e-05,-1e-05,0.0,-0.0,0.5974,0.5974,0.5974,,0.67,,False,0.0,0.0,0.0,0.0,0.0,-27.4248,-27.4339,0.004,True,True,Mode(963497464),0.4362,8,0.5953
0.447,THRUST_SEARCH,OPEN_LOOP,-0.0,-1e-05,-4e-05,-1e-05,0.0,-1e-05,0.5979,0.5979,0.5979,,0.67,,False,0.0,0.0,0.0,0.0,0.0,-27.4248,-27.4279,0.009,True,False,Mode(963497464),0.4472,9,0.5974
0.458,THRUST_SEARCH,OPEN_LOOP,-0.0,-2e-05,-3e-05,-2e-05,0.0,-2e-05,0.5983,0.5983,0.5983,,0.67,,False,0.0,0.0,0.0,0.0,0.0,-27.4248,-27.4269,0.004,True,False,Mode(963497464),0.4582,9,0.5974
0.469,THRUST_SEARCH,OPEN_LOOP,-0.0,-1e-05,0.0,0.0,0.0,-2e-05,0.5988,0.5988,0.5988,,0.67,,False,0.0,0.0,0.0,0.0,0.0,-27.4248,-27.4287,0.006,True,False,Mode(963497464),0.4691,9,0.5974
0.48,THRUST_SEARCH,OPEN_LOOP,-0.0,-1e-05,-1e-05,-1e-05,0.0,-1e-05,0.5992,0.5992,0.5992,,0.67,,False,0.0,0.0,0.0,0.0,0.0,-27.4248,-27.4275,0.008,True,False,Mode(963497464),0.4801,9,0.5974
0.491,THRUST_SEARCH,OPEN_LOOP,-0.0,-1e-05,-1e-05,-1e-05,0.0,-1e-05,0.5996,0.5996,0.5996,,0.67,,False,0.0,0.0,0.0,0.0,0.0,-27.4248,-27.4275,0.001,True,True,Mode(963497464),0.4908,9,0.5974
0.502,THRUST_SEARCH,OPEN_LOOP,-0.0,-2e-05,-4e-05,-2e-05,0.0,-2e-05,0.6001,0.6001,0.6001,,0.67,,False,0.0,0.0,0.0,0.0,0.0,-27.4248,-27.4264,0.006,True,False,Mode(963497464),0.5017,10,0.5996
0.512,THRUST_SEARCH,OPEN_LOOP,-0.0,-1e-05,1e-05,1e-05,0.0,-1e-05,0.6005,0.6005,0.6005,,0.67,,False,0.0,0.0,0.0,0.0,0.0,-27.4248,-27.4254,0.0075,True,False,Mode(963497464),0.5122,10,0.5996
0.523,THRUST_SEARCH,OPEN_LOOP,-0.0,-1e-05,-2e-05,-1e-05,0.0,-1e-05,0.6009,0.6009,0.6009,,0.67,,False,0.0,0.0,0.0,0.0,0.0,-27.4248,-27.4248,0.001,True,False,Mode(963497464),0.5232,10,0.5996
0.534,THRUST_SEARCH,OPEN_LOOP,-0.0,-1e-05,-2e-05,-1e-05,0.0,-1e-05,0.6014,0.6014,0.6014,,0.67,,False,0.0,0.0,0.0,0.0,0.0,-27.4248,-27.4234,0.003,True,False,Mode(963497464),0.5341,10,0.5996
0.545,THRUST_SEARCH,OPEN_LOOP,-0.0,-1e-05,-2e-05,-1e-05,0.0,-1e-05,0.6018,0.6018,0.6018,,0.67,,False,0.0,0.0,0.0,0.0,0.0,-27.4248,-27.4278,0.0045,True,True,Mode(963497464),0.5446,10,0.5996
0.555,THRUST_SEARCH,OPEN_LOOP,-0.0,-2e-05,-5e-05,-2e-05,0.0,-3e-05,0.6022,0.6022,0.6022,,0.67,,False,0.0,0.0,0.0,0.0,0.0,-27.4248,-27.4305,0.001,True,False,Mode(963497464),0.5554,11,0.6018
0.566,THRUST_SEARCH,OPEN_LOOP,-0.0,-2e-05,-3e-05,-2e-05,0.0,-3e-05,0.6027,0.6027,0.6027,,0.67,,False,0.0,0.0,0.0,0.0,0.0,-27.4248,-27.4275,0.003,True,False,Mode(963497464),0.5664,11,0.6018
0.577,THRUST_SEARCH,OPEN_LOOP,-0.0,-2e-05,-4e-05,-2e-05,0.0,-4e-05,0.6031,0.6031,0.6031,,0.67,,False,0.0,0.0,0.0,0.0,0.0,-27.4248,-27.4325,0.005,True,False,Mode(963497464),0.5773,11,0.6018
0.588,THRUST_SEARCH,OPEN_LOOP,-0.0,-2e-05,0.0,0.0,0.0,-3e-05,0.6035,0.6035,0.6035,,0.67,,False,0.0,0.0,0.0,0.0,0.0,-27.4248,-27.4275,0.007,True,False,Mode(963497464),0.588,11,0.6018
0.599,THRUST_SEARCH,OPEN_LOOP,-0.0,-2e-05,-0.0,-0.0,0.0,-2e-05,0.6039,0.6039,0.6039,,0.67,,False,0.0,0.0,0.0,0.0,0.0,-27.4248,-27.4286,0.009,True,True,Mode(963497464),0.5985,11,0.6018
0.609,THRUST_SEARCH,OPEN_LOOP,-0.0,-2e-05,-1e-05,-1e-05,0.0,-2e-05,0.6044,0.6044,0.6044,,0.67,,False,0.0,0.0,0.0,0.0,0.0,-27.4248,-27.4279,0.004,True,False,Mode(963497464),0.6094,12,0.6039
0.62,THRUST_SEARCH,OPEN_LOOP,-0.0,-2e-05,-2e-05,-2e-05,0.0,-2e-05,0.6048,0.6048,0.6048,,0.67,,False,0.0,0.0,0.0,0.0,0.0,-27.4248,-27.429,0.006,True,False,Mode(963497464),0.6199,12,0.6039
0.63,THRUST_SEARCH,OPEN_LOOP,-0.0,-2e-05,-2e-05,-2e-05,0.0,-2e-05,0.6052,0.6052,0.6052,,0.67,,False,0.0,0.0,0.0,0.0,0.0,-27.4248,-27.4282,0.0075,True,False,Mode(963497464),0.6304,12,0.6039
0.641,THRUST_SEARCH,OPEN_LOOP,-0.0,-2e-05,0.0,0.0,0.0,-1e-05,0.6057,0.6057,0.6057,,0.67,,False,0.0,0.0,0.0,0.0,0.0,-27.4248,-27.4299,0.004,True,False,Mode(963497464),0.6414,12,0.6039
0.652,THRUST_SEARCH,OPEN_LOOP,-0.0,-1e-05,1e-05,1e-05,0.0,-0.0,0.6061,0.6061,0.6061,,0.67,,False,0.0,0.0,0.0,0.0,0.0,-27.4248,-27.4301,0.006,True,True,Mode(963497464),0.6518,12,0.6039
0.664,THRUST_SEARCH,OPEN_LOOP,-0.0,-1e-05,1e-05,1e-05,0.0,0.0,0.6066,0.6066,0.6066,,0.67,,False,0.0,0.0,0.0,0.0,0.0,-27.4248,-27.4334,0.009,True,False,Mode(963497464),0.0,13,0.6061
0.674,THRUST_SEARCH,OPEN_LOOP,-0.0,-1e-05,-1e-05,-1e-05,0.0,1e-05,0.607,0.607,0.607,,0.67,,False,0.0,0.0,0.0,0.0,0.0,-27.4248,-27.4353,0.0015,True,False,Mode(963497464),0.0105,13,0.6061
0.685,THRUST_SEARCH,OPEN_LOOP,-0.0,-1e-05,3e-05,3e-05,0.0,2e-05,0.6074,0.6074,0.6074,,0.67,,False,0.0,0.0,0.0,0.0,0.0,-27.4248,-27.4353,0.006,True,False,Mode(963497464),0.0215,13,0.6061
0.696,THRUST_SEARCH,OPEN_LOOP,-0.0,-1e-05,-5e-05,-1e-05,0.0,1e-05,0.6078,0.6078,0.6078,,0.67,,False,0.0,0.0,0.0,0.0,0.0,-27.4248,-27.4299,0.008,True,False,Mode(963497464),0.0324,13,0.6061
0.707,THRUST_SEARCH,OPEN_LOOP,-0.0,-1e-05,-1e-05,-1e-05,0.0,1e-05,0.6083,0.6083,0.6083,,0.67,,False,0.0,0.0,0.0,0.0,0.0,-27.4248,-27.4285,0.001,True,True,Mode(963497464),0.0434,13,0.6061
0.718,THRUST_SEARCH,OPEN_LOOP,-0.0,-1e-05,-3e-05,-1e-05,0.0,0.0,0.6087,0.6087,0.6087,,0.67,,False,0.0,0.0,0.0,0.0,0.0,-27.4248,-27.4281,0.003,True,False,Mode(963497464),0.0544,14,0.6083
0.728,THRUST_SEARCH,OPEN_LOOP,-0.0,-1e-05,-1e-05,-1e-05,0.0,0.0,0.6091,0.6091,0.6091,,0.67,,False,0.0,0.0,0.0,0.0,0.0,-27.4248,-27.4298,0.0075,True,False,Mode(963497464),0.0648,14,0.6083
0.739,THRUST_SEARCH,OPEN_LOOP,-0.0,-1e-05,-2e-05,-1e-05,0.0,-0.0,0.6096,0.6096,0.6096,,0.67,,False,0.0,0.0,0.0,0.0,0.0,-27.4248,-27.4298,0.001,True,False,Mode(963497464),0.0758,14,0.6083
0.75,THRUST_SEARCH,OPEN_LOOP,-0.0,-1e-05,-1e-05,-1e-05,0.0,0.0,0.61,0.61,0.61,,0.67,,False,0.0,0.0,0.0,0.0,0.0,-27.4248,-27.4298,0.003,True,False,Mode(963497464),0.0868,14,0.6083
0.761,THRUST_SEARCH,OPEN_LOOP,-0.0,-1e-05,-1e-05,-1e-05,0.0,0.0,0.6104,0.6104,0.6104,,0.67,,False,0.0,0.0,0.0,0.0,0.0,-27.4248,-27.4296,0.0045,True,True,Mode(963497464),0.0973,14,0.6083
0.772,THRUST_SEARCH,OPEN_LOOP,-0.0,-1e-05,-4e-05,-1e-05,0.0,-1e-05,0.6109,0.6109,0.6109,,0.67,,False,0.0,0.0,0.0,0.0,0.0,-27.4248,-27.4332,0.001,True,False,Mode(963497464),0.1082,15,0.6104
0.783,THRUST_SEARCH,OPEN_LOOP,-0.0,-1e-05,-2e-05,-1e-05,0.0,-1e-05,0.6113,0.6113,0.6113,,0.67,,False,0.0,0.0,0.0,0.0,0.0,-27.4248,-27.4362,0.003,True,False,Mode(963497464),0.1192,15,0.6104
0.793,THRUST_SEARCH,OPEN_LOOP,-0.0,-1e-05,-1e-05,-1e-05,0.0,-1e-05,0.6117,0.6117,0.6117,,0.67,,False,0.0,0.0,0.0,0.0,0.0,-27.4248,-27.4373,0.0045,True,False,Mode(963497464),0.1297,15,0.6104
0.804,THRUST_SEARCH,OPEN_LOOP,-0.0,-1e-05,-2e-05,-1e-05,0.0,-1e-05,0.6122,0.6122,0.6122,,0.67,,False,0.0,0.0,0.0,0.0,0.0,-27.4248,-27.4335,0.007,True,False,Mode(963497464),0.1407,15,0.6104
0.815,THRUST_SEARCH,OPEN_LOOP,-0.0,-2e-05,-3e-05,-2e-05,0.0,-1e-05,0.6126,0.6126,0.6126,,0.67,,False,0.0,0.0,0.0,0.0,0.0,-27.4248,-27.4321,0.009,True,True,Mode(963497464),0.1511,15,0.6104
0.825,THRUST_SEARCH,OPEN_LOOP,-0.0,-2e-05,-5e-05,-2e-05,0.0,-2e-05,0.613,0.613,0.613,,0.67,,False,0.0,0.0,0.0,0.0,0.0,-27.4248,-27.4334,0.004,True,False,Mode(963497464),0.1621,16,0.6126
0.836,THRUST_SEARCH,OPEN_LOOP,-0.0,-2e-05,-3e-05,-2e-05,0.0,-3e-05,0.6135,0.6135,0.6135,,0.67,,False,0.0,0.0,0.0,0.0,0.0,-27.4248,-27.4298,0.006,True,False,Mode(963497464),0.1731,16,0.6126
0.847,THRUST_SEARCH,OPEN_LOOP,-0.0,-2e-05,-3e-05,-2e-05,0.0,-3e-05,0.6139,0.6139,0.6139,,0.67,,False,0.0,0.0,0.0,0.0,0.0,-27.4248,-27.4296,0.008,True,False,Mode(963497464),0.1841,16,0.6126
0.858,THRUST_SEARCH,OPEN_LOOP,-0.0,-2e-05,-3e-05,-2e-05,0.0,-4e-05,0.6143,0.6143,0.6143,,0.67,,False,0.0,0.0,0.0,0.0,0.0,-27.4248,-27.4328,0.004,True,False,Mode(963497464),0.195,16,0.6126
0.87,THRUST_SEARCH,OPEN_LOOP,-0.0,-2e-05,0.0,0.0,0.0,-3e-05,0.6148,0.6148,0.6148,,0.67,,False,0.0,0.0,0.0,0.0,0.0,-27.4248,-27.4297,0.006,True,True,Mode(963497464),0.206,16,0.6126
0.88,THRUST_SEARCH,OPEN_LOOP,-0.0,-2e-05,-4e-05,-2e-05,0.0,-3e-05,0.6152,0.6152,0.6152,,0.67,,False,0.0,0.0,0.0,0.0,0.0,-27.4248,-27.4277,0.0075,True,False,Mode(963497464),0.2165,17,0.6148
0.891,THRUST_SEARCH,OPEN_LOOP,-0.0,-2e-05,-3e-05,-2e-05,0.0,-4e-05,0.6156,0.6156,0.6156,,0.67,,False,0.0,0.0,0.0,0.0,0.0,-27.4248,-27.433,0.001,True,False,Mode(963497464),0.2275,17,0.6148
0.902,THRUST_SEARCH,OPEN_LOOP,-0.0,-3e-05,-3e-05,-3e-05,0.0,-4e-05,0.6161,0.6161,0.6161,,0.67,,False,0.0,0.0,0.0,0.0,0.0,-27.4248,-27.4318,0.006,True,False,Mode(963497464),0.2384,17,0.6148
0.913,THRUST_SEARCH,OPEN_LOOP,-0.0,-3e-05,-3e-05,-3e-05,0.0,-4e-05,0.6165,0.6165,0.6165,,0.67,,False,0.0,0.0,0.0,0.0,0.0,-27.4248,-27.4263,0.008,True,False,Mode(963497464),0.2494,17,0.6148
0.924,THRUST_SEARCH,OPEN_LOOP,-0.0,-2e-05,-1e-05,-1e-05,0.0,-3e-05,0.6169,0.6169,0.6169,,0.67,,False,0.0,0.0,0.0,0.0,0.0,-27.4248,-27.4259,0.001,True,True,Mode(963497464),0.2604,17,0.6148
0.935,THRUST_SEARCH,OPEN_LOOP,-0.0,-3e-05,-4e-05,-3e-05,0.0,-4e-05,0.6174,0.6174,0.6174,,0.67,,False,0.0,0.0,0.0,0.0,0.0,-27.4248,-27.4278,0.003,True,False,Mode(963497464),0.2713,18,0.6169
0.946,THRUST_SEARCH,OPEN_LOOP,-0.0,-3e-05,-2e-05,-2e-05,0.0,-4e-05,0.6178,0.6178,0.6178,,0.67,,False,0.0,0.0,0.0,0.0,0.0,-27.4248,-27.4292,0.008,True,False,Mode(963497464),0.2823,18,0.6169
0.956,THRUST_SEARCH,OPEN_LOOP,-0.0,-3e-05,-5e-05,-3e-05,0.0,-4e-05,0.6182,0.6182,0.6182,,0.67,,False,0.0,0.0,0.0,0.0,0.0,-27.4248,-27.4315,0.001,True,False,Mode(963497464),0.2928,18,0.6169
0.967,THRUST_SEARCH,OPEN_LOOP,-0.0,-3e-05,-1e-05,-1e-05,0.0,-4e-05,0.6187,0.6187,0.6187,,0.67,,False,0.0,0.0,0.0,0.0,0.0,-27.4248,-27.433,0.0031,True,False,Mode(963497464),0.3039,18,0.6169
0.978,THRUST_SEARCH,OPEN_LOOP,-0.0,-3e-05,-2e-05,-2e-05,0.0,-3e-05,0.6191,0.6191,0.6191,,0.67,,False,0.0,0.0,0.0,0.0,0.0,-27.4248,-27.4359,0.0045,True,True,Mode(963497464),0.3143,18,0.6169
0.989,THRUST_SEARCH,OPEN_LOOP,-0.0,-2e-05,0.0,0.0,0.0,-2e-05,0.6195,0.6195,0.6195,,0.67,,False,0.0,0.0,0.0,0.0,0.0,-27.4248,-27.4304,0.001,True,False,Mode(963497464),0.3253,19,0.6191
1.0,THRUST_SEARCH,OPEN_LOOP,-0.0,-2e-05,-2e-05,-2e-05,0.0,-2e-05,0.62,0.62,0.62,,0.67,,False,0.0,0.0,0.0,0.0,0.0,-27.4248,-27.4308,0.003,True,False,Mode(963497464),0.3362,19,0.6191
1.011,THRUST_SEARCH,OPEN_LOOP,-0.0,-3e-05,-4e-05,-3e-05,0.0,-3e-05,0.6204,0.6204,0.6204,,0.67,,False,0.0,0.0,0.0,0.0,0.0,-27.4248,-27.4321,0.005,True,False,Mode(963497464),0.3472,19,0.6191
1.021,THRUST_SEARCH,OPEN_LOOP,-0.0,-3e-05,-4e-05,-3e-05,0.0,-3e-05,0.6208,0.6208,0.6208,,0.67,,False,0.0,0.0,0.0,0.0,0.0,-27.4248,-27.4284,0.0065,True,False,Mode(963497464),0.3577,19,0.6191
1.032,THRUST_SEARCH,OPEN_LOOP,-0.0,-3e-05,-2e-05,-2e-05,0.0,-3e-05,0.6213,0.6213,0.6213,,0.67,,False,0.0,0.0,0.0,0.0,0.0,-27.4248,-27.4303,0.001,True,True,Mode(963497464),0.3689,19,0.6191
1.043,THRUST_SEARCH,OPEN_LOOP,-0.0,-3e-05,-2e-05,-2e-05,0.0,-3e-05,0.6217,0.6217,0.6217,,0.67,,False,0.0,0.0,0.0,0.0,0.0,-27.4248,-27.4338,0.003,True,False,Mode(963497464),0.3799,20,0.6213
1.054,THRUST_SEARCH,OPEN_LOOP,-0.0,-3e-05,-4e-05,-3e-05,0.0,-3e-05,0.6222,0.6222,0.6222,,0.67,,False,0.0,0.0,0.0,0.0,0.0,-27.4248,-27.4306,0.008,True,False,Mode(963497464),0.3908,20,0.6213
1.065,THRUST_SEARCH,OPEN_LOOP,-0.0,-3e-05,1e-05,1e-05,0.0,-2e-05,0.6226,0.6226,0.6226,,0.67,,False,0.0,0.0,0.0,0.0,0.0,-27.4248,-27.4326,0.001,True,False,Mode(963497464),0.4021,20,0.6213
1.076,THRUST_SEARCH,OPEN_LOOP,-0.0,-3e-05,-2e-05,-2e-05,0.0,-2e-05,0.6231,0.6231,0.6231,,0.67,,False,0.0,0.0,0.0,0.0,0.0,-27.4248,-27.4274,0.004,True,False,Mode(963497464),0.413,20,0.6213
1.087,THRUST_SEARCH,OPEN_LOOP,-0.0,-3e-05,-5e-05,-3e-05,0.0,-3e-05,0.6235,0.6235,0.6235,,0.67,,False,0.0,0.0,0.0,0.0,0.0,-27.4248,-27.4239,0.008,True,True,Mode(963497464),0.424,20,0.6213
1.099,THRUST_SEARCH,OPEN_LOOP,-0.0,-3e-05,-3e-05,-3e-05,0.0,-3e-05,0.624,0.624,0.624,,0.67,,False,0.0,0.0,0.0,0.0,0.0,-27.4248,-27.4234,0.002,True,False,Mode(963497464),0.436,21,0.6235
1.11,THRUST_SEARCH,OPEN_LOOP,-0.0,-3e-05,-1e-05,-1e-05,0.0,-2e-05,0.6244,0.6244,0.6244,,0.67,,False,0.0,0.0,0.0,0.0,0.0,-27.4248,-27.4279,0.004,True,False,Mode(963497464),0.4469,21,0.6235
1.121,THRUST_SEARCH,OPEN_LOOP,-0.0,-2e-05,-0.0,-0.0,0.0,-1e-05,0.6248,0.6248,0.6248,,0.67,,False,0.0,0.0,0.0,0.0,0.0,-27.4248,-27.4313,0.006,True,False,Mode(963497464),0.4574,21,0.6235
1.132,THRUST_SEARCH,OPEN_LOOP,-0.0,-3e-05,-3e-05,-3e-05,0.0,-1e-05,0.6253,0.6253,0.6253,,0.67,,False,0.0,0.0,0.0,0.0,0.0,-27.4248,-27.4322,0.002,True,False,Mode(963497464),0.4684,21,0.6235
1.142,THRUST_SEARCH,OPEN_LOOP,-0.0,-2e-05,-1e-05,-1e-05,0.0,-1e-05,0.6257,0.6257,0.6257,,0.67,,False,0.0,0.0,0.0,0.0,0.0,-27.4248,-27.4312,0.004,True,True,Mode(963497464),0.4791,21,0.6235
1.153,THRUST_SEARCH,OPEN_LOOP,-0.0,-3e-05,-8e-05,-3e-05,0.0,-3e-05,0.6261,0.6261,0.6261,,0.67,,False,0.0,0.0,0.0,0.0,0.0,-27.4248,-27.4593,0.006,True,False,Mode(963497464),0.49,22,0.6257
1.164,THRUST_SEARCH,OPEN_LOOP,-0.0,-2e-05,6e-05,6e-05,0.0,1e-05,0.6266,0.6266,0.6266,,0.67,,False,0.0,0.0,0.0,0.0,0.0,-27.4248,-27.4522,0.002,True,False,Mode(963497464),0.501,22,0.6257
1.175,THRUST_SEARCH,OPEN_LOOP,-0.0,-3e-05,-0.00016,-3e-05,0.0,-4e-05,0.627,0.627,0.627,,0.67,,False,0.0,0.0,0.0,0.0,0.0,-27.4248,-27.4296,0.0038,True,False,Mode(963497464),0.5117,22,0.6257
1.186,THRUST_SEARCH,OPEN_LOOP,-0.0,-4e-05,-0.00015,-4e-05,0.0,-9e-05,0.6274,0.6274,0.6274,,0.67,,False,0.0,0.0,0.0,0.0,0.0,-27.4248,-27.4257,0.006,True,False,Mode(963497464),0.5227,22,0.6257
1.197,THRUST_SEARCH,OPEN_LOOP,-0.0001,-7e-05,-0.00033,-7e-05,0.0,-0.00019,0.6279,0.6279,0.6279,,0.67,,False,0.0,0.0,0.0,0.0,0.0,-27.4248,-27.4074,0.0075,True,True,Mode(963497464),0.5332,22,0.6257
1.207,THRUST_SEARCH,OPEN_LOOP,-0.0001,-7e-05,-7e-05,-7e-05,0.0,-0.00019,0.6283,0.6283,0.6283,,0.67,,False,0.0,0.0,0.0,0.0,0.0,-27.4248,-27.4091,0.001,True,False,Mode(963497464),0.5442,23,0.6279
1.218,THRUST_SEARCH,OPEN_LOOP,-0.0001,-7e-05,2e-05,2e-05,0.0,-0.00016,0.6287,0.6287,0.6287,,0.67,,False,0.0,0.0,0.0,0.0,0.0,-27.4248,-27.4303,0.003,True,False,Mode(963497464),0.5546,23,0.6279
1.229,THRUST_SEARCH,OPEN_LOOP,-0.0,-4e-05,0.00026,0.00026,0.0,-4e-05,0.6292,0.6292,0.6292,,0.67,,False,0.0,0.0,0.0,0.0,0.0,-27.4248,-27.3969,0.008,True,False,Mode(963497464),0.5656,23,0.6279
1.24,THRUST_SEARCH,OPEN_LOOP,-0.0,-4e-05,-0.0,-0.0,0.0,-3e-05,0.6296,0.6296,0.6296,,0.67,,False,0.0,0.0,0.0,0.0,0.0,-27.4248,-27.4641,0.001,True,False,Mode(963497464),0.5766,23,0.6279
1.251,THRUST_SEARCH,OPEN_LOOP,-0.0,-3e-05,3e-05,3e-05,0.0,-0.0,0.63,0.63,0.63,,0.67,,False,0.0,0.0,0.0,0.0,0.0,-27.4248,-27.4859,0.003,True,True,Mode(963497464),0.5876,23,0.6279
1.262,THRUST_SEARCH,OPEN_LOOP,-0.0,-2e-05,7e-05,7e-05,0.0,3e-05,0.6305,0.6305,0.6305,,0.67,,False,0.0,0.0,0.0,0.0,0.0,-27.4248,-27.4998,0.005,True,False,Mode(963497464),0.5985,24,0.63
1.273,THRUST_SEARCH,OPEN_LOOP,-0.0,-2e-05,3e-05,3e-05,0.0,5e-05,0.6309,0.6309,0.6309,,0.67,,False,0.0,0.0,0.0,0.0,0.0,-27.4248,-27.5721,0.0013,True,False,Mode(963497464),0.6101,24,0.63
1.284,THRUST_SEARCH,OPEN_LOOP,0.0,1e-05,0.00031,0.00031,0.0,0.00017,0.6314,0.6314,0.6314,,0.67,,False,0.0,0.0,0.0,0.0,0.0,-27.4248,-27.5559,0.003,True,False,Mode(963497464),0.6211,24,0.63
1.295,THRUST_SEARCH,OPEN_LOOP,0.0,4e-05,0.00034,0.00034,0.0,0.00028,0.6318,0.6318,0.6318,,0.67,,False,0.0,0.0,0.0,0.0,0.0,-27.4248,-27.5293,0.0075,True,False,Mode(963497464),0.6316,24,0.63
1.306,THRUST_SEARCH,OPEN_LOOP,0.0001,7e-05,0.0004,0.0004,0.0,0.00041,0.6323,0.6323,0.6323,,0.67,,False,0.0,0.0,0.0,0.0,0.0,-27.4248,-27.5229,0.0015,True,True,Mode(963497464),0.643,24,0.63
1.318,THRUST_SEARCH,OPEN_LOOP,0.0001,8e-05,0.00011,0.00011,0.0,0.00042,0.6327,0.6327,0.6327,,0.67,,False,0.0,0.0,0.0,0.0,0.0,-27.4248,-27.5491,0.0032,True,False,Mode(963497464),0.6542,25,0.6323
1.328,THRUST_SEARCH,OPEN_LOOP,0.0001,9e-05,0.0001,0.0001,0.0,0.00043,0.6331,0.6331,0.6331,,0.67,,False,0.0,0.0,0.0,0.0,0.0,-27.4248,-27.5684,0.005,True,False,Mode(963497464),0.665,25,0.6323
1.339,THRUST_SEARCH,OPEN_LOOP,0.0001,9e-05,6e-05,9e-05,0.0,0.00042,0.6336,0.6336,0.6336,,0.67,,False,0.0,0.0,0.0,0.0,0.0,-27.4248,-27.5769,0.0007,True,False,Mode(963497464),0.6757,25,0.6323
1.35,THRUST_SEARCH,OPEN_LOOP,0.0001,9e-05,2e-05,9e-05,0.0,0.00039,0.634,0.634,0.634,,0.67,,False,0.0,0.0,0.0,0.0,0.0,-27.4248,-27.58,0.003,True,False,Mode(963497464),0.6866,25,0.6323
1.361,THRUST_SEARCH,OPEN_LOOP,0.0001,9e-05,4e-05,9e-05,0.0,0.00037,0.6344,0.6344,0.6344,,0.67,,False,0.0,0.0,0.0,0.0,0.0,-27.4248,-27.5851,0.005,True,True,Mode(963497464),0.6976,25,0.6323
1.372,THRUST_SEARCH,OPEN_LOOP,0.0001,9e-05,8e-05,9e-05,0.0,0.00037,0.6349,0.6349,0.6349,,0.67,,False,0.0,0.0,0.0,0.0,0.0,-27.4248,-27.5844,0.001,True,False,Mode(963497464),0.7086,26,0.6344
1.383,THRUST_SEARCH,OPEN_LOOP,0.0001,9e-05,3e-05,9e-05,0.0,0.00035,0.6353,0.6353,0.6353,,0.67,,False,0.0,0.0,0.0,0.0,0.0,-27.4248,-27.5873,0.0031,True,False,Mode(963497464),0.7197,26,0.6344
1.394,THRUST_SEARCH,OPEN_LOOP,0.0001,9e-05,5e-05,9e-05,0.0,0.00033,0.6358,0.6358,0.6358,,0.67,,False,0.0,0.0,0.0,0.0,0.0,-27.4248,-27.5856,0.005,True,False,Mode(963497464),0.7305,26,0.6344
1.405,THRUST_SEARCH,OPEN_LOOP,0.0001,9e-05,8e-05,9e-05,0.0,0.00032,0.6362,0.6362,0.6362,,0.67,,False,0.0,0.0,0.0,0.0,0.0,-27.4248,-27.5849,0.0069,True,False,Mode(963497464),0.7415,26,0.6344
1.415,THRUST_SEARCH,OPEN_LOOP,0.0001,0.0001,0.00013,0.00013,0.0,0.00034,0.6366,0.6366,0.6366,,0.67,,False,0.0,0.0,0.0,0.0,0.0,-27.4248,-27.5876,0.0031,True,True,Mode(963497464),0.7521,26,0.6344
1.426,THRUST_SEARCH,OPEN_LOOP,0.0001,0.00011,0.00014,0.00014,0.0,0.00035,0.6371,0.6371,0.6371,,0.67,,False,0.0,0.0,0.0,0.0,0.0,-27.4248,-27.5847,0.005,True,False,Mode(963497464),0.763,27,0.6366
1.437,THRUST_SEARCH,OPEN_LOOP,0.0001,0.00011,9e-05,0.00011,0.0,0.00034,0.6375,0.6375,0.6375,,0.67,,False,0.0,0.0,0.0,0.0,0.0,-27.4248,-27.5829,0.0068,True,False,Mode(963497464),0.7737,27,0.6366
1.449,THRUST_SEARCH,OPEN_LOOP,0.0001,0.00011,0.00012,0.00012,0.0,0.00035,0.638,0.638,0.638,,0.67,,False,0.0,0.0,0.0,0.0,0.0,-27.4248,-27.585,0.0089,True,False,Mode(963497464),0.7846,27,0.6366
1.459,THRUST_SEARCH,OPEN_LOOP,0.0001,0.00012,0.00011,0.00012,0.0,0.00035,0.6384,0.6384,0.6384,,0.67,,False,0.0,0.0,0.0,0.0,0.0,-27.4248,-27.5857,0.005,True,False,Mode(963497464),0.7956,27,0.6366
1.47,THRUST_SEARCH,OPEN_LOOP,0.0001,0.00011,7e-05,0.00011,0.0,0.00033,0.6388,0.6388,0.6388,,0.67,,False,0.0,0.0,0.0,0.0,0.0,-27.4248,-27.5907,0.007,True,True,Mode(963497464),0.8066,27,0.6366
1.481,THRUST_SEARCH,OPEN_LOOP,0.0001,0.00011,6e-05,0.00011,0.0,0.00031,0.6392,0.6392,0.6392,,0.67,,False,0.0,0.0,0.0,0.0,0.0,-27.4248,-27.5926,0.009,True,False,Mode(963497464),0.8176,28,0.6388
1.491,THRUST_SEARCH,OPEN_LOOP,0.0001,0.00011,3e-05,0.00011,0.0,0.00028,0.6397,0.6397,0.6397,,0.67,,False,0.0,0.0,0.0,0.0,0.0,-27.4248,-27.6043,0.0015,True,False,Mode(963497464),0.8281,28,0.6388
1.502,THRUST_SEARCH,OPEN_LOOP,0.0001,0.00011,4e-05,0.00011,0.0,0.00025,0.6401,0.6401,0.6401,,0.67,,False,0.0,0.0,0.0,0.0,0.0,-27.4248,-27.6091,0.006,True,False,Mode(963497464),0.8391,28,0.6388
1.513,THRUST_SEARCH,OPEN_LOOP,0.0001,0.00011,0.0001,0.00011,0.0,0.00025,0.6405,0.6405,0.6405,,0.67,,False,0.0,0.0,0.0,0.0,0.0,-27.4248,-27.6057,0.009,True,False,Mode(963497464),0.8502,28,0.6388
1.525,THRUST_SEARCH,OPEN_LOOP,0.0001,0.0001,3e-05,0.0001,0.0,0.00022,0.641,0.641,0.641,,0.67,,False,0.0,0.0,0.0,0.0,0.0,-27.4248,-27.604,0.002,True,True,Mode(963497464),0.8614,28,0.6388
1.536,THRUST_SEARCH,OPEN_LOOP,0.0001,0.0001,2e-05,0.0001,0.0,0.00019,0.6414,0.6414,0.6414,,0.67,,False,0.0,0.0,0.0,0.0,0.0,-27.4248,-27.6154,0.004,True,False,Mode(963497464),0.8724,29,0.641
1.547,THRUST_SEARCH,OPEN_LOOP,0.0001,0.0001,0.00011,0.00011,0.0,0.00019,0.6419,0.6419,0.6419,,0.67,,False,0.0,0.0,0.0,0.0,0.0,-27.4248,-27.6153,0.009,True,False,Mode(963497464),0.8834,29,0.641
1.558,THRUST_SEARCH,OPEN_LOOP,0.0001,0.00011,0.00013,0.00013,0.0,0.0002,0.6423,0.6423,0.6423,,0.67,,False,0.0,0.0,0.0,0.0,0.0,-27.4248,-27.6133,0.002,True,False,Mode(963497464),0.8943,29,0.641
1.568,THRUST_SEARCH,OPEN_LOOP,0.0001,0.00011,0.00014,0.00014,0.0,0.00021,0.6427,0.6427,0.6427,,0.67,,False,0.0,0.0,0.0,0.0,0.0,-27.4248,-27.6123,0.004,True,False,Mode(963497464),0.9049,29,0.641
1.58,THRUST_SEARCH,OPEN_LOOP,0.0001,0.00011,0.00011,0.00011,0.0,0.00021,0.6432,0.6432,0.6432,,0.67,,False,0.0,0.0,0.0,0.0,0.0,-27.4248,-27.6112,0.006,True,True,Mode(963497464),0.9158,29,0.641
1.59,THRUST_SEARCH,OPEN_LOOP,0.0001,0.00011,8e-05,0.00011,0.0,0.0002,0.6436,0.6436,0.6436,,0.67,,False,0.0,0.0,0.0,0.0,0.0,-27.4248,-27.6137,0.001,True,False,Mode(963497464),0.9268,30,0.6432
1.601,THRUST_SEARCH,OPEN_LOOP,0.0001,0.00011,0.00011,0.00011,0.0,0.0002,0.644,0.644,0.644,,0.67,,False,0.0,0.0,0.0,0.0,0.0,-27.4248,-27.6115,0.0031,True,False,Mode(963497464),0.9379,30,0.6432
1.612,THRUST_SEARCH,OPEN_LOOP,0.0001,0.00011,9e-05,0.00011,0.0,0.00019,0.6445,0.6445,0.6445,,0.67,,False,0.0,0.0,0.0,0.0,0.0,-27.4248,-27.6089,0.0075,True,False,Mode(963497464),0.9483,30,0.6432
1.623,THRUST_SEARCH,OPEN_LOOP,0.0001,0.00011,5e-05,0.00011,0.0,0.00016,0.6449,0.6449,0.6449,,0.67,,False,0.0,0.0,0.0,0.0,0.0,-27.4248,-27.6088,0.001,True,False,Mode(963497464),0.9592,30,0.6432
1.634,THRUST_SEARCH,OPEN_LOOP,0.0001,0.00011,5e-05,0.00011,0.0,0.00014,0.6453,0.6453,0.6453,,0.67,,False,0.0,0.0,0.0,0.0,0.0,-27.4248,-27.6071,0.003,True,True,Mode(963497464),0.9702,30,0.6432
1.644,THRUST_SEARCH,OPEN_LOOP,0.0001,9e-05,-5e-05,9e-05,0.0,9e-05,0.6458,0.6458,0.6458,,0.67,,False,0.0,0.0,0.0,0.0,0.0,-27.4248,-27.6152,0.005,True,False,Mode(963497464),0.9812,31,0.6453
1.655,THRUST_SEARCH,OPEN_LOOP,0.0001,8e-05,-3e-05,8e-05,0.0,4e-05,0.6462,0.6462,0.6462,,0.67,,False,0.0,0.0,0.0,0.0,0.0,-27.4248,-27.6168,0.001,True,False,Mode(963497464),0.992,31,0.6453
1.666,THRUST_SEARCH,OPEN_LOOP,0.0001,8e-05,-1e-05,8e-05,0.0,1e-05,0.6466,0.6466,0.6466,,0.67,,False,0.0,0.0,0.0,0.0,0.0,-27.4248,-27.6204,0.003,True,False,Mode(963497464),1.0029,31,0.6453
1.677,THRUST_SEARCH,OPEN_LOOP,0.0001,7e-05,-2e-05,7e-05,0.0,-3e-05,0.6471,0.6471,0.6471,,0.67,,False,0.0,0.0,0.0,0.0,0.0,-27.4248,-27.6234,0.004,True,False,Mode(963497464),1.0139,31,0.6453
1.688,THRUST_SEARCH,OPEN_LOOP,0.0001,7e-05,0.00011,0.00011,0.0,-1e-05,0.6475,0.6475,0.6475,,0.67,,False,0.0,0.0,0.0,0.0,0.0,-27.4248,-27.6138,0.001,True,True,Mode(963497464),0.0,31,0.6453
1.699,THRUST_SEARCH,OPEN_LOOP,0.0001,8e-05,0.00011,0.00011,0.0,0.0,0.648,0.648,0.648,,0.67,,False,0.0,0.0,0.0,0.0,0.0,-27.4248,-27.6138,0.012,True,False,Mode(963497464),0.011,32,0.6475
1.71,THRUST_SEARCH,OPEN_LOOP,0.0001,7e-05,6e-05,7e-05,0.0,-1e-05,0.6484,0.6484,0.6484,,0.67,,False,0.0,0.0,0.0,0.0,0.0,-27.4248,-27.5932,0.004,True,False,Mode(963497464),0.0219,32,0.6475
1.723,THRUST_SEARCH,OPEN_LOOP,0.0001,6e-05,-4e-05,6e-05,0.0,-5e-05,0.6489,0.6489,0.6489,,0.67,,False,0.0,0.0,0.0,0.0,0.0,-27.4248,-27.5993,0.006,True,False,Mode(963497464),0.0324,32,0.6475
1.732,THRUST_SEARCH,OPEN_LOOP,0.0001,5e-05,-5e-05,5e-05,0.0,-9e-05,0.6493,0.6493,0.6493,,0.67,,False,0.0,0.0,0.0,0.0,0.0,-27.4248,-27.6032,0.0084,True,False,Mode(963497464),0.0434,32,0.6475
1.743,THRUST_SEARCH,OPEN_LOOP,0.0001,5e-05,5e-05,5e-05,0.0,-9e-05,0.6497,0.6497,0.6497,,0.67,,False,0.0,0.0,0.0,0.0,0.0,-27.4248,-27.599,0.005,True,True,Mode(963497464),0.0544,32,0.6475
1.754,THRUST_SEARCH,OPEN_LOOP,0.0001,5e-05,6e-05,6e-05,0.0,-8e-05,0.6502,0.6502,0.6502,,0.67,,False,0.0,0.0,0.0,0.0,0.0,-27.4248,-27.5947,0.007,True,False,Mode(963497464),0.0653,33,0.6497
1.764,THRUST_SEARCH,OPEN_LOOP,0.0001,5e-05,5e-05,5e-05,0.0,-8e-05,0.6506,0.6506,0.6506,,0.67,,False,0.0,0.0,0.0,0.0,0.0,-27.4248,-27.5903,0.009,True,False,Mode(963497464),0.0758,33,0.6497
1.775,THRUST_SEARCH,OPEN_LOOP,0.0001,5e-05,8e-05,8e-05,0.0,-7e-05,0.651,0.651,0.651,,0.67,,False,0.0,0.0,0.0,0.0,0.0,-27.4248,-27.5814,0.004,True,False,Mode(963497464),0.0868,33,0.6497
1.786,THRUST_SEARCH,OPEN_LOOP,0.0,4e-05,-4e-05,4e-05,0.0,-0.0001,0.6514,0.6514,0.6514,,0.67,,False,0.0,0.0,0.0,0.0,0.0,-27.4248,-27.5908,0.0061,True,False,Mode(963497464),0.0974,33,0.6497
1.796,THRUST_SEARCH,OPEN_LOOP,0.0,5e-05,7e-05,7e-05,0.0,-9e-05,0.6518,0.6518,0.6518,,0.67,,False,0.0,0.0,0.0,0.0,0.0,-27.4248,-27.5836,0.0075,True,True,Mode(963497464),0.1078,33,0.6497
1.807,THRUST_SEARCH,OPEN_LOOP,0.0001,5e-05,0.00011,0.00011,0.0,-7e-05,0.6523,0.6523,0.6523,,0.67,,False,0.0,0.0,0.0,0.0,0.0,-27.4248,-27.5769,0.001,True,False,Mode(963497464),0.1187,34,0.6518
1.818,THRUST_SEARCH,OPEN_LOOP,0.0001,5e-05,9e-05,9e-05,0.0,-6e-05,0.6527,0.6527,0.6527,,0.67,,False,0.0,0.0,0.0,0.0,0.0,-27.4248,-27.5767,0.0061,True,False,Mode(963497464),0.1298,34,0.6518
1.829,THRUST_SEARCH,OPEN_LOOP,0.0,4e-05,-5e-05,4e-05,0.0,-9e-05,0.6532,0.6532,0.6532,,0.67,,False,0.0,0.0,0.0,0.0,0.0,-27.4248,-27.5824,0.008,True,False,Mode(963497464),0.1407,34,0.6518
1.841,THRUST_SEARCH,OPEN_LOOP,0.0,5e-05,7e-05,7e-05,0.0,-8e-05,0.6536,0.6536,0.6536,,0.67,,False,0.0,0.0,0.0,0.0,0.0,-27.4248,-27.5806,0.002,True,False,Mode(963497464),0.1521,34,0.6518
1.851,THRUST_SEARCH,OPEN_LOOP,0.0,4e-05,2e-05,4e-05,0.0,-9e-05,0.654,0.654,0.654,,0.67,,False,0.0,0.0,0.0,0.0,0.0,-27.4248,-27.5789,0.004,True,True,Mode(963497464),0.1626,34,0.6518
1.863,THRUST_SEARCH,OPEN_LOOP,0.0,4e-05,6e-05,6e-05,0.0,-9e-05,0.6545,0.6545,0.6545,,0.67,,False,0.0,0.0,0.0,0.0,0.0,-27.4248,-27.578,0.007,True,False,Mode(963497464),0.1741,35,0.654
1.874,THRUST_SEARCH,OPEN_LOOP,0.0,4e-05,5e-05,5e-05,0.0,-8e-05,0.655,0.655,0.655,,0.67,,False,0.0,0.0,0.0,0.0,0.0,-27.4248,-27.574,0.003,True,False,Mode(963497464),0.1856,35,0.654
1.885,THRUST_SEARCH,OPEN_LOOP,0.0,4e-05,7e-05,7e-05,0.0,-8e-05,0.6554,0.6554,0.6554,,0.67,,False,0.0,0.0,0.0,0.0,0.0,-27.4248,-27.5723,0.005,True,False,Mode(963497464),0.1965,35,0.654
1.896,THRUST_SEARCH,OPEN_LOOP,0.0,4e-05,5e-05,5e-05,0.0,-7e-05,0.6558,0.6558,0.6558,,0.67,,False,0.0,0.0,0.0,0.0,0.0,-27.4248,-27.5665,0.0067,True,False,Mode(963497464),0.2073,35,0.654
1.908,THRUST_SEARCH,OPEN_LOOP,0.0,4e-05,5e-05,5e-05,0.0,-7e-05,0.6563,0.6563,0.6563,,0.67,,False,0.0,0.0,0.0,0.0,0.0,-27.4248,-27.5657,0.009,True,True,Mode(963497464),0.2182,35,0.654
1.918,THRUST_SEARCH,OPEN_LOOP,0.0,4e-05,5e-05,5e-05,0.0,-7e-05,0.6567,0.6567,0.6567,,0.67,,False,0.0,0.0,0.0,0.0,0.0,-27.4248,-27.567,0.005,True,False,Mode(963497464),0.2292,36,0.6563
1.928,THRUST_SEARCH,OPEN_LOOP,0.0,5e-05,8e-05,8e-05,0.0,-5e-05,0.6571,0.6571,0.6571,,0.67,,False,0.0,0.0,0.0,0.0,0.0,-27.4248,-27.567,0.006,True,False,Mode(963497464),0.2396,36,0.6563
1.939,THRUST_SEARCH,OPEN_LOOP,0.0,5e-05,6e-05,6e-05,0.0,-4e-05,0.6576,0.6576,0.6576,,0.67,,False,0.0,0.0,0.0,0.0,0.0,-27.4248,-27.5664,0.008,True,False,Mode(963497464),0.2506,36,0.6563
1.95,THRUST_SEARCH,OPEN_LOOP,0.0,5e-05,8e-05,8e-05,0.0,-3e-05,0.658,0.658,0.658,,0.67,,False,0.0,0.0,0.0,0.0,0.0,-27.4248,-27.5666,0.004,True,False,Mode(963497464),0.2615,36,0.6563
1.96,THRUST_SEARCH,OPEN_LOOP,0.0,5e-05,5e-05,5e-05,0.0,-3e-05,0.6584,0.6584,0.6584,,0.67,,False,0.0,0.0,0.0,0.0,0.0,-27.4248,-27.562,0.006,True,True,Mode(963497464),0.272,36,0.6563
1.971,THRUST_SEARCH,OPEN_LOOP,0.0,5e-05,2e-05,5e-05,0.0,-4e-05,0.6589,0.6589,0.6589,,0.67,,False,0.0,0.0,0.0,0.0,0.0,-27.4248,-27.5602,0.008,True,False,Mode(963497464),0.283,37,0.6584
1.982,THRUST_SEARCH,OPEN_LOOP,0.0,4e-05,2e-05,4e-05,0.0,-5e-05,0.6593,0.6593,0.6593,,0.67,,False,0.0,0.0,0.0,0.0,0.0,-27.4248,-27.5597,0.001,True,False,Mode(963497464),0.294,37,0.6584
1.993,THRUST_SEARCH,OPEN_LOOP,0.0,4e-05,3e-05,4e-05,0.0,-5e-05,0.6597,0.6597,0.6597,,0.67,,False,0.0,0.0,0.0,0.0,0.0,-27.4248,-27.5556,0.006,True,False,Mode(963497464),0.3049,37,0.6584
2.004,THRUST_SEARCH,OPEN_LOOP,0.0,4e-05,5e-05,5e-05,0.0,-5e-05,0.6602,0.6602,0.6602,,0.67,,False,0.0,0.0,0.0,0.0,0.0,-27.4248,-27.5547,0.008,True,False,Mode(963497464),0.3159,37,0.6584
2.015,THRUST_SEARCH,OPEN_LOOP,0.0,4e-05,5e-05,5e-05,0.0,-5e-05,0.6606,0.6606,0.6606,,0.67,,False,0.0,0.0,0.0,0.0,0.0,-27.4248,-27.5518,0.001,True,True,Mode(963497464),0.3264,37,0.6584
2.026,THRUST_SEARCH,OPEN_LOOP,0.0,4e-05,5e-05,5e-05,0.0,-4e-05,0.661,0.661,0.661,,0.67,,False,0.0,0.0,0.0,0.0,0.0,-27.4248,-27.5537,0.003,True,False,Mode(963497464),0.3374,38,0.6606
2.037,THRUST_SEARCH,OPEN_LOOP,0.0,4e-05,5e-05,5e-05,0.0,-4e-05,0.6615,0.6615,0.6615,,0.67,,False,0.0,0.0,0.0,0.0,0.0,-27.4248,-27.558,0.005,True,False,Mode(963497464),0.3484,38,0.6606
2.048,THRUST_SEARCH,OPEN_LOOP,0.0,5e-05,0.0001,0.0001,0.0,-2e-05,0.6619,0.6619,0.6619,,0.67,,False,0.0,0.0,0.0,0.0,0.0,-27.4248,-27.5593,0.001,True,False,Mode(963497464),0.3592,38,0.6606
2.058,THRUST_SEARCH,OPEN_LOOP,0.0001,5e-05,9e-05,9e-05,0.0,-0.0,0.6623,0.6623,0.6623,,0.67,,False,0.0,0.0,0.0,0.0,0.0,-27.4248,-27.56,0.003,True,False,Mode(963497464),0.3697,38,0.6606
2.069,THRUST_SEARCH,OPEN_LOOP,0.0001,5e-05,4e-05,5e-05,0.0,-1e-05,0.6627,0.6627,0.6627,,0.67,,False,0.0,0.0,0.0,0.0,0.0,-27.4248,-27.561,0.0045,True,True,Mode(963497464),0.3802,38,0.6606
2.08,THRUST_SEARCH,OPEN_LOOP,0.0,5e-05,4e-05,5e-05,0.0,-1e-05,0.6632,0.6632,0.6632,,0.67,,False,0.0,0.0,0.0,0.0,0.0,-27.4248,-27.5603,0.0071,True,False,Mode(963497464),0.3913,39,0.6627
2.091,THRUST_SEARCH,OPEN_LOOP,0.0,5e-05,3e-05,5e-05,0.0,-2e-05,0.6636,0.6636,0.6636,,0.67,,False,0.0,0.0,0.0,0.0,0.0,-27.4248,-27.5643,0.003,True,False,Mode(963497464),0.4023,39,0.6627
2.102,THRUST_SEARCH,OPEN_LOOP,0.0,5e-05,3e-05,5e-05,0.0,-3e-05,0.6641,0.6641,0.6641,,0.67,,False,0.0,0.0,0.0,0.0,0.0,-27.4248,-27.5634,0.005,True,False,Mode(963497464),0.4132,39,0.6627
2.113,THRUST_SEARCH,OPEN_LOOP,0.0,5e-05,4e-05,5e-05,0.0,-3e-05,0.6645,0.6645,0.6645,,0.67,,False,0.0,0.0,0.0,0.0,0.0,-27.4248,-27.5663,0.007,True,False,Mode(963497464),0.4243,39,0.6627
2.124,THRUST_SEARCH,OPEN_LOOP,0.0,4e-05,3e-05,4e-05,0.0,-3e-05,0.6649,0.6649,0.6649,,0.67,,False,0.0,0.0,0.0,0.0,0.0,-27.4248,-27.5696,0.0089,True,True,Mode(963497464),0.4352,39,0.6627
2.135,THRUST_SEARCH,OPEN_LOOP,0.0,4e-05,3e-05,4e-05,0.0,-4e-05,0.6654,0.6654,0.6654,,0.67,,False,0.0,0.0,0.0,0.0,0.0,-27.4248,-27.5699,0.004,True,False,Mode(963497464),0.4462,40,0.6649
2.145,THRUST_SEARCH,OPEN_LOOP,0.0,4e-05,5e-05,5e-05,0.0,-4e-05,0.6658,0.6658,0.6658,,0.67,,False,0.0,0.0,0.0,0.0,0.0,-27.4248,-27.5688,0.006,True,False,Mode(963497464),0.4567,40,0.6649
2.156,THRUST_SEARCH,OPEN_LOOP,0.0,4e-05,7e-05,7e-05,0.0,-2e-05,0.6662,0.6662,0.6662,,0.67,,False,0.0,0.0,0.0,0.0,0.0,-27.4248,-27.5704,0.002,True,False,Mode(963497464),0.4676,40,0.6649
2.167,THRUST_SEARCH,OPEN_LOOP,0.0,5e-05,7e-05,7e-05,0.0,-2e-05,0.6667,0.6667,0.6667,,0.67,,False,0.0,0.0,0.0,0.0,0.0,-27.4248,-27.5675,0.004,True,False,Mode(963497464),0.4782,40,0.6649
2.178,THRUST_SEARCH,OPEN_LOOP,0.0,5e-05,5e-05,5e-05,0.0,-1e-05,0.6671,0.6671,0.6671,,0.67,,False,0.0,0.0,0.0,0.0,0.0,-27.4248,-27.5665,0.006,True,True,Mode(963497464),0.4887,40,0.6649
2.188,THRUST_SEARCH,OPEN_LOOP,0.0,5e-05,4e-05,5e-05,0.0,-2e-05,0.6675,0.6675,0.6675,,0.67,,False,0.0,0.0,0.0,0.0,0.0,-27.4248,-27.57,0.008,True,False,Mode(963497464),0.4997,41,0.6671
2.199,THRUST_SEARCH,OPEN_LOOP,0.0,5e-05,4e-05,5e-05,0.0,-2e-05,0.668,0.668,0.668,,0.67,,False,0.0,0.0,0.0,0.0,0.0,-27.4248,-27.5694,0.001,True,False,Mode(963497464),0.5106,41,0.6671
2.21,THRUST_SEARCH,OPEN_LOOP,0.0,4e-05,4e-05,4e-05,0.0,-2e-05,0.6684,0.6684,0.6684,,0.67,,False,0.0,0.0,0.0,0.0,0.0,-27.4248,-27.568,0.003,True,False,Mode(963497464),0.5216,41,0.6671
2.221,THRUST_SEARCH,OPEN_LOOP,0.0,4e-05,3e-05,4e-05,0.0,-3e-05,0.6688,0.6688,0.6688,,0.67,,False,0.0,0.0,0.0,0.0,0.0,-27.4248,-27.5676,0.008,True,False,Mode(963497464),0.5326,41,0.6671
2.232,THRUST_SEARCH,OPEN_LOOP,0.0,4e-05,5e-05,5e-05,0.0,-2e-05,0.6693,0.6693,0.6693,,0.67,,False,0.0,0.0,0.0,0.0,0.0,-27.4248,-27.563,0.001,True,True,Mode(963497464),0.5436,41,0.6671
2.243,THRUST_SEARCH,OPEN_LOOP,0.0,4e-05,4e-05,4e-05,0.0,-3e-05,0.6697,0.6697,0.6697,,0.67,,False,0.0,0.0,0.0,0.0,0.0,-27.4248,-27.5616,0.003,True,False,Mode(963497464),0.5546,42,0.6693
2.254,THRUST_SEARCH,OPEN_LOOP,0.0,4e-05,5e-05,5e-05,0.0,-2e-05,0.6702,0.6702,0.6702,,0.67,,False,0.0,0.0,0.0,0.0,0.0,-27.4248,-27.5589,0.0079,True,False,Mode(963497464),0.5655,42,0.6693
2.265,THRUST_SEARCH,OPEN_LOOP,0.0,4e-05,4e-05,4e-05,0.0,-2e-05,0.6706,0.6706,0.6706,,0.67,,False,0.0,0.0,0.0,0.0,0.0,-27.4248,-27.5581,0.001,True,False,Mode(963497464),0.5765,42,0.6693
2.276,THRUST_SEARCH,OPEN_LOOP,0.0,4e-05,5e-05,5e-05,0.0,-2e-05,0.671,0.671,0.671,,0.67,,False,0.0,0.0,0.0,0.0,0.0,-27.4248,-27.5593,0.003,True,False,Mode(963497464),0.5875,42,0.6693
2.287,THRUST_SEARCH,OPEN_LOOP,0.0,3e-05,-5e-05,3e-05,0.0,-5e-05,0.6715,0.6715,0.6715,,0.67,,False,0.0,0.0,0.0,0.0,0.0,-27.4248,-27.5696,0.005,True,True,Mode(963497464),0.5985,42,0.6693
2.298,THRUST_SEARCH,OPEN_LOOP,0.0,4e-05,7e-05,7e-05,0.0,-4e-05,0.6719,0.6719,0.6719,,0.67,,False,0.0,0.0,0.0,0.0,0.0,-27.4248,-27.5647,0.001,True,False,Mode(963497464),0.6095,43,0.6715
2.309,THRUST_SEARCH,OPEN_LOOP,0.0,4e-05,5e-05,5e-05,0.0,-4e-05,0.6724,0.6724,0.6724,,0.67,,False,0.0,0.0,0.0,0.0,0.0,-27.4248,-27.5658,0.003,True,False,Mode(963497464),0.6205,43,0.6715
2.319,THRUST_SEARCH,OPEN_LOOP,0.0,4e-05,5e-05,5e-05,0.0,-4e-05,0.6728,0.6728,0.6728,,0.67,,False,0.0,0.0,0.0,0.0,0.0,-27.4248,-27.5661,0.0045,True,False,Mode(963497464),0.6309,43,0.6715
2.331,THRUST_SEARCH,OPEN_LOOP,0.0,4e-05,6e-05,6e-05,0.0,-3e-05,0.6732,0.6732,0.6732,,0.67,,False,0.0,0.0,0.0,0.0,0.0,-27.4248,-27.5631,0.0014,True,False,Mode(963497464),0.6423,43,0.6715
2.342,THRUST_SEARCH,OPEN_LOOP,0.0,4e-05,5e-05,5e-05,0.0,-2e-05,0.6737,0.6737,0.6737,,0.67,,False,0.0,0.0,0.0,0.0,0.0,-27.4248,-27.5637,0.003,True,True,Mode(963497464),0.6533,43,0.6715
2.353,THRUST_SEARCH,OPEN_LOOP,0.0,4e-05,3e-05,4e-05,0.0,-3e-05,0.6741,0.6741,0.6741,,0.67,,False,0.0,0.0,0.0,0.0,0.0,-27.4248,-27.5641,0.005,True,False,Mode(963497464),0.6642,44,0.6737
2.363,THRUST_SEARCH,OPEN_LOOP,0.0,4e-05,2e-05,4e-05,0.0,-4e-05,0.6745,0.6745,0.6745,,0.67,,False,0.0,0.0,0.0,0.0,0.0,-27.4248,-27.5594,0.001,True,False,Mode(963497464),0.6749,44,0.6737
2.374,THRUST_SEARCH,OPEN_LOOP,0.0,4e-05,6e-05,6e-05,0.0,-3e-05,0.675,0.675,0.675,,0.67,,False,0.0,0.0,0.0,0.0,0.0,-27.4248,-27.5595,0.003,True,False,Mode(963497464),0.6859,44,0.6737
2.385,THRUST_SEARCH,OPEN_LOOP,0.0,4e-05,8e-05,8e-05,0.0,-1e-05,0.6754,0.6754,0.6754,,0.67,,False,0.0,0.0,0.0,0.0,0.0,-27.4248,-27.5594,0.0045,True,False,Mode(963497464),0.6964,44,0.6737
2.396,THRUST_SEARCH,OPEN_LOOP,0.0,4e-05,3e-05,4e-05,0.0,-2e-05,0.6758,0.6758,0.6758,,0.67,,False,0.0,0.0,0.0,0.0,0.0,-27.4248,-27.5603,0.0069,True,True,Mode(963497464),0.7072,44,0.6737
2.407,THRUST_SEARCH,OPEN_LOOP,0.0,4e-05,3e-05,4e-05,0.0,-2e-05,0.6763,0.6763,0.6763,,0.67,,False,0.0,0.0,0.0,0.0,0.0,-27.4248,-27.5586,0.009,True,False,Mode(963497464),0.7182,45,0.6758
2.418,THRUST_SEARCH,OPEN_LOOP,0.0,4e-05,3e-05,4e-05,0.0,-2e-05,0.6767,0.6767,0.6767,,0.67,,False,0.0,0.0,0.0,0.0,0.0,-27.4248,-27.5572,0.005,True,False,Mode(963497464),0.7292,45,0.6758
2.429,THRUST_SEARCH,OPEN_LOOP,0.0,4e-05,3e-05,4e-05,0.0,-2e-05,0.6771,0.6771,0.6771,,0.67,,False,0.0,0.0,0.0,0.0,0.0,-27.4248,-27.5607,0.0071,True,False,Mode(963497464),0.7403,45,0.6758
2.44,THRUST_SEARCH,OPEN_LOOP,0.0,4e-05,3e-05,4e-05,0.0,-3e-05,0.6776,0.6776,0.6776,,0.67,,False,0.0,0.0,0.0,0.0,0.0,-27.4248,-27.5613,0.001,True,False,Mode(963497464),0.7512,45,0.6758
2.451,THRUST_SEARCH,OPEN_LOOP,0.0,4e-05,3e-05,4e-05,0.0,-3e-05,0.678,0.678,0.678,,0.67,,False,0.0,0.0,0.0,0.0,0.0,-27.4248,-27.562,0.003,True,True,Mode(963497464),0.7622,45,0.6758
2.462,THRUST_SEARCH,OPEN_LOOP,0.0,4e-05,3e-05,4e-05,0.0,-3e-05,0.6785,0.6785,0.6785,,0.67,,False,0.0,0.0,0.0,0.0,0.0,-27.4248,-27.5617,0.005,True,False,Mode(963497464),0.7732,46,0.678
2.473,THRUST_SEARCH,OPEN_LOOP,0.0,4e-05,6e-05,6e-05,0.0,-2e-05,0.6789,0.6789,0.6789,,0.67,,False,0.0,0.0,0.0,0.0,0.0,-27.4248,-27.5613,0.001,True,False,Mode(963497464),0.7841,46,0.678
2.484,THRUST_SEARCH,OPEN_LOOP,0.0,4e-05,2e-05,4e-05,0.0,-3e-05,0.6793,0.6793,0.6793,,0.67,,False,0.0,0.0,0.0,0.0,0.0,-27.4248,-27.5649,0.003,True,False,Mode(963497464),0.795,46,0.678
2.494,THRUST_SEARCH,OPEN_LOOP,0.0,3e-05,2e-05,3e-05,0.0,-3e-05,0.6798,0.6798,0.6798,,0.67,,False,0.0,0.0,0.0,0.0,0.0,-27.4248,-27.5651,0.005,True,False,Mode(963497464),0.806,46,0.678
2.505,THRUST_SEARCH,OPEN_LOOP,0.0,4e-05,6e-05,6e-05,0.0,-2e-05,0.6802,0.6802,0.6802,,0.67,,False,0.0,0.0,0.0,0.0,0.0,-27.4248,-27.5648,0.001,True,True,Mode(963497464),0.817,46,0.678
2.517,THRUST_SEARCH,OPEN_LOOP,0.0,4e-05,4e-05,4e-05,0.0,-2e-05,0.6807,0.6807,0.6807,,0.67,,False,0.0,0.0,0.0,0.0,0.0,-27.4248,-27.5615,0.003,True,False,Mode(963497464),0.8279,47,0.6802
2.527,THRUST_SEARCH,OPEN_LOOP,0.0,4e-05,5e-05,5e-05,0.0,-1e-05,0.6811,0.6811,0.6811,,0.67,,False,0.0,0.0,0.0,0.0,0.0,-27.4248,-27.5595,0.004,True,False,Mode(963497464),0.8389,47,0.6802
2.538,THRUST_SEARCH,OPEN_LOOP,0.0,4e-05,6e-05,6e-05,0.0,-1e-05,0.6815,0.6815,0.6815,,0.67,,False,0.0,0.0,0.0,0.0,0.0,-27.4248,-27.5626,0.009,True,False,Mode(963497464),0.8499,47,0.6802
2.549,THRUST_SEARCH,OPEN_LOOP,0.0,4e-05,4e-05,4e-05,0.0,-1e-05,0.682,0.682,0.682,,0.67,,False,0.0,0.0,0.0,0.0,0.0,-27.4248,-27.5639,0.001,True,False,Mode(963497464),0.8608,47,0.6802
2.56,THRUST_SEARCH,OPEN_LOOP,0.0,4e-05,8e-05,8e-05,0.0,1e-05,0.6824,0.6824,0.6824,,0.67,,False,0.0,0.0,0.0,0.0,0.0,-27.4248,-27.5624,0.0061,True,True,Mode(963497464),0.8719,47,0.6802
2.571,THRUST_SEARCH,OPEN_LOOP,0.0,4e-05,3e-05,4e-05,0.0,1e-05,0.6828,0.6828,0.6828,,0.67,,False,0.0,0.0,0.0,0.0,0.0,-27.4248,-27.5633,0.008,True,False,Mode(963497464),0.8828,48,0.6824
2.582,THRUST_SEARCH,OPEN_LOOP,0.0,4e-05,5e-05,5e-05,0.0,1e-05,0.6833,0.6833,0.6833,,0.67,,False,0.0,0.0,0.0,0.0,0.0,-27.4248,-27.563,0.0007,True,False,Mode(963497464),0.8935,48,0.6824
2.593,THRUST_SEARCH,OPEN_LOOP,0.0,4e-05,4e-05,4e-05,0.0,1e-05,0.6837,0.6837,0.6837,,0.67,,False,0.0,0.0,0.0,0.0,0.0,-27.4248,-27.5632,0.003,True,False,Mode(963497464),0.9044,48,0.6824
2.603,THRUST_SEARCH,OPEN_LOOP,0.0,4e-05,2e-05,4e-05,0.0,-0.0,0.6841,0.6841,0.6841,,0.67,,False,0.0,0.0,0.0,0.0,0.0,-27.4248,-27.5626,0.0075,True,False,Mode(963497464),0.9149,48,0.6824
2.614,THRUST_SEARCH,OPEN_LOOP,0.0,4e-05,5e-05,5e-05,0.0,0.0,0.6846,0.6846,0.6846,,0.67,,False,0.0,0.0,0.0,0.0,0.0,-27.4248,-27.5608,0.001,True,True,Mode(963497464),0.9254,48,0.6824
2.625,THRUST_SEARCH,OPEN_LOOP,0.0,5e-05,0.0001,0.0001,0.0,2e-05,0.685,0.685,0.685,,0.67,,False,0.0,0.0,0.0,0.0,0.0,-27.4248,-27.5612,0.004,True,False,Mode(963497464),0.9369,49,0.6846
2.636,THRUST_SEARCH,OPEN_LOOP,0.0,5e-05,5e-05,5e-05,0.0,2e-05,0.6855,0.6855,0.6855,,0.67,,False,0.0,0.0,0.0,0.0,0.0,-27.4248,-27.5627,0.006,True,False,Mode(963497464),0.9479,49,0.6846
2.647,THRUST_SEARCH,OPEN_LOOP,0.0,5e-05,6e-05,6e-05,0.0,3e-05,0.6859,0.6859,0.6859,,0.67,,False,0.0,0.0,0.0,0.0,0.0,-27.4248,-27.5595,0.008,True,False,Mode(963497464),0.9589,49,0.6846
2.659,THRUST_SEARCH,OPEN_LOOP,0.0,5e-05,1e-05,5e-05,0.0,1e-05,0.6863,0.6863,0.6863,,0.67,,False,0.0,0.0,0.0,0.0,0.0,-27.4248,-27.5621,0.002,True,False,Mode(963497464),0.9701,49,0.6846
2.67,THRUST_SEARCH,OPEN_LOOP,0.0,4e-05,-7e-05,4e-05,0.0,-3e-05,0.6868,0.6868,0.6868,,0.67,,False,0.0,0.0,0.0,0.0,0.0,-27.4248,-27.5715,0.007,True,True,Mode(963497464),0.9811,49,0.6846
2.681,THRUST_SEARCH,OPEN_LOOP,0.0,4e-05,5e-05,5e-05,0.0,-2e-05,0.6872,0.6872,0.6872,,0.67,,False,0.0,0.0,0.0,0.0,0.0,-27.4248,-27.5654,0.001,True,False,Mode(963497464),0.9926,50,0.6868
2.692,THRUST_SEARCH,OPEN_LOOP,0.0,4e-05,5e-05,5e-05,0.0,-2e-05,0.6877,0.6877,0.6877,,0.67,,False,0.0,0.0,0.0,0.0,0.0,-27.4248,-27.5679,0.003,True,False,Mode(963497464),1.0036,50,0.6868
2.703,THRUST_SEARCH,OPEN_LOOP,0.0,4e-05,6e-05,6e-05,0.0,-1e-05,0.6881,0.6881,0.6881,,0.67,,False,0.0,0.0,0.0,0.0,0.0,-27.4248,-27.5678,0.005,True,False,Mode(963497464),1.0145,50,0.6868
2.715,THRUST_SEARCH,OPEN_LOOP,0.0,4e-05,3e-05,4e-05,0.0,-1e-05,0.6886,0.6886,0.6886,,0.67,,False,0.0,0.0,0.0,0.0,0.0,-27.4248,-27.5635,0.0,True,False,Mode(963497464),0.0,50,0.6868
2.726,THRUST_SEARCH,OPEN_LOOP,0.0,4e-05,5e-05,5e-05,0.0,-1e-05,0.689,0.689,0.689,,0.67,,False,0.0,0.0,0.0,0.0,0.0,-27.4248,-27.563,0.0015,True,True,Mode(963497464),0.0105,50,0.6868
2.736,THRUST_SEARCH,OPEN_LOOP,0.0,4e-05,5e-05,5e-05,0.0,-0.0,0.6894,0.6894,0.6894,,0.67,,False,0.0,0.0,0.0,0.0,0.0,-27.4248,-27.563,0.0125,True,False,Mode(963497464),0.0215,51,0.689
2.748,THRUST_SEARCH,OPEN_LOOP,0.0,4e-05,5e-05,5e-05,0.0,0.0,0.6899,0.6899,0.6899,,0.67,,False,0.0,0.0,0.0,0.0,0.0,-27.4248,-27.5637,0.0002,True,False,Mode(963497464),0.0337,51,0.689
2.76,THRUST_SEARCH,OPEN_LOOP,0.0,4e-05,1e-05,4e-05,0.0,-1e-05,0.6904,0.6904,0.6904,,0.67,,False,0.0,0.0,0.0,0.0,0.0,-27.4248,-27.5619,0.005,True,False,Mode(963497464),0.0454,51,0.689
2.771,THRUST_SEARCH,OPEN_LOOP,0.0,4e-05,6e-05,6e-05,0.0,-0.0,0.6908,0.6908,0.6908,,0.67,,False,0.0,0.0,0.0,0.0,0.0,-27.4248,-27.5681,0.005,True,False,Mode(963497464),0.0564,51,0.689
2.783,THRUST_SEARCH,OPEN_LOOP,0.0,4e-05,4e-05,4e-05,0.0,-0.0,0.6913,0.6913,0.6913,,0.67,,False,0.0,0.0,0.0,0.0,0.0,-27.4248,-27.5685,0.006,True,True,Mode(963497464),0.0673,51,0.689
2.793,THRUST_SEARCH,OPEN_LOOP,0.0,4e-05,6e-05,6e-05,0.0,0.0,0.6917,0.6917,0.6917,,0.67,,False,0.0,0.0,0.0,0.0,0.0,-27.4248,-27.5664,0.004,True,False,Mode(963497464),0.0783,52,0.6913
2.803,THRUST_SEARCH,OPEN_LOOP,0.0,4e-05,6e-05,6e-05,0.0,1e-05,0.6921,0.6921,0.6921,,0.67,,False,0.0,0.0,0.0,0.0,0.0,-27.4248,-27.5661,0.006,True,False,Mode(963497464),0.0893,52,0.6913
2.814,THRUST_SEARCH,OPEN_LOOP,0.0,4e-05,1e-05,4e-05,0.0,-0.0,0.6926,0.6926,0.6926,,0.67,,False,0.0,0.0,0.0,0.0,0.0,-27.4248,-27.5637,0.002,True,False,Mode(963497464),0.1002,52,0.6913
2.825,THRUST_SEARCH,OPEN_LOOP,0.0,4e-05,4e-05,4e-05,0.0,-0.0,0.693,0.693,0.693,,0.67,,False,0.0,0.0,0.0,0.0,0.0,-27.4248,-27.561,0.0035,True,False,Mode(963497464),0.1108,52,0.6913
2.836,THRUST_SEARCH,OPEN_LOOP,0.0,4e-05,4e-05,4e-05,0.0,-0.0,0.6934,0.6934,0.6934,,0.67,,False,0.0,0.0,0.0,0.0,0.0,-27.4248,-27.5639,0.006,True,True,Mode(963497464),0.1217,52,0.6913
2.847,THRUST_SEARCH,OPEN_LOOP,0.0,4e-05,4e-05,4e-05,0.0,-0.0,0.6939,0.6939,0.6939,,0.67,,False,0.0,0.0,0.0,0.0,0.0,-27.4248,-27.5605,0.008,True,False,Mode(963497464),0.1327,53,0.6934
2.858,THRUST_SEARCH,OPEN_LOOP,0.0,4e-05,6e-05,6e-05,0.0,0.0,0.6943,0.6943,0.6943,,0.67,,False,0.0,0.0,0.0,0.0,0.0,-27.4248,-27.5576,0.001,True,False,Mode(963497464),0.1437,53,0.6934
2.869,THRUST_SEARCH,OPEN_LOOP,0.0,5e-05,8e-05,8e-05,0.0,2e-05,0.6948,0.6948,0.6948,,0.67,,False,0.0,0.0,0.0,0.0,0.0,-27.4248,-27.5594,0.006,True,False,Mode(963497464),0.1546,53,0.6934
2.88,THRUST_SEARCH,OPEN_LOOP,0.0,5e-05,6e-05,6e-05,0.0,2e-05,0.6952,0.6952,0.6952,,0.67,,False,0.0,0.0,0.0,0.0,0.0,-27.4248,-27.5603,0.008,True,False,Mode(963497464),0.1656,53,0.6934
2.891,THRUST_SEARCH,OPEN_LOOP,0.0,5e-05,4e-05,5e-05,0.0,2e-05,0.6956,0.6956,0.6956,,0.67,,False,0.0,0.0,0.0,0.0,0.0,-27.4248,-27.5624,0.001,True,True,Mode(963497464),0.1766,53,0.6934
2.902,THRUST_SEARCH,OPEN_LOOP,0.0,5e-05,6e-05,6e-05,0.0,3e-05,0.6961,0.6961,0.6961,,0.67,,False,0.0,0.0,0.0,0.0,0.0,-27.4248,-27.5605,0.006,True,False,Mode(963497464),0.1876,54,0.6956
2.913,THRUST_SEARCH,OPEN_LOOP,0.0,5e-05,4e-05,5e-05,0.0,2e-05,0.6965,0.6965,0.6965,,0.67,,False,0.0,0.0,0.0,0.0,0.0,-27.4248,-27.5613,0.008,True,False,Mode(963497464),0.1985,54,0.6956
2.924,THRUST_SEARCH,OPEN_LOOP,0.0,5e-05,5e-05,5e-05,0.0,2e-05,0.6969,0.6969,0.6969,,0.67,,False,0.0,0.0,0.0,0.0,0.0,-27.4248,-27.5608,0.001,True,False,Mode(963497464),0.2095,54,0.6956
2.935,THRUST_SEARCH,OPEN_LOOP,0.0,5e-05,6e-05,6e-05,0.0,3e-05,0.6974,0.6974,0.6974,,0.67,,False,0.0,0.0,0.0,0.0,0.0,-27.4248,-27.5619,0.003,True,False,Mode(963497464),0.2205,54,0.6956
2.947,THRUST_SEARCH,OPEN_LOOP,0.0,5e-05,5e-05,5e-05,0.0,3e-05,0.6978,0.6978,0.6978,,0.67,,False,0.0,0.0,0.0,0.0,0.0,-27.4248,-27.5614,0.008,True,True,Mode(963497464),0.2314,54,0.6956
2.956,THRUST_SEARCH,OPEN_LOOP,0.0,5e-05,4e-05,5e-05,0.0,2e-05,0.6982,0.6982,0.6982,,0.67,,False,0.0,0.0,0.0,0.0,0.0,-27.4248,-27.5595,0.001,True,False,Mode(963497464),0.242,55,0.6978
2.967,THRUST_SEARCH,OPEN_LOOP,0.0001,5e-05,7e-05,7e-05,0.0,3e-05,0.6987,0.6987,0.6987,,0.67,,False,0.0,0.0,0.0,0.0,0.0,-27.4248,-27.5605,0.003,True,False,Mode(963497464),0.2529,55,0.6978
2.978,THRUST_SEARCH,OPEN_LOOP,0.0,5e-05,2e-05,5e-05,0.0,2e-05,0.6991,0.6991,0.6991,,0.67,,False,0.0,0.0,0.0,0.0,0.0,-27.4248,-27.5593,0.0045,True,False,Mode(963497464),0.2634,55,0.6978
2.988,THRUST_SEARCH,OPEN_LOOP,0.0,5e-05,6e-05,6e-05,0.0,2e-05,0.6995,0.6995,0.6995,,0.67,,False,0.0,0.0,0.0,0.0,0.0,-27.4248,-27.5622,0.0006,True,False,Mode(963497464),0.274,55,0.6978
2.999,THRUST_SEARCH,OPEN_LOOP,0.0,5e-05,5e-05,5e-05,0.0,2e-05,0.7,0.7,0.7,,0.67,,False,0.0,0.0,0.0,0.0,0.0,-27.4248,-27.5645,0.003,True,True,Mode(963497464),0.285,55,0.6978
3.01,THRUST_SEARCH,OPEN_LOOP,0.0001,5e-05,8e-05,8e-05,0.0,3e-05,0.7004,0.7004,0.7004,,0.67,,False,0.0,0.0,0.0,0.0,0.0,-27.4248,-27.5632,0.005,True,False,Mode(963497464),0.296,56,0.7
3.021,THRUST_SEARCH,OPEN_LOOP,0.0001,5e-05,6e-05,6e-05,0.0,4e-05,0.7008,0.7008,0.7008,,0.67,,False,0.0,0.0,0.0,0.0,0.0,-27.4248,-27.5629,0.007,True,False,Mode(963497464),0.3069,56,0.7
3.032,THRUST_SEARCH,OPEN_LOOP,0.0001,5e-05,3e-05,5e-05,0.0,3e-05,0.7013,0.7013,0.7013,,0.67,,False,0.0,0.0,0.0,0.0,0.0,-27.4248,-27.5589,0.001,True,False,Mode(963497464),0.318,56,0.7
3.043,THRUST_SEARCH,OPEN_LOOP,0.0001,5e-05,4e-05,5e-05,0.0,2e-05,0.7017,0.7017,0.7017,,0.67,,False,0.0,0.0,0.0,0.0,0.0,-27.4248,-27.5559,0.0031,True,False,Mode(963497464),0.3291,56,0.7
3.054,THRUST_SEARCH,OPEN_LOOP,0.0,5e-05,3e-05,5e-05,0.0,2e-05,0.7022,0.7022,0.7022,,0.67,,False,0.0,0.0,0.0,0.0,0.0,-27.4248,-27.5601,0.008,True,True,Mode(963497464),0.3399,56,0.7
3.065,THRUST_SEARCH,OPEN_LOOP,0.0,5e-05,3e-05,5e-05,0.0,1e-05,0.7026,0.7026,0.7026,,0.67,,False,0.0,0.0,0.0,0.0,0.0,-27.4248,-27.5632,0.0001,True,False,Mode(963497464),0.3508,57,0.7022
3.075,THRUST_SEARCH,OPEN_LOOP,0.0,5e-05,5e-05,5e-05,0.0,1e-05,0.703,0.703,0.703,,0.67,,False,0.0,0.0,0.0,0.0,0.0,-27.4248,-27.5653,0.0045,True,False,Mode(963497464),0.3612,57,0.7022
3.086,THRUST_SEARCH,OPEN_LOOP,0.0,5e-05,1e-05,5e-05,0.0,-0.0,0.7035,0.7035,0.7035,,0.67,,False,0.0,0.0,0.0,0.0,0.0,-27.4248,-27.5638,0.007,True,False,Mode(963497464),0.3721,57,0.7022
3.098,THRUST_SEARCH,OPEN_LOOP,0.0,5e-05,5e-05,5e-05,0.0,0.0,0.7039,0.7039,0.7039,,0.67,,False,0.0,0.0,0.0,0.0,0.0,-27.4248,-27.561,0.001,True,False,Mode(963497464),0.3836,57,0.7022
3.109,THRUST_SEARCH,OPEN_LOOP,0.0,5e-05,5e-05,5e-05,0.0,0.0,0.7044,0.7044,0.7044,,0.67,,False,0.0,0.0,0.0,0.0,0.0,-27.4248,-27.5613,0.003,True,True,Mode(963497464),0.3946,57,0.7022
3.12,THRUST_SEARCH,OPEN_LOOP,0.0,3e-05,-9e-05,3e-05,0.0,-5e-05,0.7048,0.7048,0.7048,,0.67,,False,0.0,0.0,0.0,0.0,0.0,-27.4248,-27.5742,0.005,True,False,Mode(963497464),0.4056,58,0.7044
3.131,THRUST_SEARCH,OPEN_LOOP,0.0,4e-05,6e-05,6e-05,0.0,-4e-05,0.7052,0.7052,0.7052,,0.67,,False,0.0,0.0,0.0,0.0,0.0,-27.4248,-27.5698,0.001,True,False,Mode(963497464),0.4165,58,0.7044
3.142,THRUST_SEARCH,OPEN_LOOP,0.0,4e-05,5e-05,5e-05,0.0,-3e-05,0.7057,0.7057,0.7057,,0.67,,False,0.0,0.0,0.0,0.0,0.0,-27.4248,-27.5699,0.003,True,False,Mode(963497464),0.4275,58,0.7044
3.152,THRUST_SEARCH,OPEN_LOOP,0.0,4e-05,5e-05,5e-05,0.0,-3e-05,0.7061,0.7061,0.7061,,0.67,,False,0.0,0.0,0.0,0.0,0.0,-27.4248,-27.5687,0.0045,True,False,Mode(963497464),0.438,58,0.7044
3.163,THRUST_SEARCH,OPEN_LOOP,0.0,4e-05,5e-05,5e-05,0.0,-2e-05,0.7065,0.7065,0.7065,,0.67,,False,0.0,0.0,0.0,0.0,0.0,-27.4248,-27.5703,0.007,True,True,Mode(963497464),0.449,58,0.7044
3.174,THRUST_SEARCH,OPEN_LOOP,0.0,4e-05,7e-05,7e-05,0.0,-1e-05,0.707,0.707,0.707,,0.67,,False,0.0,0.0,0.0,0.0,0.0,-27.4248,-27.5682,0.0006,True,False,Mode(963497464),0.4601,59,0.7065
3.185,THRUST_SEARCH,OPEN_LOOP,0.0,4e-05,5e-05,5e-05,0.0,-1e-05,0.7074,0.7074,0.7074,,0.67,,False,0.0,0.0,0.0,0.0,0.0,-27.4248,-27.5699,0.0045,True,False,Mode(963497464),0.4705,59,0.7065
3.195,THRUST_SEARCH,OPEN_LOOP,0.0,4e-05,4e-05,4e-05,0.0,-1e-05,0.7078,0.7078,0.7078,,0.67,,False,0.0,0.0,0.0,0.0,0.0,-27.4248,-27.5698,0.0065,True,False,Mode(963497464),0.481,59,0.7065
3.206,THRUST_SEARCH,OPEN_LOOP,0.0,4e-05,4e-05,4e-05,0.0,-1e-05,0.7082,0.7082,0.7082,,0.67,,False,0.0,0.0,0.0,0.0,0.0,-27.4248,-27.5709,0.009,True,False,Mode(963497464),0.492,59,0.7065
3.217,THRUST_SEARCH,OPEN_LOOP,0.0,4e-05,5e-05,5e-05,0.0,-1e-05,0.7087,0.7087,0.7087,,0.67,,False,0.0,0.0,0.0,0.0,0.0,-27.4248,-27.5673,0.0015,True,True,Mode(963497464),0.5025,59,0.7065
3.228,THRUST_SEARCH,OPEN_LOOP,0.0,4e-05,7e-05,7e-05,0.0,0.0,0.7091,0.7091,0.7091,,0.67,,False,0.0,0.0,0.0,0.0,0.0,-27.4248,-27.5685,0.006,True,False,Mode(963497464),0.5134,60,0.7087
3.239,THRUST_SEARCH,OPEN_LOOP,0.0,4e-05,4e-05,4e-05,0.0,0.0,0.7095,0.7095,0.7095,,0.67,,False,0.0,0.0,0.0,0.0,0.0,-27.4248,-27.5653,0.008,True,False,Mode(963497464),0.5244,60,0.7087
3.25,THRUST_SEARCH,OPEN_LOOP,0.0,4e-05,3e-05,4e-05,0.0,-0.0,0.71,0.71,0.71,,0.67,,False,0.0,0.0,0.0,0.0,0.0,-27.4248,-27.5661,0.001,True,False,Mode(963497464),0.5354,60,0.7087
3.26,THRUST_SEARCH,OPEN_LOOP,0.0,4e-05,5e-05,5e-05,0.0,-0.0,0.7104,0.7104,0.7104,,0.67,,False,0.0,0.0,0.0,0.0,0.0,-27.4248,-27.5665,0.003,True,False,Mode(963497464),0.5458,60,0.7087
3.272,THRUST_SEARCH,OPEN_LOOP,0.0,5e-05,6e-05,6e-05,0.0,1e-05,0.7108,0.7108,0.7108,,0.67,,False,0.0,0.0,0.0,0.0,0.0,-27.4248,-27.5632,0.008,True,True,Mode(963497464),0.5568,60,0.7087
3.281,THRUST_SEARCH,OPEN_LOOP,0.0,5e-05,5e-05,5e-05,0.0,1e-05,0.7113,0.7113,0.7113,,0.67,,False,0.0,0.0,0.0,0.0,0.0,-27.4248,-27.5621,0.0008,True,False,Mode(963497464),0.5671,61,0.7108
3.292,THRUST_SEARCH,OPEN_LOOP,0.0,5e-05,4e-05,5e-05,0.0,1e-05,0.7117,0.7117,0.7117,,0.67,,False,0.0,0.0,0.0,0.0,0.0,-27.4248,-27.5616,0.003,True,False,Mode(963497464),0.578,61,0.7108
3.303,THRUST_SEARCH,OPEN_LOOP,0.0,5e-05,5e-05,5e-05,0.0,1e-05,0.7121,0.7121,0.7121,,0.67,,False,0.0,0.0,0.0,0.0,0.0,-27.4248,-27.5609,0.005,True,False,Mode(963497464),0.589,61,0.7108
3.314,THRUST_SEARCH,OPEN_LOOP,0.0,5e-05,5e-05,5e-05,0.0,1e-05,0.7126,0.7126,0.7126,,0.67,,False,0.0,0.0,0.0,0.0,0.0,-27.4248,-27.5633,0.001,True,False,Mode(963497464),0.5997,61,0.7108
3.325,THRUST_SEARCH,OPEN_LOOP,0.0,5e-05,4e-05,5e-05,0.0,1e-05,0.713,0.713,0.713,,0.67,,False,0.0,0.0,0.0,0.0,0.0,-27.4248,-27.5628,0.003,True,True,Mode(963497464),0.6106,61,0.7108
3.336,THRUST_SEARCH,OPEN_LOOP,0.0,5e-05,4e-05,5e-05,0.0,0.0,0.7134,0.7134,0.7134,,0.67,,False,0.0,0.0,0.0,0.0,0.0,-27.4248,-27.5622,0.005,True,False,Mode(963497464),0.6216,62,0.713
3.347,THRUST_SEARCH,OPEN_LOOP,0.0,4e-05,3e-05,4e-05,0.0,-0.0,0.7139,0.7139,0.7139,,0.67,,False,0.0,0.0,0.0,0.0,0.0,-27.4248,-27.5607,0.0009,True,False,Mode(963497464),0.6328,62,0.713
3.358,THRUST_SEARCH,OPEN_LOOP,0.0,5e-05,6e-05,6e-05,0.0,1e-05,0.7143,0.7143,0.7143,,0.67,,False,0.0,0.0,0.0,0.0,0.0,-27.4248,-27.5616,0.003,True,False,Mode(963497464),0.6438,62,0.713
3.369,THRUST_SEARCH,OPEN_LOOP,0.0,5e-05,4e-05,5e-05,0.0,0.0,0.7148,0.7148,0.7148,,0.67,,False,0.0,0.0,0.0,0.0,0.0,-27.4248,-27.5631,0.005,True,False,Mode(963497464),0.6548,62,0.713
3.381,THRUST_SEARCH,OPEN_LOOP,0.0,4e-05,4e-05,4e-05,0.0,0.0,0.7152,0.7152,0.7152,,0.67,,False,0.0,0.0,0.0,0.0,0.0,-27.4248,-27.5607,0.0012,True,True,Mode(963497464),0.6664,62,0.713
3.392,THRUST_SEARCH,OPEN_LOOP,0.0,4e-05,3e-05,4e-05,0.0,-0.0,0.7157,0.7157,0.7157,,0.67,,False,0.0,0.0,0.0,0.0,0.0,-27.4248,-27.5623,0.003,True,False,Mode(963497464),0.6774,63,0.7152
3.402,THRUST_SEARCH,OPEN_LOOP,0.0,4e-05,5e-05,5e-05,0.0,-0.0,0.7161,0.7161,0.7161,,0.67,,False,0.0,0.0,0.0,0.0,0.0,-27.4248,-27.5625,0.0045,True,False,Mode(963497464),0.6879,63,0.7152
3.413,THRUST_SEARCH,OPEN_LOOP,0.0,4e-05,1e-05,4e-05,0.0,-1e-05,0.7165,0.7165,0.7165,,0.67,,False,0.0,0.0,0.0,0.0,0.0,-27.4248,-27.5632,0.007,True,False,Mode(963497464),0.6988,63,0.7152
3.424,THRUST_SEARCH,OPEN_LOOP,0.0,4e-05,5e-05,5e-05,0.0,-1e-05,0.717,0.717,0.717,,0.67,,False,0.0,0.0,0.0,0.0,0.0,-27.4248,-27.5614,0.003,True,False,Mode(963497464),0.7098,63,0.7152
3.435,THRUST_SEARCH,OPEN_LOOP,0.0,4e-05,1e-05,4e-05,0.0,-2e-05,0.7174,0.7174,0.7174,,0.67,,False,0.0,0.0,0.0,0.0,0.0,-27.4248,-27.5576,0.005,True,True,Mode(963497464),0.7208,63,0.7152
3.446,THRUST_SEARCH,OPEN_LOOP,0.0,4e-05,4e-05,4e-05,0.0,-2e-05,0.7178,0.7178,0.7178,,0.67,,False,0.0,0.0,0.0,0.0,0.0,-27.4248,-27.5632,0.007,True,False,Mode(963497464),0.7318,64,0.7174
3.456,THRUST_SEARCH,OPEN_LOOP,0.0,4e-05,3e-05,4e-05,0.0,-2e-05,0.7183,0.7183,0.7183,,0.67,,False,0.0,0.0,0.0,0.0,0.0,-27.4248,-27.5576,0.0,True,False,Mode(963497464),0.7422,64,0.7174
3.467,THRUST_SEARCH,OPEN_LOOP,0.0,4e-05,6e-05,6e-05,0.0,-2e-05,0.7187,0.7187,0.7187,,0.67,,False,0.0,0.0,0.0,0.0,0.0,-27.4248,-27.558,0.002,True,False,Mode(963497464),0.7532,64,0.7174
