time,state,controller_mode,target_z,curr_z,raw_z,height_for_safety,target_vz,curr_vz,thrust,raw_thrust,search_thrust,liftoff_thrust,hover_thrust_est,thrust_no_floor,floor_applied,a_cmd_z,v_cmd_z,z_integral,roll_cmd_deg,pitch_cmd_deg,yaw_cmd_deg,yaw_mocap_deg,mocap_age,kf_used_measurement,mavlink_sent,mav_mode,mav_heartbeat_age,mav_send_count,mav_last_thrust
0.002,THRUST_SEARCH,OPEN_LOOP,-0.0,-2e-05,-2e-05,-2e-05,0.0,0.0,0.58,0.58,0.58,,0.67,,False,0.0,0.0,0.0,0.0,0.0,-5.8338,-5.8407,0.003,True,True,Mode(963497464),0.0,0,
0.011,THRUST_SEARCH,OPEN_LOOP,-0.0,-2e-05,-2e-05,-2e-05,0.0,2e-05,0.5804,0.5804,0.5804,,0.67,,False,0.0,0.0,0.0,0.0,0.0,-5.8338,-5.8383,0.008,True,False,Mode(963497464),0.011,1,0.58
0.022,THRUST_SEARCH,OPEN_LOOP,-0.0,-1e-05,2e-05,2e-05,0.0,0.00013,0.5809,0.5809,0.5809,,0.67,,False,0.0,0.0,0.0,0.0,0.0,-5.8338,-5.8291,0.001,True,False,Mode(963497464),0.0218,1,0.58
0.033,THRUST_SEARCH,OPEN_LOOP,-0.0,-1e-05,-4e-05,-1e-05,0.0,1e-05,0.5813,0.5813,0.5813,,0.67,,False,0.0,0.0,0.0,0.0,0.0,-5.8338,-5.8337,0.003,True,False,Mode(963497464),0.0328,1,0.58
0.044,THRUST_SEARCH,OPEN_LOOP,-0.0,-1e-05,-1e-05,-1e-05,0.0,2e-05,0.5818,0.5818,0.5818,,0.67,,False,0.0,0.0,0.0,0.0,0.0,-5.8338,-5.8309,0.005,True,False,Mode(963497464),0.0438,1,0.58
0.054,THRUST_SEARCH,OPEN_LOOP,-0.0,-1e-05,-2e-05,-1e-05,0.0,2e-05,0.5822,0.5822,0.5822,,0.67,,False,0.0,0.0,0.0,0.0,0.0,-5.8338,-5.8389,0.0005,True,True,Mode(963497464),0.0543,1,0.58
0.065,THRUST_SEARCH,OPEN_LOOP,-0.0,-0.0,2e-05,2e-05,0.0,0.00016,0.5826,0.5826,0.5826,,0.67,,False,0.0,0.0,0.0,0.0,0.0,-5.8338,-5.8354,0.003,True,False,Mode(963497464),0.0653,2,0.5822
0.076,THRUST_SEARCH,OPEN_LOOP,0.0,1e-05,2e-05,2e-05,0.0,0.00027,0.583,0.583,0.583,,0.67,,False,0.0,0.0,0.0,0.0,0.0,-5.8338,-5.8332,0.0045,True,False,Mode(963497464),0.0758,2,0.5822
0.087,THRUST_SEARCH,OPEN_LOOP,0.0,1e-05,2e-05,2e-05,0.0,0.0003,0.5835,0.5835,0.5835,,0.67,,False,0.0,0.0,0.0,0.0,0.0,-5.8338,-5.8356,0.007,True,False,Mode(963497464),0.0868,2,0.5822
0.098,THRUST_SEARCH,OPEN_LOOP,-0.0,-0.0,-5e-05,-0.0,0.0,0.0001,0.5839,0.5839,0.5839,,0.67,,False,0.0,0.0,0.0,0.0,0.0,-5.8338,-5.8362,0.009,True,False,Mode(963497464),0.0977,2,0.5822
0.108,THRUST_SEARCH,OPEN_LOOP,0.0,0.0,1e-05,1e-05,0.0,0.00014,0.5843,0.5843,0.5843,,0.67,,False,0.0,0.0,0.0,0.0,0.0,-5.8338,-5.8317,0.0045,True,True,Mode(963497464),0.1082,2,0.5822
0.119,THRUST_SEARCH,OPEN_LOOP,0.0,1e-05,1e-05,1e-05,0.0,0.00016,0.5848,0.5848,0.5848,,0.67,,False,0.0,0.0,0.0,0.0,0.0,-5.8338,-5.8307,0.0068,True,False,Mode(963497464),0.119,3,0.5843
0.13,THRUST_SEARCH,OPEN_LOOP,-0.0,-0.0,-4e-05,-0.0,0.0,4e-05,0.5852,0.5852,0.5852,,0.67,,False,0.0,0.0,0.0,0.0,0.0,-5.8338,-5.834,0.009,True,False,Mode(963497464),0.1295,3,0.5843
0.14,THRUST_SEARCH,OPEN_LOOP,-0.0,-2e-05,-6e-05,-2e-05,0.0,-9e-05,0.5856,0.5856,0.5856,,0.67,,False,0.0,0.0,0.0,0.0,0.0,-5.8338,-5.8374,0.0015,True,False,Mode(963497464),0.14,3,0.5843
0.151,THRUST_SEARCH,OPEN_LOOP,-0.0,-2e-05,-3e-05,-2e-05,0.0,-0.00012,0.586,0.586,0.586,,0.67,,False,0.0,0.0,0.0,0.0,0.0,-5.8338,-5.8375,0.006,True,False,Mode(963497464),0.151,3,0.5843
0.161,THRUST_SEARCH,OPEN_LOOP,-0.0,-2e-05,1e-05,1e-05,0.0,-7e-05,0.5865,0.5865,0.5865,,0.67,,False,0.0,0.0,0.0,0.0,0.0,-5.8338,-5.8408,0.0075,True,True,Mode(963497464),0.1615,3,0.5843
0.172,THRUST_SEARCH,OPEN_LOOP,-0.0,-2e-05,-4e-05,-2e-05,0.0,-0.00011,0.5869,0.5869,0.5869,,0.67,,False,0.0,0.0,0.0,0.0,0.0,-5.8338,-5.8404,0.001,True,False,Mode(963497464),0.1724,4,0.5865
0.183,THRUST_SEARCH,OPEN_LOOP,-0.0,-2e-05,-1e-05,-1e-05,0.0,-9e-05,0.5873,0.5873,0.5873,,0.67,,False,0.0,0.0,0.0,0.0,0.0,-5.8338,-5.8385,0.003,True,False,Mode(963497464),0.1834,4,0.5865
0.194,THRUST_SEARCH,OPEN_LOOP,-0.0,-2e-05,-3e-05,-2e-05,0.0,-0.00011,0.5878,0.5878,0.5878,,0.67,,False,0.0,0.0,0.0,0.0,0.0,-5.8338,-5.8381,0.008,True,False,Mode(963497464),0.1944,4,0.5865
0.205,THRUST_SEARCH,OPEN_LOOP,-0.0,-2e-05,-2e-05,-2e-05,0.0,-0.0001,0.5882,0.5882,0.5882,,0.67,,False,0.0,0.0,0.0,0.0,0.0,-5.8338,-5.8318,0.0008,True,False,Mode(963497464),0.2051,4,0.5865
0.216,THRUST_SEARCH,OPEN_LOOP,-0.0,-3e-05,-2e-05,-2e-05,0.0,-0.0001,0.5886,0.5886,0.5886,,0.67,,False,0.0,0.0,0.0,0.0,0.0,-5.8338,-5.8345,0.003,True,True,Mode(963497464),0.0,4,0.5865
0.227,THRUST_SEARCH,OPEN_LOOP,-0.0,-3e-05,-5e-05,-3e-05,0.0,-0.00012,0.5891,0.5891,0.5891,,0.67,,False,0.0,0.0,0.0,0.0,0.0,-5.8338,-5.8381,0.005,True,False,Mode(963497464),0.011,5,0.5886
0.238,THRUST_SEARCH,OPEN_LOOP,-0.0,-3e-05,-2e-05,-2e-05,0.0,-0.0001,0.5895,0.5895,0.5895,,0.67,,False,0.0,0.0,0.0,0.0,0.0,-5.8338,-5.8376,0.0001,True,False,Mode(963497464),0.0216,5,0.5886
0.248,THRUST_SEARCH,OPEN_LOOP,-0.0,-3e-05,-1e-05,-1e-05,0.0,-9e-05,0.5899,0.5899,0.5899,,0.67,,False,0.0,0.0,0.0,0.0,0.0,-5.8338,-5.8407,0.0015,True,False,Mode(963497464),0.032,5,0.5886
0.259,THRUST_SEARCH,OPEN_LOOP,-0.0,-3e-05,-3e-05,-3e-05,0.0,-9e-05,0.5904,0.5904,0.5904,,0.67,,False,0.0,0.0,0.0,0.0,0.0,-5.8338,-5.8376,0.006,True,False,Mode(963497464),0.043,5,0.5886
0.27,THRUST_SEARCH,OPEN_LOOP,-0.0,-3e-05,-1e-05,-1e-05,0.0,-8e-05,0.5908,0.5908,0.5908,,0.67,,False,0.0,0.0,0.0,0.0,0.0,-5.8338,-5.839,0.0075,True,True,Mode(963497464),0.0535,5,0.5886
0.28,THRUST_SEARCH,OPEN_LOOP,-0.0,-3e-05,-2e-05,-2e-05,0.0,-7e-05,0.5912,0.5912,0.5912,,0.67,,False,0.0,0.0,0.0,0.0,0.0,-5.8338,-5.8458,0.001,True,False,Mode(963497464),0.0644,6,0.5908
0.291,THRUST_SEARCH,OPEN_LOOP,-0.0,-3e-05,-2e-05,-2e-05,0.0,-6e-05,0.5917,0.5917,0.5917,,0.67,,False,0.0,0.0,0.0,0.0,0.0,-5.8338,-5.8468,0.002,True,False,Mode(963497464),0.0754,6,0.5908
0.302,THRUST_SEARCH,OPEN_LOOP,-0.0,-2e-05,0.0,0.0,0.0,-4e-05,0.5921,0.5921,0.5921,,0.67,,False,0.0,0.0,0.0,0.0,0.0,-5.8338,-5.8425,0.007,True,False,Mode(963497464),0.0864,6,0.5908
0.314,THRUST_SEARCH,OPEN_LOOP,-0.0,-2e-05,-2e-05,-2e-05,0.0,-4e-05,0.5926,0.5926,0.5926,,0.67,,False,0.0,0.0,0.0,0.0,0.0,-5.8338,-5.8414,0.009,True,False,Mode(963497464),0.0978,6,0.5908
0.326,THRUST_SEARCH,OPEN_LOOP,-0.0,-2e-05,-1e-05,-1e-05,0.0,-3e-05,0.593,0.593,0.593,,0.67,,False,0.0,0.0,0.0,0.0,0.0,-5.8338,-5.8401,0.004,True,True,Mode(963497464),0.1088,6,0.5908
0.335,THRUST_SEARCH,OPEN_LOOP,-0.0,-2e-05,-1e-05,-1e-05,0.0,-3e-05,0.5934,0.5934,0.5934,,0.67,,False,0.0,0.0,0.0,0.0,0.0,-5.8338,-5.8401,0.0145,True,False,Mode(963497464),0.1193,7,0.593
0.346,THRUST_SEARCH,OPEN_LOOP,-0.0,-2e-05,-2e-05,-2e-05,0.0,-3e-05,0.5939,0.5939,0.5939,,0.67,,False,0.0,0.0,0.0,0.0,0.0,-5.8338,-5.8393,0.001,True,False,Mode(963497464),0.1303,7,0.593
0.357,THRUST_SEARCH,OPEN_LOOP,-0.0,-2e-05,-3e-05,-2e-05,0.0,-3e-05,0.5943,0.5943,0.5943,,0.67,,False,0.0,0.0,0.0,0.0,0.0,-5.8338,-5.8373,0.003,True,False,Mode(963497464),0.1408,7,0.593
0.368,THRUST_SEARCH,OPEN_LOOP,-0.0,-2e-05,-4e-05,-2e-05,0.0,-4e-05,0.5947,0.5947,0.5947,,0.67,,False,0.0,0.0,0.0,0.0,0.0,-5.8338,-5.8376,0.005,True,False,Mode(963497464),0.1517,7,0.593
0.379,THRUST_SEARCH,OPEN_LOOP,-0.0,-2e-05,1e-05,1e-05,0.0,-2e-05,0.5951,0.5951,0.5951,,0.67,,False,0.0,0.0,0.0,0.0,0.0,-5.8338,-5.8326,0.007,True,True,Mode(963497464),0.1626,7,0.593
0.39,THRUST_SEARCH,OPEN_LOOP,-0.0,-4e-05,-0.00016,-4e-05,0.0,-9e-05,0.5956,0.5956,0.5956,,0.67,,False,0.0,0.0,0.0,0.0,0.0,-5.8338,-5.8727,0.004,True,False,Mode(963497464),0.1741,8,0.5951
0.401,THRUST_SEARCH,OPEN_LOOP,-0.0,-4e-05,-5e-05,-4e-05,0.0,-0.0001,0.596,0.596,0.596,,0.67,,False,0.0,0.0,0.0,0.0,0.0,-5.8338,-5.8611,0.006,True,False,Mode(963497464),0.185,8,0.5951
0.412,THRUST_SEARCH,OPEN_LOOP,-0.0,-4e-05,-3e-05,-3e-05,0.0,-9e-05,0.5965,0.5965,0.5965,,0.67,,False,0.0,0.0,0.0,0.0,0.0,-5.8338,-5.8585,0.008,True,False,Mode(963497464),0.196,8,0.5951
0.423,THRUST_SEARCH,OPEN_LOOP,-0.0,-5e-05,-0.00011,-5e-05,0.0,-0.00012,0.5969,0.5969,0.5969,,0.67,,False,0.0,0.0,0.0,0.0,0.0,-5.8338,-5.8682,0.001,True,False,Mode(963497464),0.207,8,0.5951
0.434,THRUST_SEARCH,OPEN_LOOP,0.0,0.0,0.00045,0.00045,0.0,9e-05,0.5974,0.5974,0.5974,,0.67,,False,0.0,0.0,0.0,0.0,0.0,-5.8338,-5.8739,0.002,True,True,Mode(963497464),0.2179,8,0.5951
0.445,THRUST_SEARCH,OPEN_LOOP,0.0,4e-05,0.00033,0.00033,0.0,0.00023,0.5978,0.5978,0.5978,,0.67,,False,0.0,0.0,0.0,0.0,0.0,-5.8338,-5.9042,0.0071,True,False,Mode(963497464),0.229,9,0.5974
0.456,THRUST_SEARCH,OPEN_LOOP,0.0001,0.00011,0.00078,0.00078,0.0,0.00054,0.5982,0.5982,0.5982,,0.67,,False,0.0,0.0,0.0,0.0,0.0,-5.8338,-5.8543,0.003,True,False,Mode(963497464),0.2399,9,0.5974
0.467,THRUST_SEARCH,OPEN_LOOP,0.0002,0.00023,0.0012,0.0012,0.0,0.00098,0.5987,0.5987,0.5987,,0.67,,False,0.0,0.0,0.0,0.0,0.0,-5.8338,-5.7773,0.005,True,False,Mode(963497464),0.2509,9,0.5974
0.478,THRUST_SEARCH,OPEN_LOOP,0.0003,0.00028,0.00066,0.00066,0.0,0.00115,0.5991,0.5991,0.5991,,0.67,,False,0.0,0.0,0.0,0.0,0.0,-5.8338,-5.7083,0.007,True,False,Mode(963497464),0.2615,9,0.5974
0.49,THRUST_SEARCH,OPEN_LOOP,0.0004,0.00038,0.00118,0.00118,0.0,0.0015,0.5995,0.5995,0.5995,,0.67,,False,0.0,0.0,0.0,0.0,0.0,-5.8338,-5.6313,0.009,True,True,Mode(963497464),0.2725,9,0.5974
0.499,THRUST_SEARCH,OPEN_LOOP,0.0006,0.00058,0.0024,0.0024,0.0,0.00228,0.6,0.6,0.6,,0.67,,False,0.0,0.0,0.0,0.0,0.0,-5.8338,-5.3929,0.0045,True,False,Mode(963497464),0.2829,10,0.5995
0.511,THRUST_SEARCH,OPEN_LOOP,0.0008,0.00079,0.00251,0.00251,0.0,0.00302,0.6004,0.6004,0.6004,,0.67,,False,0.0,0.0,0.0,0.0,0.0,-5.8338,-5.3792,0.0075,True,False,Mode(963497464),0.2944,10,0.5995
0.521,THRUST_SEARCH,OPEN_LOOP,0.0011,0.0011,0.00385,0.00385,0.0,0.00417,0.6009,0.6009,0.6009,,0.67,,False,0.0,0.0,0.0,0.0,0.0,-5.8338,-5.5264,0.001,True,False,Mode(963497464),0.3054,10,0.5995
0.532,THRUST_SEARCH,OPEN_LOOP,0.0015,0.00147,0.00459,0.00459,0.0,0.00547,0.6013,0.6013,0.6013,,0.67,,False,0.0,0.0,0.0,0.0,0.0,-5.8338,-5.672,0.003,True,False,Mode(963497464),0.3163,10,0.5995
0.543,THRUST_SEARCH,OPEN_LOOP,0.0018,0.00175,0.00396,0.00396,0.0,0.00638,0.6017,0.6017,0.6017,,0.67,,False,0.0,0.0,0.0,0.0,0.0,-5.8338,-5.7488,0.0045,True,True,Mode(963497464),0.3268,10,0.5995
0.554,THRUST_SEARCH,OPEN_LOOP,0.0022,0.00216,0.00557,0.00557,0.0,0.00777,0.6022,0.6022,0.6022,,0.67,,False,0.0,0.0,0.0,0.0,0.0,-5.8338,-5.8196,0.001,True,False,Mode(963497464),0.3378,11,0.6017
0.564,THRUST_SEARCH,OPEN_LOOP,0.0025,0.00254,0.00557,0.00557,0.0,0.009,0.6026,0.6026,0.6026,,0.67,,False,0.0,0.0,0.0,0.0,0.0,-5.8338,-5.8196,0.0115,True,False,Mode(963497464),0.3483,11,0.6017
0.575,THRUST_SEARCH,OPEN_LOOP,0.003,0.00298,0.00637,0.00637,0.0,0.01036,0.603,0.603,0.603,,0.67,,False,0.0,0.0,0.0,0.0,0.0,-5.8338,-5.9239,0.005,True,False,Mode(963497464),0.3592,11,0.6017
0.586,THRUST_SEARCH,OPEN_LOOP,0.0034,0.00341,0.00667,0.00667,0.0,0.01166,0.6035,0.6035,0.6035,,0.67,,False,0.0,0.0,0.0,0.0,0.0,-5.8338,-6.0099,0.0071,True,False,Mode(963497464),0.3703,11,0.6017
0.597,THRUST_SEARCH,OPEN_LOOP,0.0039,0.00386,0.00718,0.00718,0.0,0.01298,0.6039,0.6039,0.6039,,0.67,,False,0.0,0.0,0.0,0.0,0.0,-5.8338,-6.0629,0.0006,True,True,Mode(963497464),0.3808,11,0.6017
0.608,THRUST_SEARCH,OPEN_LOOP,0.0043,0.00432,0.0076,0.0076,0.0,0.01428,0.6043,0.6043,0.6043,,0.67,,False,0.0,0.0,0.0,0.0,0.0,-5.8338,-6.1961,0.003,True,False,Mode(963497464),0.3918,12,0.6039
0.619,THRUST_SEARCH,OPEN_LOOP,0.0048,0.00482,0.00841,0.00841,0.0,0.0157,0.6048,0.6048,0.6048,,0.67,,False,0.0,0.0,0.0,0.0,0.0,-5.8338,-6.4204,0.005,True,False,Mode(963497464),0.4028,12,0.6039
0.63,THRUST_SEARCH,OPEN_LOOP,0.0053,0.00526,0.00796,0.00796,0.0,0.01677,0.6052,0.6052,0.6052,,0.67,,False,0.0,0.0,0.0,0.0,0.0,-5.8338,-6.6937,0.01,True,False,Mode(963497464),0.4141,12,0.6039
0.641,THRUST_SEARCH,OPEN_LOOP,0.0057,0.00568,0.00808,0.00808,0.0,0.01771,0.6057,0.6057,0.6057,,0.67,,False,0.0,0.0,0.0,0.0,0.0,-5.8338,-7.0518,0.0041,True,False,Mode(963497464),0.4252,12,0.6039
0.652,THRUST_SEARCH,OPEN_LOOP,0.0061,0.00613,0.00878,0.00878,0.0,0.01876,0.6061,0.6061,0.6061,,0.67,,False,0.0,0.0,0.0,0.0,0.0,-5.8338,-7.1799,0.006,True,True,Mode(963497464),0.4362,12,0.6039
0.665,THRUST_SEARCH,OPEN_LOOP,0.0066,0.00657,0.00878,0.00878,0.0,0.01964,0.6066,0.6066,0.6066,,0.67,,False,0.0,0.0,0.0,0.0,0.0,-5.8338,-7.1799,0.019,True,False,Mode(963497464),0.4491,13,0.6061
0.675,THRUST_SEARCH,OPEN_LOOP,0.0071,0.00708,0.01016,0.01016,0.0,0.02086,0.607,0.607,0.607,,0.67,,False,0.0,0.0,0.0,0.0,0.0,-5.8338,-7.4231,0.0096,True,False,Mode(963497464),0.4591,13,0.6061
0.686,THRUST_SEARCH,OPEN_LOOP,0.0077,0.00772,0.01196,0.01196,0.0,0.02254,0.6074,0.6074,0.6074,,0.67,,False,0.0,0.0,0.0,0.0,0.0,-5.8338,-8.0708,0.007,True,False,Mode(963497464),0.4701,13,0.6061
0.698,THRUST_SEARCH,OPEN_LOOP,0.0083,0.00833,0.01205,0.01205,0.0,0.02401,0.6079,0.6079,0.6079,,0.67,,False,0.0,0.0,0.0,0.0,0.0,-5.8338,-8.5044,0.006,True,False,Mode(963497464),0.4811,13,0.6061
0.708,THRUST_SEARCH,OPEN_LOOP,0.009,0.00903,0.0137,0.0137,0.0,0.02585,0.6083,0.6083,0.6083,,0.67,,False,0.0,0.0,0.0,0.0,0.0,-5.8338,-9.1978,0.0045,True,True,Mode(963497464),0.4915,13,0.6061
0.719,THRUST_SEARCH,OPEN_LOOP,0.0097,0.0097,0.0138,0.0138,0.0,0.02746,0.6087,0.6087,0.6087,,0.67,,False,0.0,0.0,0.0,0.0,0.0,-5.8338,-9.3242,0.0069,True,False,Mode(963497464),0.5025,14,0.6083
0.729,THRUST_SEARCH,OPEN_LOOP,0.0104,0.01035,0.01411,0.01411,0.0,0.02894,0.6092,0.6092,0.6092,,0.67,,False,0.0,0.0,0.0,0.0,0.0,-5.8338,-9.403,0.0,True,False,Mode(963497464),0.5131,14,0.6083
0.74,THRUST_SEARCH,OPEN_LOOP,0.011,0.01098,0.01423,0.01423,0.0,0.03022,0.6096,0.6096,0.6096,,0.67,,False,0.0,0.0,0.0,0.0,0.0,-5.8338,-9.5594,0.002,True,False,Mode(963497464),0.5241,14,0.6083
0.751,THRUST_SEARCH,OPEN_LOOP,0.0115,0.01146,0.01322,0.01322,0.0,0.0309,0.61,0.61,0.61,,0.67,,False,0.0,0.0,0.0,0.0,0.0,-5.8338,-9.7889,0.004,True,False,Mode(963497464),0.5346,14,0.6083
0.761,THRUST_SEARCH,OPEN_LOOP,0.0119,0.01185,0.01255,0.01255,0.0,0.03117,0.6104,0.6104,0.6104,,0.67,,False,0.0,0.0,0.0,0.0,0.0,-5.8338,-10.1289,0.006,True,True,Mode(963497464),0.5451,14,0.6083
0.772,THRUST_SEARCH,OPEN_LOOP,0.0121,0.01208,0.01081,0.01208,0.0,0.03068,0.6109,0.6109,0.6109,,0.67,,False,0.0,0.0,0.0,0.0,0.0,-5.8338,-10.8103,0.002,True,False,Mode(963497464),0.5561,15,0.6104
0.783,THRUST_SEARCH,OPEN_LOOP,0.0122,0.01225,0.01052,0.01225,0.0,0.03,0.6113,0.6113,0.6113,,0.67,,False,0.0,0.0,0.0,0.0,0.0,-5.8338,-10.9818,0.004,True,False,Mode(963497464),0.567,15,0.6104
0.794,THRUST_SEARCH,OPEN_LOOP,0.0123,0.01228,0.00923,0.01228,0.0,0.02881,0.6117,0.6117,0.6117,,0.67,,False,0.0,0.0,0.0,0.0,0.0,-5.8338,-10.9909,0.006,True,False,Mode(963497464),0.5775,15,0.6104
0.805,THRUST_SEARCH,OPEN_LOOP,0.0122,0.01218,0.00781,0.01218,0.0,0.02711,0.6122,0.6122,0.6122,,0.67,,False,0.0,0.0,0.0,0.0,0.0,-5.8338,-10.8458,0.008,True,False,Mode(963497464),0.5885,15,0.6104
0.816,THRUST_SEARCH,OPEN_LOOP,0.0118,0.01184,0.00518,0.01184,0.0,0.02452,0.6126,0.6126,0.6126,,0.67,,False,0.0,0.0,0.0,0.0,0.0,-5.8338,-10.5267,0.001,True,True,Mode(963497464),0.599,15,0.6104
0.827,THRUST_SEARCH,OPEN_LOOP,0.0114,0.01145,0.00442,0.01145,0.0,0.02178,0.6131,0.6131,0.6131,,0.67,,False,0.0,0.0,0.0,0.0,0.0,-5.8338,-10.4818,0.006,True,False,Mode(963497464),0.61,16,0.6126
0.837,THRUST_SEARCH,OPEN_LOOP,0.0109,0.01087,0.00216,0.01087,0.0,0.01839,0.6135,0.6135,0.6135,,0.67,,False,0.0,0.0,0.0,0.0,0.0,-5.8338,-10.4888,0.006,True,False,Mode(963497464),0.621,16,0.6126
0.848,THRUST_SEARCH,OPEN_LOOP,0.0102,0.01016,0.00056,0.01016,0.0,0.01464,0.6139,0.6139,0.6139,,0.67,,False,0.0,0.0,0.0,0.0,0.0,-5.8338,-10.6776,0.001,True,False,Mode(963497464),0.6319,16,0.6126
0.859,THRUST_SEARCH,OPEN_LOOP,0.0094,0.00941,-0.00027,0.00941,0.0,0.01086,0.6144,0.6144,0.6144,,0.67,,False,0.0,0.0,0.0,0.0,0.0,-5.8338,-10.8931,0.006,True,False,Mode(963497464),0.6429,16,0.6126
0.87,THRUST_SEARCH,OPEN_LOOP,0.0087,0.00874,0.00037,0.00874,0.0,0.00759,0.6148,0.6148,0.6148,,0.67,,False,0.0,0.0,0.0,0.0,0.0,-5.8338,-11.1224,0.008,True,True,Mode(963497464),0.6539,16,0.6126
0.881,THRUST_SEARCH,OPEN_LOOP,0.0082,0.00818,0.00136,0.00818,0.0,0.00492,0.6152,0.6152,0.6152,,0.67,,False,0.0,0.0,0.0,0.0,0.0,-5.8338,-10.7353,0.001,True,False,Mode(963497464),0.6649,17,0.6148
0.893,THRUST_SEARCH,OPEN_LOOP,0.0078,0.00777,0.00285,0.00777,0.0,0.003,0.6157,0.6157,0.6157,,0.67,,False,0.0,0.0,0.0,0.0,0.0,-5.8338,-10.4765,0.003,True,False,Mode(963497464),0.6758,17,0.6148
0.903,THRUST_SEARCH,OPEN_LOOP,0.0074,0.00739,0.00302,0.00739,0.0,0.00129,0.6161,0.6161,0.6161,,0.67,,False,0.0,0.0,0.0,0.0,0.0,-5.8338,-10.3347,0.0037,True,False,Mode(963497464),0.6865,17,0.6148
0.914,THRUST_SEARCH,OPEN_LOOP,0.0071,0.00708,0.00362,0.00708,0.0,-6e-05,0.6165,0.6165,0.6165,,0.67,,False,0.0,0.0,0.0,0.0,0.0,-5.8338,-10.3313,0.009,True,False,Mode(963497464),0.6975,17,0.6148
0.926,THRUST_SEARCH,OPEN_LOOP,0.0069,0.00689,0.00492,0.00689,0.0,-0.00084,0.617,0.617,0.617,,0.67,,False,0.0,0.0,0.0,0.0,0.0,-5.8338,-10.7996,0.005,True,True,Mode(963497464),0.7085,17,0.6148
0.936,THRUST_SEARCH,OPEN_LOOP,0.0067,0.00674,0.00528,0.00674,0.0,-0.00141,0.6174,0.6174,0.6174,,0.67,,False,0.0,0.0,0.0,0.0,0.0,-5.8338,-11.0067,0.005,True,False,Mode(963497464),0.7194,18,0.617
0.946,THRUST_SEARCH,OPEN_LOOP,0.0067,0.00665,0.00588,0.00665,0.0,-0.00171,0.6178,0.6178,0.6178,,0.67,,False,0.0,0.0,0.0,0.0,0.0,-5.8338,-11.237,0.0,True,False,Mode(963497464),0.73,18,0.617
0.957,THRUST_SEARCH,OPEN_LOOP,0.0066,0.00662,0.00646,0.00662,0.0,-0.00177,0.6183,0.6183,0.6183,,0.67,,False,0.0,0.0,0.0,0.0,0.0,-5.8338,-11.1121,0.0015,True,False,Mode(963497464),0.7405,18,0.617
0.967,THRUST_SEARCH,OPEN_LOOP,0.0065,0.00651,0.00554,0.00651,0.0,-0.00215,0.6187,0.6187,0.6187,,0.67,,False,0.0,0.0,0.0,0.0,0.0,-5.8338,-11.0548,0.006,True,False,Mode(963497464),0.7514,18,0.617
0.978,THRUST_SEARCH,OPEN_LOOP,0.0064,0.00636,0.00496,0.00636,0.0,-0.0027,0.6191,0.6191,0.6191,,0.67,,False,0.0,0.0,0.0,0.0,0.0,-5.8338,-11.3088,0.008,True,True,Mode(963497464),0.7624,18,0.617
0.989,THRUST_SEARCH,OPEN_LOOP,0.0061,0.00608,0.00349,0.00608,0.0,-0.00371,0.6196,0.6196,0.6196,,0.67,,False,0.0,0.0,0.0,0.0,0.0,-5.8338,-11.9476,0.001,True,False,Mode(963497464),0.7734,19,0.6191
1.0,THRUST_SEARCH,OPEN_LOOP,0.0057,0.00571,0.00215,0.00571,0.0,-0.0051,0.62,0.62,0.62,,0.67,,False,0.0,0.0,0.0,0.0,0.0,-5.8338,-12.0659,0.003,True,False,Mode(963497464),0.7843,19,0.6191
1.011,THRUST_SEARCH,OPEN_LOOP,0.0053,0.00529,0.0014,0.00529,0.0,-0.00661,0.6204,0.6204,0.6204,,0.67,,False,0.0,0.0,0.0,0.0,0.0,-5.8338,-12.2665,0.0075,True,False,Mode(963497464),0.7948,19,0.6191
1.022,THRUST_SEARCH,OPEN_LOOP,0.0048,0.00479,0.00028,0.00479,0.0,-0.00837,0.6209,0.6209,0.6209,,0.67,,False,0.0,0.0,0.0,0.0,0.0,-5.8338,-12.5308,0.001,True,False,Mode(963497464),0.8058,19,0.6191
1.033,THRUST_SEARCH,OPEN_LOOP,0.0043,0.00426,-0.00036,0.00426,0.0,-0.01017,0.6213,0.6213,0.6213,,0.67,,False,0.0,0.0,0.0,0.0,0.0,-5.8338,-12.5082,0.003,True,True,Mode(963497464),0.8168,19,0.6191
1.043,THRUST_SEARCH,OPEN_LOOP,0.0037,0.00372,-0.00091,0.00372,0.0,-0.01197,0.6217,0.6217,0.6217,,0.67,,False,0.0,0.0,0.0,0.0,0.0,-5.8338,-12.4931,0.0045,True,False,Mode(963497464),0.8272,20,0.6213
1.054,THRUST_SEARCH,OPEN_LOOP,0.0032,0.00321,-0.00084,0.00321,0.0,-0.01355,0.6222,0.6222,0.6222,,0.67,,False,0.0,0.0,0.0,0.0,0.0,-5.8338,-12.4718,0.001,True,False,Mode(963497464),0.8382,20,0.6213
1.065,THRUST_SEARCH,OPEN_LOOP,0.0027,0.00267,-0.00149,0.00267,0.0,-0.01517,0.6226,0.6226,0.6226,,0.67,,False,0.0,0.0,0.0,0.0,0.0,-5.8338,-12.3657,0.003,True,False,Mode(963497464),0.8492,20,0.6213
1.076,THRUST_SEARCH,OPEN_LOOP,0.0022,0.00225,-0.00052,0.00225,0.0,-0.01625,0.623,0.623,0.623,,0.67,,False,0.0,0.0,0.0,0.0,0.0,-5.8338,-12.2526,0.0045,True,False,Mode(963497464),0.8597,20,0.6213
1.087,THRUST_SEARCH,OPEN_LOOP,0.0019,0.00192,0.00029,0.00192,0.0,-0.01688,0.6235,0.6235,0.6235,,0.67,,False,0.0,0.0,0.0,0.0,0.0,-5.8338,-12.2497,0.007,True,True,Mode(963497464),0.8707,20,0.6213
1.098,THRUST_SEARCH,OPEN_LOOP,0.0016,0.00165,0.00074,0.00165,0.0,-0.01723,0.6239,0.6239,0.6239,,0.67,,False,0.0,0.0,0.0,0.0,0.0,-5.8338,-12.2781,0.009,True,False,Mode(963497464),0.8817,21,0.6235
1.109,THRUST_SEARCH,OPEN_LOOP,0.0014,0.00142,0.00096,0.00142,0.0,-0.01741,0.6243,0.6243,0.6243,,0.67,,False,0.0,0.0,0.0,0.0,0.0,-5.8338,-12.3531,0.005,True,False,Mode(963497464),0.8926,21,0.6235
1.12,THRUST_SEARCH,OPEN_LOOP,0.0012,0.00116,0.00052,0.00116,0.0,-0.01766,0.6248,0.6248,0.6248,,0.67,,False,0.0,0.0,0.0,0.0,0.0,-5.8338,-12.4324,0.0069,True,False,Mode(963497464),0.9036,21,0.6235
1.13,THRUST_SEARCH,OPEN_LOOP,0.0009,0.00093,0.00044,0.00093,0.0,-0.01785,0.6252,0.6252,0.6252,,0.67,,False,0.0,0.0,0.0,0.0,0.0,-5.8338,-12.6715,0.009,True,False,Mode(963497464),0.9141,21,0.6235
1.141,THRUST_SEARCH,OPEN_LOOP,0.0006,0.00062,-0.00066,0.00062,0.0,-0.01835,0.6256,0.6256,0.6256,,0.67,,False,0.0,0.0,0.0,0.0,0.0,-5.8338,-12.918,0.002,True,True,Mode(963497464),0.9251,21,0.6235
1.153,THRUST_SEARCH,OPEN_LOOP,0.0003,0.00031,-0.00073,0.00031,0.0,-0.01876,0.6261,0.6261,0.6261,,0.67,,False,0.0,0.0,0.0,0.0,0.0,-5.8338,-12.9783,0.0074,True,False,Mode(963497464),0.9365,22,0.6256
1.163,THRUST_SEARCH,OPEN_LOOP,0.0001,6e-05,-0.00049,6e-05,0.0,-0.01897,0.6265,0.6265,0.6265,,0.67,,False,0.0,0.0,0.0,0.0,0.0,-5.8338,-13.0448,0.0008,True,False,Mode(963497464),0.9472,22,0.6256
1.174,THRUST_SEARCH,OPEN_LOOP,-0.0002,-0.00018,-0.00042,-0.00018,0.0,-0.01907,0.627,0.627,0.627,,0.67,,False,0.0,0.0,0.0,0.0,0.0,-5.8338,-13.0965,0.003,True,False,Mode(963497464),0.9582,22,0.6256
1.185,THRUST_SEARCH,OPEN_LOOP,-0.0004,-0.00037,-0.00028,-0.00028,0.0,-0.01903,0.6274,0.6274,0.6274,,0.67,,False,0.0,0.0,0.0,0.0,0.0,-5.8338,-13.0418,0.0045,True,False,Mode(963497464),0.9687,22,0.6256
1.196,THRUST_SEARCH,OPEN_LOOP,-0.0006,-0.00059,-0.00074,-0.00059,0.0,-0.01909,0.6278,0.6278,0.6278,,0.67,,False,0.0,0.0,0.0,0.0,0.0,-5.8338,-13.0053,0.0008,True,True,Mode(963497464),0.9795,22,0.6256
1.207,THRUST_SEARCH,OPEN_LOOP,-0.0008,-0.00081,-0.00089,-0.00081,0.0,-0.01913,0.6283,0.6283,0.6283,,0.67,,False,0.0,0.0,0.0,0.0,0.0,-5.8338,-12.9967,0.003,True,False,Mode(963497464),0.9904,23,0.6278
1.217,THRUST_SEARCH,OPEN_LOOP,-0.001,-0.00099,-0.00067,-0.00067,0.0,-0.019,0.6287,0.6287,0.6287,,0.67,,False,0.0,0.0,0.0,0.0,0.0,-5.8338,-12.9875,0.005,True,False,Mode(963497464),1.0014,23,0.6278
1.228,THRUST_SEARCH,OPEN_LOOP,-0.0011,-0.00113,-0.00062,-0.00062,0.0,-0.0188,0.6291,0.6291,0.6291,,0.67,,False,0.0,0.0,0.0,0.0,0.0,-5.8338,-12.9894,0.006,True,False,Mode(963497464),1.0118,23,0.6278
1.239,THRUST_SEARCH,OPEN_LOOP,-0.0013,-0.00131,-0.001,-0.001,0.0,-0.01868,0.6296,0.6296,0.6296,,0.67,,False,0.0,0.0,0.0,0.0,0.0,-5.8338,-13.048,0.002,True,False,Mode(963497464),0.0,23,0.6278
1.25,THRUST_SEARCH,OPEN_LOOP,-0.0015,-0.00145,-0.00077,-0.00077,0.0,-0.01842,0.63,0.63,0.63,,0.67,,False,0.0,0.0,0.0,0.0,0.0,-5.8338,-13.0556,0.004,True,True,Mode(963497464),0.011,23,0.6278
1.261,THRUST_SEARCH,OPEN_LOOP,-0.0016,-0.00159,-0.00085,-0.00085,0.0,-0.01813,0.6304,0.6304,0.6304,,0.67,,False,0.0,0.0,0.0,0.0,0.0,-5.8338,-13.0392,0.006,True,False,Mode(963497464),0.0219,24,0.63
1.272,THRUST_SEARCH,OPEN_LOOP,-0.0017,-0.00166,-0.0004,-0.0004,0.0,-0.01764,0.6309,0.6309,0.6309,,0.67,,False,0.0,0.0,0.0,0.0,0.0,-5.8338,-12.9796,0.002,True,False,Mode(963497464),0.0329,24,0.63
1.283,THRUST_SEARCH,OPEN_LOOP,-0.0017,-0.00174,-0.00053,-0.00053,0.0,-0.01716,0.6313,0.6313,0.6313,,0.67,,False,0.0,0.0,0.0,0.0,0.0,-5.8338,-12.9448,0.004,True,False,Mode(963497464),0.0439,24,0.63
1.294,THRUST_SEARCH,OPEN_LOOP,-0.0018,-0.00184,-0.00081,-0.00081,0.0,-0.01676,0.6317,0.6317,0.6317,,0.67,,False,0.0,0.0,0.0,0.0,0.0,-5.8338,-12.9564,0.006,True,False,Mode(963497464),0.0549,24,0.63
1.305,THRUST_SEARCH,OPEN_LOOP,-0.0019,-0.00192,-0.00089,-0.00089,0.0,-0.01636,0.6322,0.6322,0.6322,,0.67,,False,0.0,0.0,0.0,0.0,0.0,-5.8338,-12.9669,0.008,True,True,Mode(963497464),0.0658,24,0.63
1.316,THRUST_SEARCH,OPEN_LOOP,-0.002,-0.002,-0.00095,-0.00095,0.0,-0.01595,0.6326,0.6326,0.6326,,0.67,,False,0.0,0.0,0.0,0.0,0.0,-5.8338,-12.9781,0.004,True,False,Mode(963497464),0.0768,25,0.6322
1.327,THRUST_SEARCH,OPEN_LOOP,-0.0021,-0.00207,-0.00095,-0.00095,0.0,-0.01551,0.6331,0.6331,0.6331,,0.67,,False,0.0,0.0,0.0,0.0,0.0,-5.8338,-12.9809,0.006,True,False,Mode(963497464),0.0878,25,0.6322
1.338,THRUST_SEARCH,OPEN_LOOP,-0.0021,-0.00213,-0.00097,-0.00097,0.0,-0.01505,0.6335,0.6335,0.6335,,0.67,,False,0.0,0.0,0.0,0.0,0.0,-5.8338,-12.983,0.008,True,False,Mode(963497464),0.0987,25,0.6322
1.349,THRUST_SEARCH,OPEN_LOOP,-0.0022,-0.00218,-0.00091,-0.00091,0.0,-0.01455,0.634,0.634,0.634,,0.67,,False,0.0,0.0,0.0,0.0,0.0,-5.8338,-12.9722,0.0043,True,False,Mode(963497464),0.11,25,0.6322
1.361,THRUST_SEARCH,OPEN_LOOP,-0.0022,-0.00222,-0.00091,-0.00091,0.0,-0.01404,0.6344,0.6344,0.6344,,0.67,,False,0.0,0.0,0.0,0.0,0.0,-5.8338,-12.9703,0.007,True,True,Mode(963497464),0.121,25,0.6322
1.37,THRUST_SEARCH,OPEN_LOOP,-0.0022,-0.00224,-0.00088,-0.00088,0.0,-0.01351,0.6348,0.6348,0.6348,,0.67,,False,0.0,0.0,0.0,0.0,0.0,-5.8338,-12.9676,0.006,True,False,Mode(963497464),0.1315,26,0.6344
1.381,THRUST_SEARCH,OPEN_LOOP,-0.0022,-0.00223,-0.00063,-0.00063,0.0,-0.01289,0.6352,0.6352,0.6352,,0.67,,False,0.0,0.0,0.0,0.0,0.0,-5.8338,-12.8858,0.0015,True,False,Mode(963497464),0.142,26,0.6344
1.392,THRUST_SEARCH,OPEN_LOOP,-0.0022,-0.00224,-0.00091,-0.00091,0.0,-0.01237,0.6357,0.6357,0.6357,,0.67,,False,0.0,0.0,0.0,0.0,0.0,-5.8338,-12.9046,0.003,True,False,Mode(963497464),0.1529,26,0.6344
1.403,THRUST_SEARCH,OPEN_LOOP,-0.0023,-0.00225,-0.00092,-0.00092,0.0,-0.01185,0.6361,0.6361,0.6361,,0.67,,False,0.0,0.0,0.0,0.0,0.0,-5.8338,-12.921,0.005,True,False,Mode(963497464),0.1639,26,0.6344
1.414,THRUST_SEARCH,OPEN_LOOP,-0.0023,-0.00226,-0.00101,-0.00101,0.0,-0.01136,0.6365,0.6365,0.6365,,0.67,,False,0.0,0.0,0.0,0.0,0.0,-5.8338,-12.9452,0.001,True,True,Mode(963497464),0.1749,26,0.6344
1.425,THRUST_SEARCH,OPEN_LOOP,-0.0023,-0.00227,-0.00096,-0.00096,0.0,-0.01085,0.637,0.637,0.637,,0.67,,False,0.0,0.0,0.0,0.0,0.0,-5.8338,-12.946,0.003,True,False,Mode(963497464),0.1859,27,0.6365
1.435,THRUST_SEARCH,OPEN_LOOP,-0.0023,-0.00226,-0.00097,-0.00097,0.0,-0.01035,0.6374,0.6374,0.6374,,0.67,,False,0.0,0.0,0.0,0.0,0.0,-5.8338,-12.941,0.0045,True,False,Mode(963497464),0.1963,27,0.6365
1.446,THRUST_SEARCH,OPEN_LOOP,-0.0022,-0.00225,-0.00095,-0.00095,0.0,-0.00984,0.6379,0.6379,0.6379,,0.67,,False,0.0,0.0,0.0,0.0,0.0,-5.8338,-12.945,0.0011,True,False,Mode(963497464),0.2074,27,0.6365
1.457,THRUST_SEARCH,OPEN_LOOP,-0.0022,-0.00224,-0.00099,-0.00099,0.0,-0.00935,0.6383,0.6383,0.6383,,0.67,,False,0.0,0.0,0.0,0.0,0.0,-5.8338,-12.951,0.003,True,False,Mode(963497464),0.2184,27,0.6365
1.468,THRUST_SEARCH,OPEN_LOOP,-0.0022,-0.00222,-0.00094,-0.00094,0.0,-0.00885,0.6387,0.6387,0.6387,,0.67,,False,0.0,0.0,0.0,0.0,0.0,-5.8338,-12.9642,0.005,True,True,Mode(963497464),0.2294,27,0.6365
1.479,THRUST_SEARCH,OPEN_LOOP,-0.0022,-0.00217,-0.00054,-0.00054,0.0,-0.00822,0.6392,0.6392,0.6392,,0.67,,False,0.0,0.0,0.0,0.0,0.0,-5.8338,-12.9156,0.001,True,False,Mode(963497464),0.2403,28,0.6387
1.49,THRUST_SEARCH,OPEN_LOOP,-0.0021,-0.00211,-0.00053,-0.00053,0.0,-0.0076,0.6396,0.6396,0.6396,,0.67,,False,0.0,0.0,0.0,0.0,0.0,-5.8338,-12.879,0.003,True,False,Mode(963497464),0.2513,28,0.6387
1.501,THRUST_SEARCH,OPEN_LOOP,-0.0021,-0.00208,-0.00088,-0.00088,0.0,-0.00713,0.64,0.64,0.64,,0.67,,False,0.0,0.0,0.0,0.0,0.0,-5.8338,-12.8947,0.005,True,False,Mode(963497464),0.2623,28,0.6387
1.512,THRUST_SEARCH,OPEN_LOOP,-0.002,-0.00205,-0.00089,-0.00089,0.0,-0.00668,0.6405,0.6405,0.6405,,0.67,,False,0.0,0.0,0.0,0.0,0.0,-5.8338,-12.908,0.0068,True,False,Mode(963497464),0.2731,28,0.6387
1.523,THRUST_SEARCH,OPEN_LOOP,-0.002,-0.00202,-0.00097,-0.00097,0.0,-0.00627,0.6409,0.6409,0.6409,,0.67,,False,0.0,0.0,0.0,0.0,0.0,-5.8338,-12.9213,0.0031,True,True,Mode(963497464),0.2842,28,0.6387
1.534,THRUST_SEARCH,OPEN_LOOP,-0.002,-0.00199,-0.00097,-0.00097,0.0,-0.00587,0.6414,0.6414,0.6414,,0.67,,False,0.0,0.0,0.0,0.0,0.0,-5.8338,-12.9352,0.005,True,False,Mode(963497464),0.2951,29,0.6409
1.545,THRUST_SEARCH,OPEN_LOOP,-0.002,-0.00196,-0.00099,-0.00099,0.0,-0.00549,0.6418,0.6418,0.6418,,0.67,,False,0.0,0.0,0.0,0.0,0.0,-5.8338,-12.9473,0.0068,True,False,Mode(963497464),0.3058,29,0.6409
1.556,THRUST_SEARCH,OPEN_LOOP,-0.0019,-0.00193,-0.00098,-0.00098,0.0,-0.00511,0.6422,0.6422,0.6422,,0.67,,False,0.0,0.0,0.0,0.0,0.0,-5.8338,-12.9532,0.009,True,False,Mode(963497464),0.3168,29,0.6409
1.567,THRUST_SEARCH,OPEN_LOOP,-0.0019,-0.0019,-0.00099,-0.00099,0.0,-0.00476,0.6427,0.6427,0.6427,,0.67,,False,0.0,0.0,0.0,0.0,0.0,-5.8338,-12.9672,0.005,True,False,Mode(963497464),0.3278,29,0.6409
1.577,THRUST_SEARCH,OPEN_LOOP,-0.0019,-0.00187,-0.00095,-0.00095,0.0,-0.0044,0.6431,0.6431,0.6431,,0.67,,False,0.0,0.0,0.0,0.0,0.0,-5.8338,-12.973,0.0066,True,True,Mode(963497464),0.3383,29,0.6409
1.589,THRUST_SEARCH,OPEN_LOOP,-0.0018,-0.00183,-0.00095,-0.00095,0.0,-0.00405,0.6435,0.6435,0.6435,,0.67,,False,0.0,0.0,0.0,0.0,0.0,-5.8338,-12.9805,0.001,True,False,Mode(963497464),0.3498,30,0.6431
1.6,THRUST_SEARCH,OPEN_LOOP,-0.0018,-0.00176,-0.00052,-0.00052,0.0,-0.00357,0.644,0.644,0.644,,0.67,,False,0.0,0.0,0.0,0.0,0.0,-5.8338,-12.9374,0.0031,True,False,Mode(963497464),0.3609,30,0.6431
1.61,THRUST_SEARCH,OPEN_LOOP,-0.0017,-0.0017,-0.00068,-0.00068,0.0,-0.00317,0.6444,0.6444,0.6444,,0.67,,False,0.0,0.0,0.0,0.0,0.0,-5.8338,-12.9042,0.0045,True,False,Mode(963497464),0.3713,30,0.6431
1.621,THRUST_SEARCH,OPEN_LOOP,-0.0017,-0.00166,-0.00088,-0.00088,0.0,-0.00286,0.6448,0.6448,0.6448,,0.67,,False,0.0,0.0,0.0,0.0,0.0,-5.8338,-12.9261,0.001,True,False,Mode(963497464),0.3822,30,0.6431
1.632,THRUST_SEARCH,OPEN_LOOP,-0.0016,-0.00163,-0.00093,-0.00093,0.0,-0.00259,0.6453,0.6453,0.6453,,0.67,,False,0.0,0.0,0.0,0.0,0.0,-5.8338,-12.9331,0.003,True,True,Mode(963497464),0.3927,30,0.6431
1.643,THRUST_SEARCH,OPEN_LOOP,-0.0016,-0.00159,-0.00093,-0.00093,0.0,-0.00233,0.6457,0.6457,0.6457,,0.67,,False,0.0,0.0,0.0,0.0,0.0,-5.8338,-12.9344,0.005,True,False,Mode(963497464),0.4037,31,0.6453
1.653,THRUST_SEARCH,OPEN_LOOP,-0.0016,-0.00156,-0.00098,-0.00098,0.0,-0.00211,0.6461,0.6461,0.6461,,0.67,,False,0.0,0.0,0.0,0.0,0.0,-5.8338,-12.9409,0.0069,True,False,Mode(963497464),0.4143,31,0.6453
1.664,THRUST_SEARCH,OPEN_LOOP,-0.0015,-0.00153,-0.00097,-0.00097,0.0,-0.00189,0.6466,0.6466,0.6466,,0.67,,False,0.0,0.0,0.0,0.0,0.0,-5.8338,-12.9467,0.009,True,False,Mode(963497464),0.4253,31,0.6453
1.675,THRUST_SEARCH,OPEN_LOOP,-0.0015,-0.00147,-0.00057,-0.00057,0.0,-0.00153,0.647,0.647,0.647,,0.67,,False,0.0,0.0,0.0,0.0,0.0,-5.8338,-12.906,0.004,True,False,Mode(963497464),0.4362,31,0.6453
1.686,THRUST_SEARCH,OPEN_LOOP,-0.0014,-0.00142,-0.00069,-0.00069,0.0,-0.00125,0.6474,0.6474,0.6474,,0.67,,False,0.0,0.0,0.0,0.0,0.0,-5.8338,-12.8781,0.006,True,True,Mode(963497464),0.4472,31,0.6453
1.697,THRUST_SEARCH,OPEN_LOOP,-0.0014,-0.00139,-0.00096,-0.00096,0.0,-0.00108,0.6479,0.6479,0.6479,,0.67,,False,0.0,0.0,0.0,0.0,0.0,-5.8338,-12.9173,0.002,True,False,Mode(963497464),0.4582,32,0.6474
1.708,THRUST_SEARCH,OPEN_LOOP,-0.0014,-0.00137,-0.00099,-0.00099,0.0,-0.00094,0.6483,0.6483,0.6483,,0.67,,False,0.0,0.0,0.0,0.0,0.0,-5.8338,-12.9308,0.004,True,False,Mode(963497464),0.4691,32,0.6474
1.718,THRUST_SEARCH,OPEN_LOOP,-0.0013,-0.00134,-0.001,-0.001,0.0,-0.0008,0.6487,0.6487,0.6487,,0.67,,False,0.0,0.0,0.0,0.0,0.0,-5.8338,-12.9359,0.006,True,False,Mode(963497464),0.4796,32,0.6474
1.729,THRUST_SEARCH,OPEN_LOOP,-0.0013,-0.00132,-0.00095,-0.00095,0.0,-0.00066,0.6492,0.6492,0.6492,,0.67,,False,0.0,0.0,0.0,0.0,0.0,-5.8338,-12.9452,0.008,True,False,Mode(963497464),0.4906,32,0.6474
1.74,THRUST_SEARCH,OPEN_LOOP,-0.0013,-0.00129,-0.00096,-0.00096,0.0,-0.00053,0.6496,0.6496,0.6496,,0.67,,False,0.0,0.0,0.0,0.0,0.0,-5.8338,-12.9646,0.0036,True,True,Mode(963497464),0.5012,32,0.6474
1.751,THRUST_SEARCH,OPEN_LOOP,-0.0013,-0.00127,-0.0009,-0.0009,0.0,-0.00039,0.65,0.65,0.65,,0.67,,False,0.0,0.0,0.0,0.0,0.0,-5.8338,-12.9583,0.0061,True,False,Mode(963497464),0.5123,33,0.6496
1.762,THRUST_SEARCH,OPEN_LOOP,-0.0012,-0.00121,-0.00058,-0.00058,0.0,-0.00014,0.6505,0.6505,0.6505,,0.67,,False,0.0,0.0,0.0,0.0,0.0,-5.8338,-12.9111,0.008,True,False,Mode(963497464),0.5232,33,0.6496
1.773,THRUST_SEARCH,OPEN_LOOP,-0.0012,-0.00116,-0.00059,-0.00059,0.0,8e-05,0.6509,0.6509,0.6509,,0.67,,False,0.0,0.0,0.0,0.0,0.0,-5.8338,-12.8525,0.001,True,False,Mode(963497464),0.5338,33,0.6496
1.783,THRUST_SEARCH,OPEN_LOOP,-0.0011,-0.00114,-0.00097,-0.00097,0.0,0.00015,0.6513,0.6513,0.6513,,0.67,,False,0.0,0.0,0.0,0.0,0.0,-5.8338,-12.8789,0.0028,True,False,Mode(963497464),0.5445,33,0.6496
1.794,THRUST_SEARCH,OPEN_LOOP,-0.0011,-0.00112,-0.00096,-0.00096,0.0,0.00021,0.6518,0.6518,0.6518,,0.67,,False,0.0,0.0,0.0,0.0,0.0,-5.8338,-12.8978,0.0075,True,True,Mode(963497464),0.555,33,0.6496
1.805,THRUST_SEARCH,OPEN_LOOP,-0.0011,-0.00111,-0.00097,-0.00097,0.0,0.00027,0.6522,0.6522,0.6522,,0.67,,False,0.0,0.0,0.0,0.0,0.0,-5.8338,-12.9255,0.001,True,False,Mode(963497464),0.566,34,0.6518
1.816,THRUST_SEARCH,OPEN_LOOP,-0.0011,-0.0011,-0.00098,-0.00098,0.0,0.00031,0.6526,0.6526,0.6526,,0.67,,False,0.0,0.0,0.0,0.0,0.0,-5.8338,-12.9405,0.003,True,False,Mode(963497464),0.5769,34,0.6518
1.826,THRUST_SEARCH,OPEN_LOOP,-0.001,-0.00105,-0.00058,-0.00058,0.0,0.00049,0.6531,0.6531,0.6531,,0.67,,False,0.0,0.0,0.0,0.0,0.0,-5.8338,-12.9033,0.0045,True,False,Mode(963497464),0.5874,34,0.6518
1.837,THRUST_SEARCH,OPEN_LOOP,-0.001,-0.00104,-0.00099,-0.00099,0.0,0.00051,0.6535,0.6535,0.6535,,0.67,,False,0.0,0.0,0.0,0.0,0.0,-5.8338,-12.8992,0.001,True,False,Mode(963497464),0.5984,34,0.6518
1.848,THRUST_SEARCH,OPEN_LOOP,-0.001,-0.00103,-0.00095,-0.00095,0.0,0.00054,0.6539,0.6539,0.6539,,0.67,,False,0.0,0.0,0.0,0.0,0.0,-5.8338,-12.9127,0.003,True,True,Mode(963497464),0.6094,34,0.6518
1.859,THRUST_SEARCH,OPEN_LOOP,-0.001,-0.00101,-0.00096,-0.00096,0.0,0.00056,0.6544,0.6544,0.6544,,0.67,,False,0.0,0.0,0.0,0.0,0.0,-5.8338,-12.917,0.005,True,False,Mode(963497464),0.6203,35,0.6539
1.87,THRUST_SEARCH,OPEN_LOOP,-0.001,-0.001,-0.00091,-0.00091,0.0,0.00059,0.6548,0.6548,0.6548,,0.67,,False,0.0,0.0,0.0,0.0,0.0,-5.8338,-12.923,0.0068,True,False,Mode(963497464),0.6312,35,0.6539
1.881,THRUST_SEARCH,OPEN_LOOP,-0.001,-0.00099,-0.00096,-0.00096,0.0,0.00061,0.6552,0.6552,0.6552,,0.67,,False,0.0,0.0,0.0,0.0,0.0,-5.8338,-12.9371,0.003,True,False,Mode(963497464),0.6421,35,0.6539
1.892,THRUST_SEARCH,OPEN_LOOP,-0.001,-0.00098,-0.00096,-0.00096,0.0,0.00062,0.6557,0.6557,0.6557,,0.67,,False,0.0,0.0,0.0,0.0,0.0,-5.8338,-12.9477,0.005,True,False,Mode(963497464),0.6531,35,0.6539
1.903,THRUST_SEARCH,OPEN_LOOP,-0.0009,-0.00094,-0.00057,-0.00057,0.0,0.00076,0.6561,0.6561,0.6561,,0.67,,False,0.0,0.0,0.0,0.0,0.0,-5.8338,-12.9133,0.007,True,True,Mode(963497464),0.6641,35,0.6539
1.914,THRUST_SEARCH,OPEN_LOOP,-0.0009,-0.00091,-0.00071,-0.00071,0.0,0.00084,0.6566,0.6566,0.6566,,0.67,,False,0.0,0.0,0.0,0.0,0.0,-5.8338,-12.8883,0.009,True,False,Mode(963497464),0.6751,36,0.6561
1.925,THRUST_SEARCH,OPEN_LOOP,-0.0009,-0.00091,-0.001,-0.00091,0.0,0.00081,0.657,0.657,0.657,,0.67,,False,0.0,0.0,0.0,0.0,0.0,-5.8338,-12.9274,0.005,True,False,Mode(963497464),0.686,36,0.6561
1.936,THRUST_SEARCH,OPEN_LOOP,-0.0009,-0.00091,-0.00097,-0.00091,0.0,0.00078,0.6574,0.6574,0.6574,,0.67,,False,0.0,0.0,0.0,0.0,0.0,-5.8338,-12.9364,0.0067,True,False,Mode(963497464),0.6967,36,0.6561
1.947,THRUST_SEARCH,OPEN_LOOP,-0.0009,-0.00091,-0.001,-0.00091,0.0,0.00074,0.6579,0.6579,0.6579,,0.67,,False,0.0,0.0,0.0,0.0,0.0,-5.8338,-12.9476,0.009,True,False,Mode(963497464),0.7077,36,0.6561
1.957,THRUST_SEARCH,OPEN_LOOP,-0.0009,-0.0009,-0.00091,-0.0009,0.0,0.00074,0.6583,0.6583,0.6583,,0.67,,False,0.0,0.0,0.0,0.0,0.0,-5.8338,-12.9629,0.0015,True,True,Mode(963497464),0.7182,36,0.6561
1.968,THRUST_SEARCH,OPEN_LOOP,-0.0009,-0.0009,-0.00095,-0.0009,0.0,0.00072,0.6587,0.6587,0.6587,,0.67,,False,0.0,0.0,0.0,0.0,0.0,-5.8338,-12.9658,0.0062,True,False,Mode(963497464),0.7293,37,0.6583
1.979,THRUST_SEARCH,OPEN_LOOP,-0.0009,-0.0009,-0.00096,-0.0009,0.0,0.0007,0.6592,0.6592,0.6592,,0.67,,False,0.0,0.0,0.0,0.0,0.0,-5.8338,-12.9681,0.008,True,False,Mode(963497464),0.7401,37,0.6583
1.99,THRUST_SEARCH,OPEN_LOOP,-0.0009,-0.00088,-0.0008,-0.0008,0.0,0.00073,0.6596,0.6596,0.6596,,0.67,,False,0.0,0.0,0.0,0.0,0.0,-5.8338,-12.962,0.001,True,False,Mode(963497464),0.7511,37,0.6583
2.001,THRUST_SEARCH,OPEN_LOOP,-0.0009,-0.00088,-0.00096,-0.00088,0.0,0.0007,0.66,0.66,0.66,,0.67,,False,0.0,0.0,0.0,0.0,0.0,-5.8338,-12.9666,0.006,True,False,Mode(963497464),0.762,37,0.6583
2.012,THRUST_SEARCH,OPEN_LOOP,-0.0009,-0.00088,-0.00098,-0.00088,0.0,0.00066,0.6605,0.6605,0.6605,,0.67,,False,0.0,0.0,0.0,0.0,0.0,-5.8338,-12.9709,0.008,True,True,Mode(963497464),0.773,37,0.6583
2.023,THRUST_SEARCH,OPEN_LOOP,-0.0009,-0.00088,-0.00097,-0.00088,0.0,0.00062,0.6609,0.6609,0.6609,,0.67,,False,0.0,0.0,0.0,0.0,0.0,-5.8338,-12.9788,0.001,True,False,Mode(963497464),0.784,38,0.6605
2.034,THRUST_SEARCH,OPEN_LOOP,-0.0009,-0.00088,-0.00097,-0.00088,0.0,0.00059,0.6614,0.6614,0.6614,,0.67,,False,0.0,0.0,0.0,0.0,0.0,-5.8338,-12.9845,0.003,True,False,Mode(963497464),0.795,38,0.6605
2.045,THRUST_SEARCH,OPEN_LOOP,-0.0009,-0.00089,-0.00098,-0.00089,0.0,0.00056,0.6618,0.6618,0.6618,,0.67,,False,0.0,0.0,0.0,0.0,0.0,-5.8338,-12.9838,0.008,True,False,Mode(963497464),0.8059,38,0.6605
2.056,THRUST_SEARCH,OPEN_LOOP,-0.0009,-0.00089,-0.00095,-0.00089,0.0,0.00053,0.6622,0.6622,0.6622,,0.67,,False,0.0,0.0,0.0,0.0,0.0,-5.8338,-12.9788,0.001,True,False,Mode(963497464),0.8169,38,0.6605
2.067,THRUST_SEARCH,OPEN_LOOP,-0.0009,-0.00088,-0.00083,-0.00083,0.0,0.00055,0.6627,0.6627,0.6627,,0.67,,False,0.0,0.0,0.0,0.0,0.0,-5.8338,-12.9742,0.003,True,True,Mode(963497464),0.8279,38,0.6605
2.078,THRUST_SEARCH,OPEN_LOOP,-0.0009,-0.00088,-0.001,-0.00088,0.0,0.0005,0.6631,0.6631,0.6631,,0.67,,False,0.0,0.0,0.0,0.0,0.0,-5.8338,-12.9798,0.008,True,False,Mode(963497464),0.8389,39,0.6627
2.089,THRUST_SEARCH,OPEN_LOOP,-0.0009,-0.00089,-0.00097,-0.00089,0.0,0.00047,0.6635,0.6635,0.6635,,0.67,,False,0.0,0.0,0.0,0.0,0.0,-5.8338,-12.9765,0.001,True,False,Mode(963497464),0.8498,39,0.6627
2.1,THRUST_SEARCH,OPEN_LOOP,-0.0009,-0.00089,-0.00095,-0.00089,0.0,0.00044,0.664,0.664,0.664,,0.67,,False,0.0,0.0,0.0,0.0,0.0,-5.8338,-12.9728,0.003,True,False,Mode(963497464),0.8608,39,0.6627
2.111,THRUST_SEARCH,OPEN_LOOP,-0.0009,-0.00089,-0.00099,-0.00089,0.0,0.0004,0.6644,0.6644,0.6644,,0.67,,False,0.0,0.0,0.0,0.0,0.0,-5.8338,-12.9765,0.005,True,False,Mode(963497464),0.8718,39,0.6627
2.122,THRUST_SEARCH,OPEN_LOOP,-0.0009,-0.00089,-0.00095,-0.00089,0.0,0.00038,0.6649,0.6649,0.6649,,0.67,,False,0.0,0.0,0.0,0.0,0.0,-5.8338,-12.9771,0.001,True,True,Mode(963497464),0.8827,39,0.6627
2.133,THRUST_SEARCH,OPEN_LOOP,-0.0009,-0.0009,-0.00097,-0.0009,0.0,0.00035,0.6653,0.6653,0.6653,,0.67,,False,0.0,0.0,0.0,0.0,0.0,-5.8338,-12.982,0.003,True,False,Mode(963497464),0.8937,40,0.6649
2.143,THRUST_SEARCH,OPEN_LOOP,-0.0009,-0.0009,-0.00095,-0.0009,0.0,0.00033,0.6657,0.6657,0.6657,,0.67,,False,0.0,0.0,0.0,0.0,0.0,-5.8338,-12.985,0.0045,True,False,Mode(963497464),0.9042,40,0.6649
2.154,THRUST_SEARCH,OPEN_LOOP,-0.0009,-0.0009,-0.00099,-0.0009,0.0,0.00029,0.6662,0.6662,0.6662,,0.67,,False,0.0,0.0,0.0,0.0,0.0,-5.8338,-12.9899,0.007,True,False,Mode(963497464),0.9152,40,0.6649
2.165,THRUST_SEARCH,OPEN_LOOP,-0.0009,-0.00089,-0.00081,-0.00081,0.0,0.00032,0.6666,0.6666,0.6666,,0.67,,False,0.0,0.0,0.0,0.0,0.0,-5.8338,-12.9831,0.003,True,False,Mode(963497464),0.9261,40,0.6649
2.177,THRUST_SEARCH,OPEN_LOOP,-0.0009,-0.00089,-0.00097,-0.00089,0.0,0.00029,0.667,0.667,0.667,,0.67,,False,0.0,0.0,0.0,0.0,0.0,-5.8338,-12.9837,0.005,True,True,Mode(963497464),0.9371,40,0.6649
2.186,THRUST_SEARCH,OPEN_LOOP,-0.0009,-0.0009,-0.00097,-0.0009,0.0,0.00027,0.6675,0.6675,0.6675,,0.67,,False,0.0,0.0,0.0,0.0,0.0,-5.8338,-12.989,0.007,True,False,Mode(963497464),0.9476,41,0.667
2.197,THRUST_SEARCH,OPEN_LOOP,-0.0009,-0.0009,-0.001,-0.0009,0.0,0.00023,0.6679,0.6679,0.6679,,0.67,,False,0.0,0.0,0.0,0.0,0.0,-5.8338,-12.9906,0.009,True,False,Mode(963497464),0.9581,41,0.667
2.208,THRUST_SEARCH,OPEN_LOOP,-0.0009,-0.00091,-0.00097,-0.00091,0.0,0.0002,0.6683,0.6683,0.6683,,0.67,,False,0.0,0.0,0.0,0.0,0.0,-5.8338,-12.9876,0.005,True,False,Mode(963497464),0.9691,41,0.667
2.219,THRUST_SEARCH,OPEN_LOOP,-0.0009,-0.00091,-0.00098,-0.00091,0.0,0.00018,0.6688,0.6688,0.6688,,0.67,,False,0.0,0.0,0.0,0.0,0.0,-5.8338,-12.9878,0.007,True,False,Mode(963497464),0.98,41,0.667
2.231,THRUST_SEARCH,OPEN_LOOP,-0.0009,-0.00091,-0.00097,-0.00091,0.0,0.00016,0.6692,0.6692,0.6692,,0.67,,False,0.0,0.0,0.0,0.0,0.0,-5.8338,-12.9849,0.0006,True,True,Mode(963497464),0.9916,41,0.667
2.24,THRUST_SEARCH,OPEN_LOOP,-0.0009,-0.00092,-0.00097,-0.00092,0.0,0.00014,0.6696,0.6696,0.6696,,0.67,,False,0.0,0.0,0.0,0.0,0.0,-5.8338,-12.9847,0.0015,True,False,Mode(963497464),0.0,42,0.6692
2.251,THRUST_SEARCH,OPEN_LOOP,-0.0009,-0.00092,-0.00097,-0.00092,0.0,0.00012,0.67,0.67,0.67,,0.67,,False,0.0,0.0,0.0,0.0,0.0,-5.8338,-12.9873,0.0035,True,False,Mode(963497464),0.0105,42,0.6692
2.262,THRUST_SEARCH,OPEN_LOOP,-0.0009,-0.00092,-0.00097,-0.00092,0.0,0.0001,0.6705,0.6705,0.6705,,0.67,,False,0.0,0.0,0.0,0.0,0.0,-5.8338,-12.9888,0.006,True,False,Mode(963497464),0.0215,42,0.6692
2.272,THRUST_SEARCH,OPEN_LOOP,-0.0009,-0.00093,-0.00098,-0.00093,0.0,8e-05,0.6709,0.6709,0.6709,,0.67,,False,0.0,0.0,0.0,0.0,0.0,-5.8338,-12.9885,0.0015,True,False,Mode(963497464),0.032,42,0.6692
2.283,THRUST_SEARCH,OPEN_LOOP,-0.0009,-0.00093,-0.00094,-0.00093,0.0,8e-05,0.6713,0.6713,0.6713,,0.67,,False,0.0,0.0,0.0,0.0,0.0,-5.8338,-12.9919,0.003,True,True,Mode(963497464),0.0429,42,0.6692
2.294,THRUST_SEARCH,OPEN_LOOP,-0.0009,-0.0009,-0.00059,-0.00059,0.0,0.0002,0.6718,0.6718,0.6718,,0.67,,False,0.0,0.0,0.0,0.0,0.0,-5.8338,-12.9474,0.0042,True,False,Mode(963497464),0.0541,43,0.6713
2.305,THRUST_SEARCH,OPEN_LOOP,-0.0009,-0.00088,-0.00073,-0.00073,0.0,0.00026,0.6722,0.6722,0.6722,,0.67,,False,0.0,0.0,0.0,0.0,0.0,-5.8338,-12.9146,0.009,True,False,Mode(963497464),0.065,43,0.6713
2.316,THRUST_SEARCH,OPEN_LOOP,-0.0009,-0.00087,-0.00083,-0.00083,0.0,0.00027,0.6727,0.6727,0.6727,,0.67,,False,0.0,0.0,0.0,0.0,0.0,-5.8338,-12.8963,0.002,True,False,Mode(963497464),0.076,43,0.6713
2.327,THRUST_SEARCH,OPEN_LOOP,-0.0008,-0.00085,-0.00061,-0.00061,0.0,0.00037,0.6731,0.6731,0.6731,,0.67,,False,0.0,0.0,0.0,0.0,0.0,-5.8338,-12.8659,0.007,True,False,Mode(963497464),0.087,43,0.6713
2.339,THRUST_SEARCH,OPEN_LOOP,-0.0009,-0.00086,-0.00098,-0.00086,0.0,0.00032,0.6736,0.6736,0.6736,,0.67,,False,0.0,0.0,0.0,0.0,0.0,-5.8338,-12.8726,0.0013,True,True,Mode(963497464),0.0988,43,0.6713
2.35,THRUST_SEARCH,OPEN_LOOP,-0.0008,-0.00083,-0.00057,-0.00057,0.0,0.00042,0.674,0.674,0.674,,0.67,,False,0.0,0.0,0.0,0.0,0.0,-5.8338,-12.8446,0.003,True,False,Mode(963497464),0.1097,44,0.6736
2.361,THRUST_SEARCH,OPEN_LOOP,-0.0008,-0.00082,-0.00073,-0.00073,0.0,0.00045,0.6744,0.6744,0.6744,,0.67,,False,0.0,0.0,0.0,0.0,0.0,-5.8338,-12.8334,0.008,True,False,Mode(963497464),0.1207,44,0.6736
2.372,THRUST_SEARCH,OPEN_LOOP,-0.0008,-0.00082,-0.00097,-0.00082,0.0,0.0004,0.6749,0.6749,0.6749,,0.67,,False,0.0,0.0,0.0,0.0,0.0,-5.8338,-12.8858,0.001,True,False,Mode(963497464),0.1317,44,0.6736
2.383,THRUST_SEARCH,OPEN_LOOP,-0.0008,-0.00083,-0.00096,-0.00083,0.0,0.00035,0.6753,0.6753,0.6753,,0.67,,False,0.0,0.0,0.0,0.0,0.0,-5.8338,-12.9046,0.003,True,False,Mode(963497464),0.1426,44,0.6736
2.393,THRUST_SEARCH,OPEN_LOOP,-0.0008,-0.00084,-0.00096,-0.00084,0.0,0.0003,0.6757,0.6757,0.6757,,0.67,,False,0.0,0.0,0.0,0.0,0.0,-5.8338,-12.9193,0.0045,True,True,Mode(963497464),0.1531,44,0.6736
2.404,THRUST_SEARCH,OPEN_LOOP,-0.0009,-0.00085,-0.001,-0.00085,0.0,0.00024,0.6762,0.6762,0.6762,,0.67,,False,0.0,0.0,0.0,0.0,0.0,-5.8338,-12.9463,0.001,True,False,Mode(963497464),0.1641,45,0.6757
2.415,THRUST_SEARCH,OPEN_LOOP,-0.0009,-0.00086,-0.00097,-0.00086,0.0,0.0002,0.6766,0.6766,0.6766,,0.67,,False,0.0,0.0,0.0,0.0,0.0,-5.8338,-12.9555,0.003,True,False,Mode(963497464),0.1751,45,0.6757
2.426,THRUST_SEARCH,OPEN_LOOP,-0.0009,-0.00087,-0.00098,-0.00087,0.0,0.00015,0.677,0.677,0.677,,0.67,,False,0.0,0.0,0.0,0.0,0.0,-5.8338,-12.9634,0.0045,True,False,Mode(963497464),0.1855,45,0.6757
2.436,THRUST_SEARCH,OPEN_LOOP,-0.0009,-0.00086,-0.00082,-0.00082,0.0,0.00017,0.6775,0.6775,0.6775,,0.67,,False,0.0,0.0,0.0,0.0,0.0,-5.8338,-12.9581,0.0066,True,False,Mode(963497464),0.1962,45,0.6757
2.449,THRUST_SEARCH,OPEN_LOOP,-0.0009,-0.00087,-0.00096,-0.00087,0.0,0.00013,0.6779,0.6779,0.6779,,0.67,,False,0.0,0.0,0.0,0.0,0.0,-5.8338,-12.9648,0.009,True,True,Mode(963497464),0.2071,45,0.6757
2.458,THRUST_SEARCH,OPEN_LOOP,-0.0009,-0.00088,-0.00097,-0.00088,0.0,0.0001,0.6783,0.6783,0.6783,,0.67,,False,0.0,0.0,0.0,0.0,0.0,-5.8338,-12.9751,0.004,True,False,Mode(963497464),0.2181,46,0.6779
2.469,THRUST_SEARCH,OPEN_LOOP,-0.0009,-0.00088,-0.00098,-0.00088,0.0,6e-05,0.6788,0.6788,0.6788,,0.67,,False,0.0,0.0,0.0,0.0,0.0,-5.8338,-12.9777,0.0066,True,False,Mode(963497464),0.2288,46,0.6779
2.48,THRUST_SEARCH,OPEN_LOOP,-0.0009,-0.00089,-0.00095,-0.00089,0.0,4e-05,0.6792,0.6792,0.6792,,0.67,,False,0.0,0.0,0.0,0.0,0.0,-5.8338,-12.9786,0.009,True,False,Mode(963497464),0.2398,46,0.6779
2.491,THRUST_SEARCH,OPEN_LOOP,-0.0009,-0.0009,-0.00098,-0.0009,0.0,0.0,0.6796,0.6796,0.6796,,0.67,,False,0.0,0.0,0.0,0.0,0.0,-5.8338,-12.9854,0.004,True,False,Mode(963497464),0.2508,46,0.6779
2.502,THRUST_SEARCH,OPEN_LOOP,-0.0009,-0.0009,-0.001,-0.0009,0.0,-3e-05,0.6801,0.6801,0.6801,,0.67,,False,0.0,0.0,0.0,0.0,0.0,-5.8338,-12.9917,0.0068,True,True,Mode(963497464),0.2621,46,0.6779
2.513,THRUST_SEARCH,OPEN_LOOP,-0.0009,-0.00091,-0.00097,-0.00091,0.0,-6e-05,0.6805,0.6805,0.6805,,0.67,,False,0.0,0.0,0.0,0.0,0.0,-5.8338,-12.9936,0.009,True,False,Mode(963497464),0.273,47,0.6801
2.524,THRUST_SEARCH,OPEN_LOOP,-0.0009,-0.00092,-0.001,-0.00092,0.0,-9e-05,0.681,0.681,0.681,,0.67,,False,0.0,0.0,0.0,0.0,0.0,-5.8338,-12.9968,0.0105,True,False,Mode(963497464),0.2835,47,0.6801
2.535,THRUST_SEARCH,OPEN_LOOP,-0.0009,-0.00093,-0.001,-0.00093,0.0,-0.00012,0.6814,0.6814,0.6814,,0.67,,False,0.0,0.0,0.0,0.0,0.0,-5.8338,-12.9922,0.004,True,False,Mode(963497464),0.2945,47,0.6801
2.547,THRUST_SEARCH,OPEN_LOOP,-0.0009,-0.00093,-0.00096,-0.00093,0.0,-0.00013,0.6819,0.6819,0.6819,,0.67,,False,0.0,0.0,0.0,0.0,0.0,-5.8338,-12.9947,0.0007,True,False,Mode(963497464),0.3062,47,0.6801
2.556,THRUST_SEARCH,OPEN_LOOP,-0.0009,-0.00093,-0.00096,-0.00093,0.0,-0.00014,0.6823,0.6823,0.6823,,0.67,,False,0.0,0.0,0.0,0.0,0.0,-5.8338,-12.9948,0.0015,True,True,Mode(963497464),0.316,47,0.6801
2.567,THRUST_SEARCH,OPEN_LOOP,-0.0009,-0.00094,-0.00099,-0.00094,0.0,-0.00016,0.6827,0.6827,0.6827,,0.67,,False,0.0,0.0,0.0,0.0,0.0,-5.8338,-12.9971,0.0031,True,False,Mode(963497464),0.327,48,0.6823
2.578,THRUST_SEARCH,OPEN_LOOP,-0.0009,-0.00094,-0.00097,-0.00094,0.0,-0.00017,0.6831,0.6831,0.6831,,0.67,,False,0.0,0.0,0.0,0.0,0.0,-5.8338,-12.9992,0.008,True,False,Mode(963497464),0.3379,48,0.6823
2.589,THRUST_SEARCH,OPEN_LOOP,-0.0009,-0.00095,-0.00096,-0.00095,0.0,-0.00017,0.6835,0.6835,0.6835,,0.67,,False,0.0,0.0,0.0,0.0,0.0,-5.8338,-13.0014,0.001,True,False,Mode(963497464),0.3484,48,0.6823
2.6,THRUST_SEARCH,OPEN_LOOP,-0.0009,-0.00095,-0.00095,-0.00095,0.0,-0.00017,0.684,0.684,0.684,,0.67,,False,0.0,0.0,0.0,0.0,0.0,-5.8338,-12.9928,0.003,True,False,Mode(963497464),0.3594,48,0.6823
2.61,THRUST_SEARCH,OPEN_LOOP,-0.001,-0.00096,-0.001,-0.00096,0.0,-0.00019,0.6844,0.6844,0.6844,,0.67,,False,0.0,0.0,0.0,0.0,0.0,-5.8338,-12.9907,0.0045,True,True,Mode(963497464),0.3698,48,0.6823
2.621,THRUST_SEARCH,OPEN_LOOP,-0.001,-0.00096,-0.00098,-0.00096,0.0,-0.00019,0.6848,0.6848,0.6848,,0.67,,False,0.0,0.0,0.0,0.0,0.0,-5.8338,-12.9936,0.001,True,False,Mode(963497464),0.3808,49,0.6844
2.632,THRUST_SEARCH,OPEN_LOOP,-0.001,-0.00096,-0.00098,-0.00096,0.0,-0.0002,0.6853,0.6853,0.6853,,0.67,,False,0.0,0.0,0.0,0.0,0.0,-5.8338,-12.9956,0.003,True,False,Mode(963497464),0.3918,49,0.6844
2.643,THRUST_SEARCH,OPEN_LOOP,-0.001,-0.00097,-0.001,-0.00097,0.0,-0.00021,0.6857,0.6857,0.6857,,0.67,,False,0.0,0.0,0.0,0.0,0.0,-5.8338,-12.997,0.005,True,False,Mode(963497464),0.4027,49,0.6844
2.654,THRUST_SEARCH,OPEN_LOOP,-0.001,-0.00096,-0.00083,-0.00083,0.0,-0.00016,0.6862,0.6862,0.6862,,0.67,,False,0.0,0.0,0.0,0.0,0.0,-5.8338,-12.9927,0.007,True,False,Mode(963497464),0.4136,49,0.6844
2.664,THRUST_SEARCH,OPEN_LOOP,-0.001,-0.00096,-0.001,-0.00096,0.0,-0.00017,0.6866,0.6866,0.6866,,0.67,,False,0.0,0.0,0.0,0.0,0.0,-5.8338,-12.9994,0.0031,True,True,Mode(963497464),0.4242,49,0.6844
2.675,THRUST_SEARCH,OPEN_LOOP,-0.001,-0.00097,-0.00098,-0.00097,0.0,-0.00018,0.687,0.687,0.687,,0.67,,False,0.0,0.0,0.0,0.0,0.0,-5.8338,-12.998,0.005,True,False,Mode(963497464),0.435,50,0.6866
2.687,THRUST_SEARCH,OPEN_LOOP,-0.001,-0.00097,-0.00099,-0.00097,0.0,-0.00019,0.6875,0.6875,0.6875,,0.67,,False,0.0,0.0,0.0,0.0,0.0,-5.8338,-12.995,0.0074,True,False,Mode(963497464),0.4465,50,0.6866
2.698,THRUST_SEARCH,OPEN_LOOP,-0.001,-0.00097,-0.00097,-0.00097,0.0,-0.00019,0.6879,0.6879,0.6879,,0.67,,False,0.0,0.0,0.0,0.0,0.0,-5.8338,-12.9947,0.001,True,False,Mode(963497464),0.4574,50,0.6866
2.709,THRUST_SEARCH,OPEN_LOOP,-0.001,-0.00097,-0.00094,-0.00094,0.0,-0.00018,0.6884,0.6884,0.6884,,0.67,,False,0.0,0.0,0.0,0.0,0.0,-5.8338,-12.994,0.003,True,False,Mode(963497464),0.4684,50,0.6866
2.719,THRUST_SEARCH,OPEN_LOOP,-0.001,-0.00097,-0.00093,-0.00093,0.0,-0.00016,0.6888,0.6888,0.6888,,0.67,,False,0.0,0.0,0.0,0.0,0.0,-5.8338,-12.9902,0.0072,True,True,Mode(963497464),0.4787,50,0.6866
2.73,THRUST_SEARCH,OPEN_LOOP,-0.001,-0.00097,-0.00099,-0.00097,0.0,-0.00017,0.6892,0.6892,0.6892,,0.67,,False,0.0,0.0,0.0,0.0,0.0,-5.8338,-12.9891,0.001,True,False,Mode(963497464),0.4896,51,0.6888
2.741,THRUST_SEARCH,OPEN_LOOP,-0.001,-0.00097,-0.00097,-0.00097,0.0,-0.00017,0.6896,0.6896,0.6896,,0.67,,False,0.0,0.0,0.0,0.0,0.0,-5.8338,-12.9903,0.003,True,False,Mode(963497464),0.5006,51,0.6888
2.751,THRUST_SEARCH,OPEN_LOOP,-0.001,-0.00098,-0.001,-0.00098,0.0,-0.00017,0.6901,0.6901,0.6901,,0.67,,False,0.0,0.0,0.0,0.0,0.0,-5.8338,-12.9914,0.0045,True,False,Mode(963497464),0.5111,51,0.6888
2.762,THRUST_SEARCH,OPEN_LOOP,-0.001,-0.00098,-0.00097,-0.00097,0.0,-0.00017,0.6905,0.6905,0.6905,,0.67,,False,0.0,0.0,0.0,0.0,0.0,-5.8338,-12.9923,0.007,True,False,Mode(963497464),0.5221,51,0.6888
2.773,THRUST_SEARCH,OPEN_LOOP,-0.001,-0.00098,-0.00099,-0.00098,0.0,-0.00017,0.6909,0.6909,0.6909,,0.67,,False,0.0,0.0,0.0,0.0,0.0,-5.8338,-12.991,0.003,True,True,Mode(963497464),0.533,51,0.6888
2.784,THRUST_SEARCH,OPEN_LOOP,-0.001,-0.00098,-0.00095,-0.00095,0.0,-0.00016,0.6914,0.6914,0.6914,,0.67,,False,0.0,0.0,0.0,0.0,0.0,-5.8338,-12.9913,0.005,True,False,Mode(963497464),0.544,52,0.6909
2.795,THRUST_SEARCH,OPEN_LOOP,-0.001,-0.00098,-0.00097,-0.00097,0.0,-0.00015,0.6918,0.6918,0.6918,,0.67,,False,0.0,0.0,0.0,0.0,0.0,-5.8338,-12.9942,0.0069,True,False,Mode(963497464),0.5549,52,0.6909
2.806,THRUST_SEARCH,OPEN_LOOP,-0.001,-0.00098,-0.00096,-0.00096,0.0,-0.00014,0.6922,0.6922,0.6922,,0.67,,False,0.0,0.0,0.0,0.0,0.0,-5.8338,-12.99,0.003,True,False,Mode(963497464),0.5658,52,0.6909
2.817,THRUST_SEARCH,OPEN_LOOP,-0.001,-0.00097,-0.00085,-0.00085,0.0,-0.0001,0.6927,0.6927,0.6927,,0.67,,False,0.0,0.0,0.0,0.0,0.0,-5.8338,-12.9827,0.0045,True,False,Mode(963497464),0.5763,52,0.6909
2.828,THRUST_SEARCH,OPEN_LOOP,-0.001,-0.00097,-0.00099,-0.00097,0.0,-0.00011,0.6931,0.6931,0.6931,,0.67,,False,0.0,0.0,0.0,0.0,0.0,-5.8338,-12.9842,0.0072,True,True,Mode(963497464),0.5874,52,0.6909
2.839,THRUST_SEARCH,OPEN_LOOP,-0.001,-0.00097,-0.00098,-0.00097,0.0,-0.00011,0.6935,0.6935,0.6935,,0.67,,False,0.0,0.0,0.0,0.0,0.0,-5.8338,-12.994,0.001,True,False,Mode(963497464),0.5984,53,0.6931
2.85,THRUST_SEARCH,OPEN_LOOP,-0.001,-0.00097,-0.00097,-0.00097,0.0,-0.0001,0.694,0.694,0.694,,0.67,,False,0.0,0.0,0.0,0.0,0.0,-5.8338,-12.994,0.003,True,False,Mode(963497464),0.6094,53,0.6931
2.86,THRUST_SEARCH,OPEN_LOOP,-0.001,-0.00098,-0.00099,-0.00098,0.0,-0.00011,0.6944,0.6944,0.6944,,0.67,,False,0.0,0.0,0.0,0.0,0.0,-5.8338,-12.9914,0.0045,True,False,Mode(963497464),0.6198,53,0.6931
2.871,THRUST_SEARCH,OPEN_LOOP,-0.001,-0.00098,-0.00099,-0.00098,0.0,-0.00011,0.6948,0.6948,0.6948,,0.67,,False,0.0,0.0,0.0,0.0,0.0,-5.8338,-12.9959,0.001,True,False,Mode(963497464),0.6308,53,0.6931
2.882,THRUST_SEARCH,OPEN_LOOP,-0.001,-0.00098,-0.00098,-0.00098,0.0,-0.00011,0.6953,0.6953,0.6953,,0.67,,False,0.0,0.0,0.0,0.0,0.0,-5.8338,-12.9946,0.0031,True,True,Mode(963497464),0.6419,53,0.6931
2.893,THRUST_SEARCH,OPEN_LOOP,-0.001,-0.00097,-0.00086,-0.00086,0.0,-7e-05,0.6957,0.6957,0.6957,,0.67,,False,0.0,0.0,0.0,0.0,0.0,-5.8338,-12.9863,0.005,True,False,Mode(963497464),0.6528,54,0.6953
2.904,THRUST_SEARCH,OPEN_LOOP,-0.001,-0.00096,-0.00082,-0.00082,0.0,-2e-05,0.6962,0.6962,0.6962,,0.67,,False,0.0,0.0,0.0,0.0,0.0,-5.8338,-12.9798,0.001,True,False,Mode(963497464),0.6637,54,0.6953
2.915,THRUST_SEARCH,OPEN_LOOP,-0.001,-0.00096,-0.00097,-0.00096,0.0,-2e-05,0.6966,0.6966,0.6966,,0.67,,False,0.0,0.0,0.0,0.0,0.0,-5.8338,-12.9846,0.003,True,False,Mode(963497464),0.6747,54,0.6953
2.926,THRUST_SEARCH,OPEN_LOOP,-0.001,-0.00096,-0.00096,-0.00096,0.0,-2e-05,0.697,0.697,0.697,,0.67,,False,0.0,0.0,0.0,0.0,0.0,-5.8338,-12.9864,0.0047,True,False,Mode(963497464),0.6853,54,0.6953
2.937,THRUST_SEARCH,OPEN_LOOP,-0.0009,-0.00095,-0.00083,-0.00083,0.0,3e-05,0.6975,0.6975,0.6975,,0.67,,False,0.0,0.0,0.0,0.0,0.0,-5.8338,-12.9811,0.0069,True,True,Mode(963497464),0.6963,54,0.6953
2.949,THRUST_SEARCH,OPEN_LOOP,-0.0009,-0.00094,-0.0008,-0.0008,0.0,8e-05,0.6979,0.6979,0.6979,,0.67,,False,0.0,0.0,0.0,0.0,0.0,-5.8338,-12.9707,0.009,True,False,Mode(963497464),0.7072,55,0.6975
2.959,THRUST_SEARCH,OPEN_LOOP,-0.0009,-0.00094,-0.00097,-0.00094,0.0,7e-05,0.6983,0.6983,0.6983,,0.67,,False,0.0,0.0,0.0,0.0,0.0,-5.8338,-12.978,0.005,True,False,Mode(963497464),0.7182,55,0.6975
2.969,THRUST_SEARCH,OPEN_LOOP,-0.0009,-0.00094,-0.001,-0.00094,0.0,4e-05,0.6988,0.6988,0.6988,,0.67,,False,0.0,0.0,0.0,0.0,0.0,-5.8338,-12.9809,0.0068,True,False,Mode(963497464),0.729,55,0.6975
2.98,THRUST_SEARCH,OPEN_LOOP,-0.0009,-0.00095,-0.00098,-0.00095,0.0,3e-05,0.6992,0.6992,0.6992,,0.67,,False,0.0,0.0,0.0,0.0,0.0,-5.8338,-12.9802,0.009,True,False,Mode(963497464),0.74,55,0.6975
2.991,THRUST_SEARCH,OPEN_LOOP,-0.0009,-0.00095,-0.001,-0.00095,0.0,1e-05,0.6997,0.6997,0.6997,,0.67,,False,0.0,0.0,0.0,0.0,0.0,-5.8338,-12.9831,0.005,True,True,Mode(963497464),0.751,55,0.6975
3.002,THRUST_SEARCH,OPEN_LOOP,-0.001,-0.00095,-0.00099,-0.00095,0.0,-0.0,0.7001,0.7001,0.7001,,0.67,,False,0.0,0.0,0.0,0.0,0.0,-5.8338,-12.9836,0.007,True,False,Mode(963497464),0.762,56,0.6997
3.013,THRUST_SEARCH,OPEN_LOOP,-0.001,-0.00096,-0.001,-0.00096,0.0,-2e-05,0.7005,0.7005,0.7005,,0.67,,False,0.0,0.0,0.0,0.0,0.0,-5.8338,-12.986,0.009,True,False,Mode(963497464),0.773,56,0.6997
3.024,THRUST_SEARCH,OPEN_LOOP,-0.001,-0.00096,-0.00096,-0.00096,0.0,-2e-05,0.701,0.701,0.701,,0.67,,False,0.0,0.0,0.0,0.0,0.0,-5.8338,-12.988,0.002,True,False,Mode(963497464),0.7839,56,0.6997
3.035,THRUST_SEARCH,OPEN_LOOP,-0.001,-0.00096,-0.00098,-0.00096,0.0,-2e-05,0.7014,0.7014,0.7014,,0.67,,False,0.0,0.0,0.0,0.0,0.0,-5.8338,-12.9864,0.0066,True,False,Mode(963497464),0.7945,56,0.6997
3.046,THRUST_SEARCH,OPEN_LOOP,-0.001,-0.00096,-0.001,-0.00096,0.0,-4e-05,0.7018,0.7018,0.7018,,0.67,,False,0.0,0.0,0.0,0.0,0.0,-5.8338,-12.9847,0.009,True,True,Mode(963497464),0.8055,56,0.6997
3.057,THRUST_SEARCH,OPEN_LOOP,-0.001,-0.00096,-0.00094,-0.00094,0.0,-3e-05,0.7023,0.7023,0.7023,,0.67,,False,0.0,0.0,0.0,0.0,0.0,-5.8338,-12.9868,0.002,True,False,Mode(963497464),0.8164,57,0.7018
3.067,THRUST_SEARCH,OPEN_LOOP,-0.001,-0.00096,-0.00097,-0.00096,0.0,-3e-05,0.7027,0.7027,0.7027,,0.67,,False,0.0,0.0,0.0,0.0,0.0,-5.8338,-12.9946,0.0037,True,False,Mode(963497464),0.8271,57,0.7018
3.078,THRUST_SEARCH,OPEN_LOOP,-0.001,-0.00096,-0.00098,-0.00096,0.0,-4e-05,0.7031,0.7031,0.7031,,0.67,,False,0.0,0.0,0.0,0.0,0.0,-5.8338,-12.994,0.006,True,False,Mode(963497464),0.8381,57,0.7018
3.089,THRUST_SEARCH,OPEN_LOOP,-0.001,-0.00096,-0.00096,-0.00096,0.0,-4e-05,0.7036,0.7036,0.7036,,0.67,,False,0.0,0.0,0.0,0.0,0.0,-5.8338,-12.9984,0.0015,True,False,Mode(963497464),0.8485,57,0.7018
3.1,THRUST_SEARCH,OPEN_LOOP,-0.001,-0.00097,-0.00097,-0.00097,0.0,-4e-05,0.704,0.704,0.704,,0.67,,False,0.0,0.0,0.0,0.0,0.0,-5.8338,-12.9954,0.0037,True,True,Mode(963497464),0.8592,57,0.7018
3.111,THRUST_SEARCH,OPEN_LOOP,-0.001,-0.00097,-0.00097,-0.00097,0.0,-4e-05,0.7044,0.7044,0.7044,,0.67,,False,0.0,0.0,0.0,0.0,0.0,-5.8338,-12.9962,0.006,True,False,Mode(963497464),0.8702,58,0.704
3.121,THRUST_SEARCH,OPEN_LOOP,-0.001,-0.00097,-0.00099,-0.00097,0.0,-5e-05,0.7048,0.7048,0.7048,,0.67,,False,0.0,0.0,0.0,0.0,0.0,-5.8338,-12.9961,0.0076,True,False,Mode(963497464),0.8808,58,0.704
3.132,THRUST_SEARCH,OPEN_LOOP,-0.001,-0.00097,-0.00094,-0.00094,0.0,-4e-05,0.7053,0.7053,0.7053,,0.67,,False,0.0,0.0,0.0,0.0,0.0,-5.8338,-13.0004,0.001,True,False,Mode(963497464),0.8918,58,0.704
3.143,THRUST_SEARCH,OPEN_LOOP,-0.001,-0.00097,-0.00101,-0.00097,0.0,-5e-05,0.7057,0.7057,0.7057,,0.67,,False,0.0,0.0,0.0,0.0,0.0,-5.8338,-13.0058,0.006,True,False,Mode(963497464),0.9027,58,0.704
3.154,THRUST_SEARCH,OPEN_LOOP,-0.001,-0.00097,-0.00098,-0.00097,0.0,-6e-05,0.7062,0.7062,0.7062,,0.67,,False,0.0,0.0,0.0,0.0,0.0,-5.8338,-13.0048,0.008,True,True,Mode(963497464),0.9137,58,0.704
3.165,THRUST_SEARCH,OPEN_LOOP,-0.001,-0.00097,-0.00095,-0.00095,0.0,-5e-05,0.7066,0.7066,0.7066,,0.67,,False,0.0,0.0,0.0,0.0,0.0,-5.8338,-12.9986,0.0015,True,False,Mode(963497464),0.925,59,0.7062
3.176,THRUST_SEARCH,OPEN_LOOP,-0.001,-0.00097,-0.00098,-0.00097,0.0,-5e-05,0.7071,0.7071,0.7071,,0.67,,False,0.0,0.0,0.0,0.0,0.0,-5.8338,-12.9934,0.006,True,False,Mode(963497464),0.9359,59,0.7062
3.187,THRUST_SEARCH,OPEN_LOOP,-0.001,-0.00097,-0.00096,-0.00096,0.0,-5e-05,0.7075,0.7075,0.7075,,0.67,,False,0.0,0.0,0.0,0.0,0.0,-5.8338,-12.9931,0.008,True,False,Mode(963497464),0.9469,59,0.7062
3.199,THRUST_SEARCH,OPEN_LOOP,-0.001,-0.00098,-0.001,-0.00098,0.0,-6e-05,0.7079,0.7079,0.7079,,0.67,,False,0.0,0.0,0.0,0.0,0.0,-5.8338,-12.9918,0.001,True,False,Mode(963497464),0.9582,59,0.7062
3.209,THRUST_SEARCH,OPEN_LOOP,-0.0009,-0.00095,-0.00063,-0.00063,0.0,6e-05,0.7084,0.7084,0.7084,,0.67,,False,0.0,0.0,0.0,0.0,0.0,-5.8338,-12.9413,0.006,True,True,Mode(963497464),0.9692,59,0.7062
3.22,THRUST_SEARCH,OPEN_LOOP,-0.0009,-0.00093,-0.00071,-0.00071,0.0,0.00015,0.7088,0.7088,0.7088,,0.67,,False,0.0,0.0,0.0,0.0,0.0,-5.8338,-12.9102,0.008,True,False,Mode(963497464),0.9801,60,0.7084
3.231,THRUST_SEARCH,OPEN_LOOP,-0.0009,-0.00093,-0.001,-0.00093,0.0,0.00012,0.7092,0.7092,0.7092,,0.67,,False,0.0,0.0,0.0,0.0,0.0,-5.8338,-12.9283,0.001,True,False,Mode(963497464),0.9907,60,0.7084
3.242,THRUST_SEARCH,OPEN_LOOP,-0.0009,-0.00093,-0.00099,-0.00093,0.0,0.0001,0.7097,0.7097,0.7097,,0.67,,False,0.0,0.0,0.0,0.0,0.0,-5.8338,-12.9388,0.003,True,False,Mode(963497464),1.0016,60,0.7084
3.252,THRUST_SEARCH,OPEN_LOOP,-0.0009,-0.00094,-0.00099,-0.00094,0.0,8e-05,0.7101,0.7101,0.7101,,0.67,,False,0.0,0.0,0.0,0.0,0.0,-5.8338,-12.9501,0.0075,True,False,Mode(963497464),1.0121,60,0.7084
3.264,THRUST_SEARCH,OPEN_LOOP,-0.0009,-0.00094,-0.00099,-0.00094,0.0,6e-05,0.7106,0.7106,0.7106,,0.67,,False,0.0,0.0,0.0,0.0,0.0,-5.8338,-12.9635,0.0015,True,True,Mode(963497464),1.0236,60,0.7084
3.275,THRUST_SEARCH,OPEN_LOOP,-0.0009,-0.00094,-0.00097,-0.00094,0.0,5e-05,0.711,0.711,0.711,,0.67,,False,0.0,0.0,0.0,0.0,0.0,-5.8338,-12.9703,0.003,True,False,Mode(963497464),1.0345,61,0.7106
3.285,THRUST_SEARCH,OPEN_LOOP,-0.0009,-0.00093,-0.00083,-0.00083,0.0,9e-05,0.7114,0.7114,0.7114,,0.67,,False,0.0,0.0,0.0,0.0,0.0,-5.8338,-12.9648,0.0045,True,False,Mode(963497464),1.045,61,0.7106
3.296,THRUST_SEARCH,OPEN_LOOP,-0.0009,-0.00093,-0.00095,-0.00093,0.0,8e-05,0.7119,0.7119,0.7119,,0.67,,False,0.0,0.0,0.0,0.0,0.0,-5.8338,-12.9713,0.001,True,False,Mode(963497464),1.056,61,0.7106
3.307,THRUST_SEARCH,OPEN_LOOP,-0.0009,-0.00094,-0.00098,-0.00094,0.0,6e-05,0.7123,0.7123,0.7123,,0.67,,False,0.0,0.0,0.0,0.0,0.0,-5.8338,-12.9721,0.003,True,False,Mode(963497464),1.067,61,0.7106
3.318,THRUST_SEARCH,OPEN_LOOP,-0.0009,-0.00094,-0.00097,-0.00094,0.0,5e-05,0.7127,0.7127,0.7127,,0.67,,False,0.0,0.0,0.0,0.0,0.0,-5.8338,-12.9754,0.005,True,True,Mode(963497464),1.0779,61,0.7106
