time,state,controller_mode,target_z,curr_z,raw_z,height_for_safety,target_vz,curr_vz,thrust,raw_thrust,search_thrust,liftoff_thrust,hover_thrust_est,thrust_no_floor,floor_applied,a_cmd_z,v_cmd_z,z_integral,roll_cmd_deg,pitch_cmd_deg,yaw_cmd_deg,yaw_mocap_deg,mocap_age,kf_used_measurement,mavlink_sent,mav_mode,mav_heartbeat_age,mav_send_count,mav_last_thrust
0.002,THRUST_SEARCH,OPEN_LOOP,0.0001,0.00012,0.00015,0.00015,0.0,1e-05,0.58,0.58,0.58,,0.67,,False,0.0,0.0,0.0,0.0,0.0,12.3256,12.3448,0.006,True,True,Mode(963497464),0.0,0,
0.011,THRUST_SEARCH,OPEN_LOOP,0.0001,8e-05,4e-05,8e-05,0.0,-0.0001,0.5802,0.5802,0.5802,,0.67,,False,0.0,0.0,0.0,0.0,0.0,12.3256,12.339,0.008,True,False,Mode(963497464),0.011,1,0.58
0.022,THRUST_SEARCH,OPEN_LOOP,0.0,1e-05,-0.00014,1e-05,0.0,-0.00072,0.5804,0.5804,0.5804,,0.67,,False,0.0,0.0,0.0,0.0,0.0,12.3256,12.3399,0.001,True,False,Mode(963497464),0.0219,1,0.58
0.033,THRUST_SEARCH,OPEN_LOOP,-0.0,-0.0,-0.0,-0.0,0.0,-0.00072,0.5807,0.5807,0.5807,,0.67,,False,0.0,0.0,0.0,0.0,0.0,12.3256,12.3423,0.006,True,False,Mode(963497464),0.0329,1,0.58
0.044,THRUST_SEARCH,OPEN_LOOP,0.0,1e-05,5e-05,5e-05,0.0,-0.00049,0.5809,0.5809,0.5809,,0.67,,False,0.0,0.0,0.0,0.0,0.0,12.3256,12.3335,0.008,True,False,Mode(963497464),0.0439,1,0.58
0.054,THRUST_SEARCH,OPEN_LOOP,-0.0001,-0.00012,-0.00041,-0.00012,0.0,-0.00231,0.5811,0.5811,0.5811,,0.67,,False,0.0,0.0,0.0,0.0,0.0,12.3256,12.2549,0.001,True,True,Mode(963497464),0.0544,1,0.58
0.065,THRUST_SEARCH,OPEN_LOOP,-0.0002,-0.00023,-0.00046,-0.00023,0.0,-0.00374,0.5813,0.5813,0.5813,,0.67,,False,0.0,0.0,0.0,0.0,0.0,12.3256,12.2341,0.003,True,False,Mode(963497464),0.0654,2,0.5811
0.076,THRUST_SEARCH,OPEN_LOOP,-0.0003,-0.0003,-0.00036,-0.0003,0.0,-0.00407,0.5815,0.5815,0.5815,,0.67,,False,0.0,0.0,0.0,0.0,0.0,12.3256,12.2532,0.008,True,False,Mode(963497464),0.0,2,0.5811
0.087,THRUST_SEARCH,OPEN_LOOP,-0.0003,-0.00031,-0.00023,-0.00023,0.0,-0.00363,0.5817,0.5817,0.5817,,0.67,,False,0.0,0.0,0.0,0.0,0.0,12.3256,12.261,0.001,True,False,Mode(963497464),0.011,2,0.5811
0.098,THRUST_SEARCH,OPEN_LOOP,-0.0003,-0.00031,-0.00022,-0.00022,0.0,-0.00318,0.582,0.582,0.582,,0.67,,False,0.0,0.0,0.0,0.0,0.0,12.3256,12.2642,0.003,True,False,Mode(963497464),0.0219,2,0.5811
0.109,THRUST_SEARCH,OPEN_LOOP,-0.0003,-0.00034,-0.0003,-0.0003,0.0,-0.00302,0.5822,0.5822,0.5822,,0.67,,False,0.0,0.0,0.0,0.0,0.0,12.3256,12.2784,0.005,True,True,Mode(963497464),0.0329,2,0.5811
0.12,THRUST_SEARCH,OPEN_LOOP,-0.0004,-0.00036,-0.00032,-0.00032,0.0,-0.00287,0.5824,0.5824,0.5824,,0.67,,False,0.0,0.0,0.0,0.0,0.0,12.3256,12.3021,0.001,True,False,Mode(963497464),0.0439,3,0.5822
0.131,THRUST_SEARCH,OPEN_LOOP,-0.0004,-0.00036,-0.00025,-0.00025,0.0,-0.00254,0.5826,0.5826,0.5826,,0.67,,False,0.0,0.0,0.0,0.0,0.0,12.3256,12.3104,0.003,True,False,Mode(963497464),0.0549,3,0.5822
0.142,THRUST_SEARCH,OPEN_LOOP,-0.0004,-0.00036,-0.0003,-0.0003,0.0,-0.00236,0.5828,0.5828,0.5828,,0.67,,False,0.0,0.0,0.0,0.0,0.0,12.3256,12.3267,0.0045,True,False,Mode(963497464),0.0653,3,0.5822
0.153,THRUST_SEARCH,OPEN_LOOP,-0.0003,-0.00033,-0.00014,-0.00014,0.0,-0.00187,0.5831,0.5831,0.5831,,0.67,,False,0.0,0.0,0.0,0.0,0.0,12.3256,12.3159,0.001,True,False,Mode(963497464),0.0763,3,0.5822
0.164,THRUST_SEARCH,OPEN_LOOP,-0.0003,-0.00032,-0.00017,-0.00017,0.0,-0.00153,0.5833,0.5833,0.5833,,0.67,,False,0.0,0.0,0.0,0.0,0.0,12.3256,12.3118,0.003,True,True,Mode(963497464),0.0873,3,0.5822
0.175,THRUST_SEARCH,OPEN_LOOP,-0.0003,-0.00033,-0.00031,-0.00031,0.0,-0.00149,0.5835,0.5835,0.5835,,0.67,,False,0.0,0.0,0.0,0.0,0.0,12.3256,12.2851,0.005,True,False,Mode(963497464),0.0983,4,0.5833
0.186,THRUST_SEARCH,OPEN_LOOP,-0.0004,-0.0004,-0.00065,-0.0004,0.0,-0.00194,0.5837,0.5837,0.5837,,0.67,,False,0.0,0.0,0.0,0.0,0.0,12.3256,12.2934,0.007,True,False,Mode(963497464),0.1093,4,0.5833
0.196,THRUST_SEARCH,OPEN_LOOP,-0.0003,-0.00025,0.00049,0.00049,0.0,-0.0007,0.5839,0.5839,0.5839,,0.67,,False,0.0,0.0,0.0,0.0,0.0,12.3256,12.3352,0.009,True,False,Mode(963497464),0.1198,4,0.5833
0.207,THRUST_SEARCH,OPEN_LOOP,0.0,2e-05,0.0013,0.0013,0.0,0.00124,0.5841,0.5841,0.5841,,0.67,,False,0.0,0.0,0.0,0.0,0.0,12.3256,12.4389,0.005,True,False,Mode(963497464),0.1308,4,0.5833
0.219,THRUST_SEARCH,OPEN_LOOP,0.0004,0.00044,0.00245,0.00245,0.0,0.00403,0.5844,0.5844,0.5844,,0.67,,False,0.0,0.0,0.0,0.0,0.0,12.3256,12.4205,0.007,True,True,Mode(963497464),0.1417,4,0.5833
0.229,THRUST_SEARCH,OPEN_LOOP,0.0009,0.00091,0.00306,0.00306,0.0,0.00676,0.5846,0.5846,0.5846,,0.67,,False,0.0,0.0,0.0,0.0,0.0,12.3256,12.3247,0.007,True,False,Mode(963497464),0.1527,5,0.5844
0.24,THRUST_SEARCH,OPEN_LOOP,0.0017,0.00168,0.00532,0.00532,0.0,0.01103,0.5848,0.5848,0.5848,,0.67,,False,0.0,0.0,0.0,0.0,0.0,12.3256,11.8444,0.002,True,False,Mode(963497464),0.1637,5,0.5844
0.251,THRUST_SEARCH,OPEN_LOOP,0.0025,0.00254,0.00658,0.00658,0.0,0.01542,0.585,0.585,0.585,,0.67,,False,0.0,0.0,0.0,0.0,0.0,12.3256,11.4646,0.006,True,False,Mode(963497464),0.1747,5,0.5844
0.262,THRUST_SEARCH,OPEN_LOOP,0.0033,0.00334,0.00697,0.00697,0.0,0.01907,0.5852,0.5852,0.5852,,0.67,,False,0.0,0.0,0.0,0.0,0.0,12.3256,11.1305,0.008,True,False,Mode(963497464),0.1856,5,0.5844
0.273,THRUST_SEARCH,OPEN_LOOP,0.0043,0.00434,0.00907,0.00907,0.0,0.0235,0.5855,0.5855,0.5855,,0.67,,False,0.0,0.0,0.0,0.0,0.0,12.3256,10.6313,0.0036,True,True,Mode(963497464),0.1962,5,0.5844
0.284,THRUST_SEARCH,OPEN_LOOP,0.0052,0.0052,0.00894,0.00894,0.0,0.02678,0.5857,0.5857,0.5857,,0.67,,False,0.0,0.0,0.0,0.0,0.0,12.3256,10.3359,0.006,True,False,Mode(963497464),0.2072,6,0.5855
0.295,THRUST_SEARCH,OPEN_LOOP,0.0061,0.0061,0.0099,0.0099,0.0,0.02991,0.5859,0.5859,0.5859,,0.67,,False,0.0,0.0,0.0,0.0,0.0,12.3256,10.1047,0.008,True,False,Mode(963497464),0.2181,6,0.5855
0.306,THRUST_SEARCH,OPEN_LOOP,0.0068,0.00684,0.0096,0.0096,0.0,0.03205,0.5861,0.5861,0.5861,,0.67,,False,0.0,0.0,0.0,0.0,0.0,12.3256,9.2704,0.003,True,False,Mode(963497464),0.2291,6,0.5855
0.316,THRUST_SEARCH,OPEN_LOOP,0.0076,0.00757,0.0101,0.0101,0.0,0.03391,0.5863,0.5863,0.5863,,0.67,,False,0.0,0.0,0.0,0.0,0.0,12.3256,8.6819,0.005,True,False,Mode(963497464),0.2401,6,0.5855
0.327,THRUST_SEARCH,OPEN_LOOP,0.0082,0.0082,0.01,0.01,0.0,0.03517,0.5865,0.5865,0.5865,,0.67,,False,0.0,0.0,0.0,0.0,0.0,12.3256,8.11,0.007,True,True,Mode(963497464),0.251,6,0.5855
0.339,THRUST_SEARCH,OPEN_LOOP,0.0087,0.00873,0.00967,0.00967,0.0,0.03579,0.5868,0.5868,0.5868,,0.67,,False,0.0,0.0,0.0,0.0,0.0,12.3256,7.4714,0.004,True,False,Mode(963497464),0.2625,7,0.5865
0.349,THRUST_SEARCH,OPEN_LOOP,0.0092,0.00918,0.00977,0.00977,0.0,0.03616,0.587,0.587,0.587,,0.67,,False,0.0,0.0,0.0,0.0,0.0,12.3256,7.3297,0.006,True,False,Mode(963497464),0.2729,7,0.5865
0.36,THRUST_SEARCH,OPEN_LOOP,0.0094,0.00944,0.00839,0.00944,0.0,0.03553,0.5872,0.5872,0.5872,,0.67,,False,0.0,0.0,0.0,0.0,0.0,12.3256,7.1957,0.008,True,False,Mode(963497464),0.2839,7,0.5865
0.371,THRUST_SEARCH,OPEN_LOOP,0.0096,0.00961,0.00792,0.00961,0.0,0.03454,0.5874,0.5874,0.5874,,0.67,,False,0.0,0.0,0.0,0.0,0.0,12.3256,6.8689,0.001,True,False,Mode(963497464),0.2949,7,0.5865
0.382,THRUST_SEARCH,OPEN_LOOP,0.0097,0.00966,0.007,0.00966,0.0,0.03305,0.5876,0.5876,0.5876,,0.67,,False,0.0,0.0,0.0,0.0,0.0,12.3256,6.6734,0.003,True,True,Mode(963497464),0.3059,7,0.5865
0.393,THRUST_SEARCH,OPEN_LOOP,0.0097,0.00971,0.0072,0.00971,0.0,0.03169,0.5879,0.5879,0.5879,,0.67,,False,0.0,0.0,0.0,0.0,0.0,12.3256,6.3846,0.008,True,False,Mode(963497464),0.3168,8,0.5876
0.405,THRUST_SEARCH,OPEN_LOOP,0.0096,0.00961,0.00575,0.00961,0.0,0.02967,0.5881,0.5881,0.5881,,0.67,,False,0.0,0.0,0.0,0.0,0.0,12.3256,6.5278,0.002,True,False,Mode(963497464),0.3283,8,0.5876
0.416,THRUST_SEARCH,OPEN_LOOP,0.0094,0.00942,0.00512,0.00942,0.0,0.02748,0.5883,0.5883,0.5883,,0.67,,False,0.0,0.0,0.0,0.0,0.0,12.3256,6.8131,0.004,True,False,Mode(963497464),0.3392,8,0.5876
0.426,THRUST_SEARCH,OPEN_LOOP,0.0093,0.00931,0.00591,0.00931,0.0,0.0258,0.5885,0.5885,0.5885,,0.67,,False,0.0,0.0,0.0,0.0,0.0,12.3256,6.999,0.006,True,False,Mode(963497464),0.3497,8,0.5876
0.437,THRUST_SEARCH,OPEN_LOOP,0.0092,0.00922,0.00594,0.00922,0.0,0.02422,0.5887,0.5887,0.5887,,0.67,,False,0.0,0.0,0.0,0.0,0.0,12.3256,7.1018,0.002,True,True,Mode(963497464),0.3607,8,0.5876
0.449,THRUST_SEARCH,OPEN_LOOP,0.0092,0.00919,0.00644,0.00919,0.0,0.02292,0.589,0.589,0.589,,0.67,,False,0.0,0.0,0.0,0.0,0.0,12.3256,6.8827,0.001,True,False,Mode(963497464),0.3724,9,0.5887
0.46,THRUST_SEARCH,OPEN_LOOP,0.0091,0.0091,0.006,0.0091,0.0,0.02148,0.5892,0.5892,0.5892,,0.67,,False,0.0,0.0,0.0,0.0,0.0,12.3256,6.4777,0.006,True,False,Mode(963497464),0.3833,9,0.5887
0.471,THRUST_SEARCH,OPEN_LOOP,0.0091,0.00909,0.00687,0.00909,0.0,0.02048,0.5894,0.5894,0.5894,,0.67,,False,0.0,0.0,0.0,0.0,0.0,12.3256,5.3809,0.002,True,False,Mode(963497464),0.3943,9,0.5887
0.482,THRUST_SEARCH,OPEN_LOOP,0.009,0.00905,0.00653,0.00905,0.0,0.01936,0.5896,0.5896,0.5896,,0.67,,False,0.0,0.0,0.0,0.0,0.0,12.3256,4.8689,0.004,True,False,Mode(963497464),0.4053,9,0.5887
0.493,THRUST_SEARCH,OPEN_LOOP,0.009,0.00898,0.00642,0.00898,0.0,0.01823,0.5899,0.5899,0.5899,,0.67,,False,0.0,0.0,0.0,0.0,0.0,12.3256,4.503,0.006,True,True,Mode(963497464),0.4163,9,0.5887
0.504,THRUST_SEARCH,OPEN_LOOP,0.0088,0.00881,0.0053,0.00881,0.0,0.01671,0.5901,0.5901,0.5901,,0.67,,False,0.0,0.0,0.0,0.0,0.0,12.3256,4.0556,0.002,True,False,Mode(963497464),0.4272,10,0.5899
0.515,THRUST_SEARCH,OPEN_LOOP,0.0086,0.0086,0.00486,0.0086,0.0,0.01512,0.5903,0.5903,0.5903,,0.67,,False,0.0,0.0,0.0,0.0,0.0,12.3256,3.6856,0.004,True,False,Mode(963497464),0.4382,10,0.5899
0.526,THRUST_SEARCH,OPEN_LOOP,0.0083,0.00834,0.0042,0.00834,0.0,0.01337,0.5905,0.5905,0.5905,,0.67,,False,0.0,0.0,0.0,0.0,0.0,12.3256,3.1788,0.006,True,False,Mode(963497464),0.4492,10,0.5899
0.537,THRUST_SEARCH,OPEN_LOOP,0.008,0.00805,0.00376,0.00805,0.0,0.01158,0.5907,0.5907,0.5907,,0.67,,False,0.0,0.0,0.0,0.0,0.0,12.3256,2.563,0.008,True,False,Mode(963497464),0.4601,10,0.5899
0.547,THRUST_SEARCH,OPEN_LOOP,0.0077,0.00773,0.00338,0.00773,0.0,0.00978,0.5909,0.5909,0.5909,,0.67,,False,0.0,0.0,0.0,0.0,0.0,12.3256,1.2395,0.004,True,True,Mode(963497464),0.4711,10,0.5899
0.559,THRUST_SEARCH,OPEN_LOOP,0.0074,0.0074,0.00304,0.0074,0.0,0.00797,0.5912,0.5912,0.5912,,0.67,,False,0.0,0.0,0.0,0.0,0.0,12.3256,0.5395,0.0071,True,False,Mode(963497464),0.4827,11,0.5909
0.57,THRUST_SEARCH,OPEN_LOOP,0.0069,0.00691,0.00109,0.00691,0.0,0.00559,0.5914,0.5914,0.5914,,0.67,,False,0.0,0.0,0.0,0.0,0.0,12.3256,-0.612,0.001,True,False,Mode(963497464),0.4937,11,0.5909
0.581,THRUST_SEARCH,OPEN_LOOP,0.0065,0.00646,0.00139,0.00646,0.0,0.00353,0.5916,0.5916,0.5916,,0.67,,False,0.0,0.0,0.0,0.0,0.0,12.3256,-1.0688,0.003,True,False,Mode(963497464),0.5047,11,0.5909
0.592,THRUST_SEARCH,OPEN_LOOP,0.0061,0.00612,0.00236,0.00612,0.0,0.00201,0.5918,0.5918,0.5918,,0.67,,False,0.0,0.0,0.0,0.0,0.0,12.3256,-1.4988,0.0045,True,False,Mode(963497464),0.5152,11,0.5909
0.603,THRUST_SEARCH,OPEN_LOOP,0.0059,0.00585,0.00286,0.00585,0.0,0.00081,0.5921,0.5921,0.5921,,0.67,,False,0.0,0.0,0.0,0.0,0.0,12.3256,-1.9202,0.007,True,True,Mode(963497464),0.5261,11,0.5909
0.614,THRUST_SEARCH,OPEN_LOOP,0.0057,0.0057,0.00402,0.0057,0.0,0.00014,0.5923,0.5923,0.5923,,0.67,,False,0.0,0.0,0.0,0.0,0.0,12.3256,-2.9142,0.0035,True,False,Mode(963497464),0.5371,12,0.5921
0.624,THRUST_SEARCH,OPEN_LOOP,0.0057,0.00567,0.00539,0.00567,0.0,3e-05,0.5925,0.5925,0.5925,,0.67,,False,0.0,0.0,0.0,0.0,0.0,12.3256,-3.3978,0.006,True,False,Mode(963497464),0.5481,12,0.5921
0.635,THRUST_SEARCH,OPEN_LOOP,0.0058,0.00581,0.00729,0.00729,0.0,0.00061,0.5927,0.5927,0.5927,,0.67,,False,0.0,0.0,0.0,0.0,0.0,12.3256,-3.8114,0.008,True,False,Mode(963497464),0.5591,12,0.5921
0.646,THRUST_SEARCH,OPEN_LOOP,0.0062,0.00615,0.0096,0.0096,0.0,0.00198,0.5929,0.5929,0.5929,,0.67,,False,0.0,0.0,0.0,0.0,0.0,12.3256,-4.0291,0.0009,True,False,Mode(963497464),0.5699,12,0.5921
0.657,THRUST_SEARCH,OPEN_LOOP,0.0065,0.00649,0.00974,0.00974,0.0,0.00327,0.5931,0.5931,0.5931,,0.67,,False,0.0,0.0,0.0,0.0,0.0,12.3256,-3.9946,0.003,True,True,Mode(963497464),0.5809,12,0.5921
0.668,THRUST_SEARCH,OPEN_LOOP,0.0069,0.00689,0.01062,0.01062,0.0,0.00474,0.5934,0.5934,0.5934,,0.67,,False,0.0,0.0,0.0,0.0,0.0,12.3256,-3.9747,0.008,True,False,Mode(963497464),0.5918,13,0.5931
0.679,THRUST_SEARCH,OPEN_LOOP,0.0074,0.00741,0.01232,0.01232,0.0,0.00668,0.5936,0.5936,0.5936,,0.67,,False,0.0,0.0,0.0,0.0,0.0,12.3256,-4.2319,0.0006,True,False,Mode(963497464),0.6027,13,0.5931
0.69,THRUST_SEARCH,OPEN_LOOP,0.008,0.00796,0.01288,0.01288,0.0,0.00862,0.5938,0.5938,0.5938,,0.67,,False,0.0,0.0,0.0,0.0,0.0,12.3256,-4.5689,0.003,True,False,Mode(963497464),0.6137,13,0.5931
0.701,THRUST_SEARCH,OPEN_LOOP,0.0085,0.00854,0.01371,0.01371,0.0,0.01065,0.594,0.594,0.594,,0.67,,False,0.0,0.0,0.0,0.0,0.0,12.3256,-5.0048,0.0045,True,False,Mode(963497464),0.6242,13,0.5931
0.712,THRUST_SEARCH,OPEN_LOOP,0.0092,0.00924,0.01533,0.01533,0.0,0.01304,0.5942,0.5942,0.5942,,0.67,,False,0.0,0.0,0.0,0.0,0.0,12.3256,-5.877,0.001,True,True,Mode(963497464),0.6351,13,0.5931
0.722,THRUST_SEARCH,OPEN_LOOP,0.0099,0.00986,0.01492,0.01492,0.0,0.01502,0.5944,0.5944,0.5944,,0.67,,False,0.0,0.0,0.0,0.0,0.0,12.3256,-6.1841,0.003,True,False,Mode(963497464),0.6461,14,0.5942
0.733,THRUST_SEARCH,OPEN_LOOP,0.0104,0.01039,0.01427,0.01427,0.0,0.01654,0.5947,0.5947,0.5947,,0.67,,False,0.0,0.0,0.0,0.0,0.0,12.3256,-6.3378,0.0045,True,False,Mode(963497464),0.6566,14,0.5942
0.744,THRUST_SEARCH,OPEN_LOOP,0.0108,0.0108,0.01319,0.01319,0.0,0.01747,0.5949,0.5949,0.5949,,0.67,,False,0.0,0.0,0.0,0.0,0.0,12.3256,-6.344,0.007,True,False,Mode(963497464),0.6675,14,0.5942
0.754,THRUST_SEARCH,OPEN_LOOP,0.0112,0.01116,0.01302,0.01302,0.0,0.0182,0.5951,0.5951,0.5951,,0.67,,False,0.0,0.0,0.0,0.0,0.0,12.3256,-6.4222,0.003,True,False,Mode(963497464),0.678,14,0.5942
0.765,THRUST_SEARCH,OPEN_LOOP,0.0115,0.01152,0.01328,0.01328,0.0,0.01888,0.5953,0.5953,0.5953,,0.67,,False,0.0,0.0,0.0,0.0,0.0,12.3256,-6.6663,0.005,True,True,Mode(963497464),0.689,14,0.5942
0.777,THRUST_SEARCH,OPEN_LOOP,0.0117,0.01174,0.01171,0.01174,0.0,0.01887,0.5955,0.5955,0.5955,,0.67,,False,0.0,0.0,0.0,0.0,0.0,12.3256,-7.0145,0.0076,True,False,Mode(963497464),0.7005,15,0.5953
0.787,THRUST_SEARCH,OPEN_LOOP,0.012,0.012,0.01274,0.01274,0.0,0.01916,0.5957,0.5957,0.5957,,0.67,,False,0.0,0.0,0.0,0.0,0.0,12.3256,-7.3626,0.009,True,False,Mode(963497464),0.711,15,0.5953
0.798,THRUST_SEARCH,OPEN_LOOP,0.0122,0.01225,0.01258,0.01258,0.0,0.01929,0.596,0.596,0.596,,0.67,,False,0.0,0.0,0.0,0.0,0.0,12.3256,-8.3351,0.005,True,False,Mode(963497464),0.722,15,0.5953
0.809,THRUST_SEARCH,OPEN_LOOP,0.0123,0.01232,0.01087,0.01232,0.0,0.01873,0.5962,0.5962,0.5962,,0.67,,False,0.0,0.0,0.0,0.0,0.0,12.3256,-8.7848,0.0068,True,False,Mode(963497464),0.7327,15,0.5953
0.821,THRUST_SEARCH,OPEN_LOOP,0.0123,0.01233,0.01029,0.01233,0.0,0.01793,0.5964,0.5964,0.5964,,0.67,,False,0.0,0.0,0.0,0.0,0.0,12.3256,-9.1451,0.009,True,True,Mode(963497464),0.7437,15,0.5953
0.831,THRUST_SEARCH,OPEN_LOOP,0.0123,0.01229,0.00983,0.01229,0.0,0.01697,0.5966,0.5966,0.5966,,0.67,,False,0.0,0.0,0.0,0.0,0.0,12.3256,-9.6381,0.0015,True,False,Mode(963497464),0.7542,16,0.5964
0.842,THRUST_SEARCH,OPEN_LOOP,0.0123,0.01227,0.01018,0.01227,0.0,0.01615,0.5968,0.5968,0.5968,,0.67,,False,0.0,0.0,0.0,0.0,0.0,12.3256,-9.978,0.004,True,False,Mode(963497464),0.7652,16,0.5964
0.853,THRUST_SEARCH,OPEN_LOOP,0.0121,0.0121,0.00828,0.0121,0.0,0.01466,0.5971,0.5971,0.5971,,0.67,,False,0.0,0.0,0.0,0.0,0.0,12.3256,-10.848,0.001,True,False,Mode(963497464),0.7766,16,0.5964
0.864,THRUST_SEARCH,OPEN_LOOP,0.012,0.01196,0.00881,0.01196,0.0,0.01342,0.5973,0.5973,0.5973,,0.67,,False,0.0,0.0,0.0,0.0,0.0,12.3256,-11.3913,0.003,True,False,Mode(963497464),0.7876,16,0.5964
0.876,THRUST_SEARCH,OPEN_LOOP,0.0118,0.01178,0.00828,0.01178,0.0,0.01205,0.5975,0.5975,0.5975,,0.67,,False,0.0,0.0,0.0,0.0,0.0,12.3256,-11.8042,0.005,True,True,Mode(963497464),0.7986,16,0.5964
0.886,THRUST_SEARCH,OPEN_LOOP,0.0115,0.01146,0.00671,0.01146,0.0,0.01018,0.5977,0.5977,0.5977,,0.67,,False,0.0,0.0,0.0,0.0,0.0,12.3256,-12.1035,0.0013,True,False,Mode(963497464),0.8098,17,0.5975
0.897,THRUST_SEARCH,OPEN_LOOP,0.0111,0.01114,0.00657,0.01114,0.0,0.00838,0.5979,0.5979,0.5979,,0.67,,False,0.0,0.0,0.0,0.0,0.0,12.3256,-12.2963,0.003,True,False,Mode(963497464),0.8208,17,0.5975
0.908,THRUST_SEARCH,OPEN_LOOP,0.0107,0.01074,0.00554,0.01074,0.0,0.00633,0.5982,0.5982,0.5982,,0.67,,False,0.0,0.0,0.0,0.0,0.0,12.3256,-12.7279,0.005,True,False,Mode(963497464),0.8318,17,0.5975
0.92,THRUST_SEARCH,OPEN_LOOP,0.0103,0.01033,0.0053,0.01033,0.0,0.00435,0.5984,0.5984,0.5984,,0.67,,False,0.0,0.0,0.0,0.0,0.0,12.3256,-13.4186,0.0074,True,False,Mode(963497464),0.8431,17,0.5975
0.93,THRUST_SEARCH,OPEN_LOOP,0.0099,0.0099,0.00491,0.0099,0.0,0.00238,0.5986,0.5986,0.5986,,0.67,,False,0.0,0.0,0.0,0.0,0.0,12.3256,-15.1259,0.001,True,True,Mode(963497464),0.8541,17,0.5975
0.941,THRUST_SEARCH,OPEN_LOOP,0.0095,0.00948,0.00483,0.00948,0.0,0.00054,0.5988,0.5988,0.5988,,0.67,,False,0.0,0.0,0.0,0.0,0.0,12.3256,-15.8955,0.006,True,False,Mode(963497464),0.8651,18,0.5986
0.952,THRUST_SEARCH,OPEN_LOOP,0.0091,0.00908,0.00475,0.00908,0.0,-0.00117,0.599,0.599,0.599,,0.67,,False,0.0,0.0,0.0,0.0,0.0,12.3256,-16.5994,0.0075,True,False,Mode(963497464),0.8756,18,0.5986
0.963,THRUST_SEARCH,OPEN_LOOP,0.0087,0.00867,0.00454,0.00867,0.0,-0.00279,0.5993,0.5993,0.5993,,0.67,,False,0.0,0.0,0.0,0.0,0.0,12.3256,-17.1746,0.001,True,False,Mode(963497464),0.8865,18,0.5986
0.973,THRUST_SEARCH,OPEN_LOOP,0.0083,0.00831,0.00473,0.00831,0.0,-0.00419,0.5995,0.5995,0.5995,,0.67,,False,0.0,0.0,0.0,0.0,0.0,12.3256,-17.227,0.003,True,False,Mode(963497464),0.897,18,0.5986
0.984,THRUST_SEARCH,OPEN_LOOP,0.008,0.008,0.00517,0.008,0.0,-0.00529,0.5997,0.5997,0.5997,,0.67,,False,0.0,0.0,0.0,0.0,0.0,12.3256,-17.3333,0.0045,True,True,Mode(963497464),0.9075,18,0.5986
0.995,THRUST_SEARCH,OPEN_LOOP,0.0078,0.00781,0.00641,0.00781,0.0,-0.00584,0.5999,0.5999,0.5999,,0.67,,False,0.0,0.0,0.0,0.0,0.0,12.3256,-17.9594,0.001,True,False,Mode(963497464),0.9184,19,0.5997
1.006,THRUST_SEARCH,OPEN_LOOP,0.0077,0.00768,0.00701,0.00768,0.0,-0.0061,0.6001,0.6001,0.6001,,0.67,,False,0.0,0.0,0.0,0.0,0.0,12.3256,-18.5493,0.003,True,False,Mode(963497464),0.9294,19,0.5997
1.016,THRUST_SEARCH,OPEN_LOOP,0.0076,0.00763,0.00785,0.00785,0.0,-0.00602,0.6003,0.6003,0.6003,,0.67,,False,0.0,0.0,0.0,0.0,0.0,12.3256,-19.1765,0.0045,True,False,Mode(963497464),0.9399,19,0.5997
1.027,THRUST_SEARCH,OPEN_LOOP,0.0076,0.00761,0.00808,0.00808,0.0,-0.00584,0.6005,0.6005,0.6005,,0.67,,False,0.0,0.0,0.0,0.0,0.0,12.3256,-19.6813,0.0066,True,False,Mode(963497464),0.9505,19,0.5997
1.039,THRUST_SEARCH,OPEN_LOOP,0.0076,0.00764,0.00861,0.00861,0.0,-0.00546,0.6008,0.6008,0.6008,,0.67,,False,0.0,0.0,0.0,0.0,0.0,12.3256,-20.0286,0.009,True,True,Mode(963497464),0.9614,19,0.5997
1.048,THRUST_SEARCH,OPEN_LOOP,0.0077,0.00767,0.00864,0.00864,0.0,-0.00509,0.601,0.601,0.601,,0.67,,False,0.0,0.0,0.0,0.0,0.0,12.3256,-20.1387,0.0045,True,False,Mode(963497464),0.9719,20,0.6008
1.059,THRUST_SEARCH,OPEN_LOOP,0.0077,0.00768,0.00832,0.00832,0.0,-0.00484,0.6012,0.6012,0.6012,,0.67,,False,0.0,0.0,0.0,0.0,0.0,12.3256,-20.1875,0.0069,True,False,Mode(963497464),0.9828,20,0.6008
1.07,THRUST_SEARCH,OPEN_LOOP,0.0077,0.00769,0.00843,0.00843,0.0,-0.00455,0.6014,0.6014,0.6014,,0.67,,False,0.0,0.0,0.0,0.0,0.0,12.3256,-20.4263,0.009,True,False,Mode(963497464),0.9938,20,0.6008
1.081,THRUST_SEARCH,OPEN_LOOP,0.0079,0.00787,0.01028,0.01028,0.0,-0.00362,0.6016,0.6016,0.6016,,0.67,,False,0.0,0.0,0.0,0.0,0.0,12.3256,-21.2474,0.0015,True,False,Mode(963497464),1.0043,20,0.6008
1.091,THRUST_SEARCH,OPEN_LOOP,0.008,0.00804,0.01027,0.01027,0.0,-0.00276,0.6018,0.6018,0.6018,,0.67,,False,0.0,0.0,0.0,0.0,0.0,12.3256,-21.8037,0.0045,True,True,Mode(963497464),1.0147,20,0.6008
1.102,THRUST_SEARCH,OPEN_LOOP,0.0082,0.00823,0.01061,0.01061,0.0,-0.00184,0.602,0.602,0.602,,0.67,,False,0.0,0.0,0.0,0.0,0.0,12.3256,-22.3737,0.007,True,False,Mode(963497464),0.0,21,0.6018
1.113,THRUST_SEARCH,OPEN_LOOP,0.0084,0.00836,0.00989,0.00989,0.0,-0.00124,0.6023,0.6023,0.6023,,0.67,,False,0.0,0.0,0.0,0.0,0.0,12.3256,-23.3845,0.003,True,False,Mode(963497464),0.011,21,0.6018
1.124,THRUST_SEARCH,OPEN_LOOP,0.0084,0.00844,0.00948,0.00948,0.0,-0.00084,0.6025,0.6025,0.6025,,0.67,,False,0.0,0.0,0.0,0.0,0.0,12.3256,-23.85,0.005,True,False,Mode(963497464),0.0219,21,0.6018
1.135,THRUST_SEARCH,OPEN_LOOP,0.0084,0.00843,0.0084,0.00843,0.0,-0.00085,0.6027,0.6027,0.6027,,0.67,,False,0.0,0.0,0.0,0.0,0.0,12.3256,-24.3207,0.0066,True,False,Mode(963497464),0.0325,21,0.6018
1.146,THRUST_SEARCH,OPEN_LOOP,0.0084,0.00841,0.00826,0.00841,0.0,-0.00091,0.6029,0.6029,0.6029,,0.67,,False,0.0,0.0,0.0,0.0,0.0,12.3256,-24.8347,0.009,True,True,Mode(963497464),0.0435,21,0.6018
1.156,THRUST_SEARCH,OPEN_LOOP,0.0084,0.00844,0.00884,0.00884,0.0,-0.00075,0.6031,0.6031,0.6031,,0.67,,False,0.0,0.0,0.0,0.0,0.0,12.3256,-25.6689,0.0045,True,False,Mode(963497464),0.054,22,0.6029
1.167,THRUST_SEARCH,OPEN_LOOP,0.0085,0.00846,0.00884,0.00884,0.0,-0.0006,0.6033,0.6033,0.6033,,0.67,,False,0.0,0.0,0.0,0.0,0.0,12.3256,-26.0334,0.004,True,False,Mode(963497464),0.065,22,0.6029
1.178,THRUST_SEARCH,OPEN_LOOP,0.0085,0.0085,0.00892,0.00892,0.0,-0.00044,0.6036,0.6036,0.6036,,0.67,,False,0.0,0.0,0.0,0.0,0.0,12.3256,-26.3604,0.009,True,False,Mode(963497464),0.0759,22,0.6029
1.189,THRUST_SEARCH,OPEN_LOOP,0.0086,0.00864,0.0102,0.0102,0.0,0.00017,0.6038,0.6038,0.6038,,0.67,,False,0.0,0.0,0.0,0.0,0.0,12.3256,-27.1607,0.0015,True,False,Mode(963497464),0.0864,22,0.6029
1.199,THRUST_SEARCH,OPEN_LOOP,0.0088,0.00881,0.01064,0.01064,0.0,0.00088,0.604,0.604,0.604,,0.67,,False,0.0,0.0,0.0,0.0,0.0,12.3256,-27.7207,0.004,True,True,Mode(963497464),0.0974,22,0.6029
1.211,THRUST_SEARCH,OPEN_LOOP,0.009,0.00902,0.01119,0.01119,0.0,0.00172,0.6042,0.6042,0.6042,,0.67,,False,0.0,0.0,0.0,0.0,0.0,12.3256,-28.3107,0.007,True,False,Mode(963497464),0.1087,23,0.604
1.221,THRUST_SEARCH,OPEN_LOOP,0.0092,0.00922,0.01108,0.01108,0.0,0.00244,0.6044,0.6044,0.6044,,0.67,,False,0.0,0.0,0.0,0.0,0.0,12.3256,-28.7968,0.009,True,False,Mode(963497464),0.1192,23,0.604
1.232,THRUST_SEARCH,OPEN_LOOP,0.0096,0.00959,0.01333,0.01333,0.0,0.0039,0.6046,0.6046,0.6046,,0.67,,False,0.0,0.0,0.0,0.0,0.0,12.3256,-29.6745,0.005,True,False,Mode(963497464),0.1302,23,0.604
1.243,THRUST_SEARCH,OPEN_LOOP,0.01,0.00996,0.01337,0.01337,0.0,0.00522,0.6049,0.6049,0.6049,,0.67,,False,0.0,0.0,0.0,0.0,0.0,12.3256,-30.0137,0.0069,True,False,Mode(963497464),0.1407,23,0.604
1.255,THRUST_SEARCH,OPEN_LOOP,0.0103,0.01031,0.01344,0.01344,0.0,0.00644,0.6051,0.6051,0.6051,,0.67,,False,0.0,0.0,0.0,0.0,0.0,12.3256,-30.2706,0.0,True,True,Mode(963497464),0.1516,23,0.604
1.264,THRUST_SEARCH,OPEN_LOOP,0.0106,0.01063,0.01337,0.01337,0.0,0.0075,0.6053,0.6053,0.6053,,0.67,,False,0.0,0.0,0.0,0.0,0.0,12.3256,-30.3362,0.0015,True,False,Mode(963497464),0.1621,24,0.6051
1.275,THRUST_SEARCH,OPEN_LOOP,0.0109,0.01092,0.01318,0.01318,0.0,0.00837,0.6055,0.6055,0.6055,,0.67,,False,0.0,0.0,0.0,0.0,0.0,12.3256,-30.4489,0.003,True,False,Mode(963497464),0.1731,24,0.6051
1.286,THRUST_SEARCH,OPEN_LOOP,0.0112,0.01117,0.01284,0.01284,0.0,0.00902,0.6057,0.6057,0.6057,,0.67,,False,0.0,0.0,0.0,0.0,0.0,12.3256,-30.6573,0.008,True,False,Mode(963497464),0.1841,24,0.6051
1.297,THRUST_SEARCH,OPEN_LOOP,0.0113,0.01129,0.01142,0.01142,0.0,0.00907,0.6059,0.6059,0.6059,,0.67,,False,0.0,0.0,0.0,0.0,0.0,12.3256,-31.278,0.001,True,False,Mode(963497464),0.1951,24,0.6051
1.309,THRUST_SEARCH,OPEN_LOOP,0.0114,0.01145,0.0121,0.0121,0.0,0.00933,0.6062,0.6062,0.6062,,0.67,,False,0.0,0.0,0.0,0.0,0.0,12.3256,-31.688,0.006,True,True,Mode(963497464),0.2061,24,0.6051
1.319,THRUST_SEARCH,OPEN_LOOP,0.0115,0.01152,0.01128,0.01152,0.0,0.00923,0.6064,0.6064,0.6064,,0.67,,False,0.0,0.0,0.0,0.0,0.0,12.3256,-32.1028,0.0075,True,False,Mode(963497464),0.2166,25,0.6062
1.33,THRUST_SEARCH,OPEN_LOOP,0.0115,0.01151,0.01027,0.01151,0.0,0.00876,0.6066,0.6066,0.6066,,0.67,,False,0.0,0.0,0.0,0.0,0.0,12.3256,-32.7881,0.001,True,False,Mode(963497464),0.2276,25,0.6062
1.341,THRUST_SEARCH,OPEN_LOOP,0.0114,0.01138,0.00899,0.01138,0.0,0.00782,0.6068,0.6068,0.6068,,0.67,,False,0.0,0.0,0.0,0.0,0.0,12.3256,-33.0544,0.003,True,False,Mode(963497464),0.2385,25,0.6062
1.351,THRUST_SEARCH,OPEN_LOOP,0.0113,0.01125,0.00903,0.01125,0.0,0.00696,0.607,0.607,0.607,,0.67,,False,0.0,0.0,0.0,0.0,0.0,12.3256,-33.2136,0.0075,True,False,Mode(963497464),0.249,25,0.6062
1.362,THRUST_SEARCH,OPEN_LOOP,0.0112,0.01119,0.00971,0.01119,0.0,0.00639,0.6072,0.6072,0.6072,,0.67,,False,0.0,0.0,0.0,0.0,0.0,12.3256,-33.1895,0.001,True,True,Mode(963497464),0.26,25,0.6062
1.373,THRUST_SEARCH,OPEN_LOOP,0.0111,0.01114,0.00992,0.01114,0.0,0.00591,0.6075,0.6075,0.6075,,0.67,,False,0.0,0.0,0.0,0.0,0.0,12.3256,-33.1261,0.003,True,False,Mode(963497464),0.271,26,0.6072
1.384,THRUST_SEARCH,OPEN_LOOP,0.0112,0.01115,0.01053,0.01115,0.0,0.00567,0.6077,0.6077,0.6077,,0.67,,False,0.0,0.0,0.0,0.0,0.0,12.3256,-33.1548,0.005,True,False,Mode(963497464),0.2819,26,0.6072
1.395,THRUST_SEARCH,OPEN_LOOP,0.0112,0.01124,0.01157,0.01157,0.0,0.0058,0.6079,0.6079,0.6079,,0.67,,False,0.0,0.0,0.0,0.0,0.0,12.3256,-33.5028,0.001,True,False,Mode(963497464),0.2929,26,0.6072
1.405,THRUST_SEARCH,OPEN_LOOP,0.0112,0.01124,0.01052,0.01124,0.0,0.00552,0.6081,0.6081,0.6081,,0.67,,False,0.0,0.0,0.0,0.0,0.0,12.3256,-33.9256,0.0025,True,False,Mode(963497464),0.3034,26,0.6072
1.416,THRUST_SEARCH,OPEN_LOOP,0.0112,0.01122,0.01047,0.01122,0.0,0.00523,0.6083,0.6083,0.6083,,0.67,,False,0.0,0.0,0.0,0.0,0.0,12.3256,-34.4893,0.004,True,True,Mode(963497464),0.3139,26,0.6072
1.427,THRUST_SEARCH,OPEN_LOOP,0.0112,0.0112,0.01031,0.0112,0.0,0.00488,0.6085,0.6085,0.6085,,0.67,,False,0.0,0.0,0.0,0.0,0.0,12.3256,-35.1476,0.006,True,False,Mode(963497464),0.3248,27,0.6083
1.437,THRUST_SEARCH,OPEN_LOOP,0.0112,0.01124,0.01114,0.01124,0.0,0.00484,0.6087,0.6087,0.6087,,0.67,,False,0.0,0.0,0.0,0.0,0.0,12.3256,-36.1512,0.0015,True,False,Mode(963497464),0.3353,27,0.6083
1.448,THRUST_SEARCH,OPEN_LOOP,0.0113,0.01126,0.01084,0.01126,0.0,0.00468,0.609,0.609,0.609,,0.67,,False,0.0,0.0,0.0,0.0,0.0,12.3256,-36.3825,0.003,True,False,Mode(963497464),0.3463,27,0.6083
1.459,THRUST_SEARCH,OPEN_LOOP,0.0112,0.01124,0.01058,0.01124,0.0,0.00443,0.6092,0.6092,0.6092,,0.67,,False,0.0,0.0,0.0,0.0,0.0,12.3256,-36.4012,0.0045,True,False,Mode(963497464),0.3568,27,0.6083
1.47,THRUST_SEARCH,OPEN_LOOP,0.0113,0.01129,0.01132,0.01132,0.0,0.00444,0.6094,0.6094,0.6094,,0.67,,False,0.0,0.0,0.0,0.0,0.0,12.3256,-36.3169,0.001,True,True,Mode(963497464),0.3677,27,0.6083
1.481,THRUST_SEARCH,OPEN_LOOP,0.0113,0.01127,0.01051,0.01127,0.0,0.00414,0.6096,0.6096,0.6096,,0.67,,False,0.0,0.0,0.0,0.0,0.0,12.3256,-36.3836,0.003,True,False,Mode(963497464),0.3787,28,0.6094
1.491,THRUST_SEARCH,OPEN_LOOP,0.0113,0.01125,0.01058,0.01125,0.0,0.00388,0.6098,0.6098,0.6098,,0.67,,False,0.0,0.0,0.0,0.0,0.0,12.3256,-36.6766,0.0045,True,False,Mode(963497464),0.3892,28,0.6094
1.502,THRUST_SEARCH,OPEN_LOOP,0.0112,0.01123,0.0105,0.01123,0.0,0.0036,0.61,0.61,0.61,,0.67,,False,0.0,0.0,0.0,0.0,0.0,12.3256,-37.2398,0.0069,True,False,Mode(963497464),0.4001,28,0.6094
1.513,THRUST_SEARCH,OPEN_LOOP,0.0112,0.01123,0.01085,0.01123,0.0,0.00346,0.6103,0.6103,0.6103,,0.67,,False,0.0,0.0,0.0,0.0,0.0,12.3256,-38.9929,0.003,True,False,Mode(963497464),0.411,28,0.6094
1.524,THRUST_SEARCH,OPEN_LOOP,0.0112,0.01124,0.01098,0.01124,0.0,0.00336,0.6105,0.6105,0.6105,,0.67,,False,0.0,0.0,0.0,0.0,0.0,12.3256,-39.9211,0.0045,True,True,Mode(963497464),0.4215,28,0.6094
1.535,THRUST_SEARCH,OPEN_LOOP,0.0112,0.01116,0.00983,0.01116,0.0,0.00284,0.6107,0.6107,0.6107,,0.67,,False,0.0,0.0,0.0,0.0,0.0,12.3256,-40.6763,0.0069,True,False,Mode(963497464),0.4324,29,0.6105
1.546,THRUST_SEARCH,OPEN_LOOP,0.0111,0.01107,0.00978,0.01107,0.0,0.00235,0.6109,0.6109,0.6109,,0.67,,False,0.0,0.0,0.0,0.0,0.0,12.3256,-41.2032,0.009,True,False,Mode(963497464),0.4434,29,0.6105
1.556,THRUST_SEARCH,OPEN_LOOP,0.011,0.01096,0.00961,0.01096,0.0,0.00182,0.6111,0.6111,0.6111,,0.67,,False,0.0,0.0,0.0,0.0,0.0,12.3256,-41.9446,0.0015,True,False,Mode(963497464),0.4539,29,0.6105
1.567,THRUST_SEARCH,OPEN_LOOP,0.0108,0.01085,0.0094,0.01085,0.0,0.00126,0.6113,0.6113,0.6113,,0.67,,False,0.0,0.0,0.0,0.0,0.0,12.3256,-42.2917,0.006,True,False,Mode(963497464),0.4649,29,0.6105
1.578,THRUST_SEARCH,OPEN_LOOP,0.0108,0.01076,0.00965,0.01076,0.0,0.00083,0.6116,0.6116,0.6116,,0.67,,False,0.0,0.0,0.0,0.0,0.0,12.3256,-42.7171,0.008,True,True,Mode(963497464),0.4758,29,0.6105
1.589,THRUST_SEARCH,OPEN_LOOP,0.0106,0.01065,0.00936,0.01065,0.0,0.00033,0.6118,0.6118,0.6118,,0.67,,False,0.0,0.0,0.0,0.0,0.0,12.3256,-43.8612,0.001,True,False,Mode(963497464),0.4868,30,0.6116
1.6,THRUST_SEARCH,OPEN_LOOP,0.0106,0.01059,0.00995,0.01059,0.0,9e-05,0.612,0.612,0.612,,0.67,,False,0.0,0.0,0.0,0.0,0.0,12.3256,-44.4765,0.006,True,False,Mode(963497464),0.4978,30,0.6116
1.611,THRUST_SEARCH,OPEN_LOOP,0.0104,0.01044,0.00879,0.01044,0.0,-0.00055,0.6122,0.6122,0.6122,,0.67,,False,0.0,0.0,0.0,0.0,0.0,12.3256,-44.9912,0.008,True,False,Mode(963497464),0.5087,30,0.6116
1.622,THRUST_SEARCH,OPEN_LOOP,0.0102,0.01021,0.00789,0.01021,0.0,-0.00146,0.6124,0.6124,0.6124,,0.67,,False,0.0,0.0,0.0,0.0,0.0,12.3256,-45.4737,0.001,True,False,Mode(963497464),0.5197,30,0.6116
1.633,THRUST_SEARCH,OPEN_LOOP,0.01,0.00997,0.0075,0.00997,0.0,-0.00242,0.6127,0.6127,0.6127,,0.67,,False,0.0,0.0,0.0,0.0,0.0,12.3256,-45.5975,0.006,True,True,Mode(963497464),0.5307,30,0.6116
1.643,THRUST_SEARCH,OPEN_LOOP,0.0097,0.0097,0.00715,0.0097,0.0,-0.00341,0.6129,0.6129,0.6129,,0.67,,False,0.0,0.0,0.0,0.0,0.0,12.3256,-45.867,0.0075,True,False,Mode(963497464),0.5412,31,0.6127
1.654,THRUST_SEARCH,OPEN_LOOP,0.0094,0.00943,0.00699,0.00943,0.0,-0.00436,0.6131,0.6131,0.6131,,0.67,,False,0.0,0.0,0.0,0.0,0.0,12.3256,-46.8943,0.0007,True,False,Mode(963497464),0.5519,31,0.6127
1.665,THRUST_SEARCH,OPEN_LOOP,0.0092,0.00917,0.00691,0.00917,0.0,-0.00524,0.6133,0.6133,0.6133,,0.67,,False,0.0,0.0,0.0,0.0,0.0,12.3256,-47.3039,0.003,True,False,Mode(963497464),0.5628,31,0.6127
1.676,THRUST_SEARCH,OPEN_LOOP,0.0089,0.00895,0.00715,0.00895,0.0,-0.00594,0.6135,0.6135,0.6135,,0.67,,False,0.0,0.0,0.0,0.0,0.0,12.3256,-47.4684,0.005,True,False,Mode(963497464),0.5738,31,0.6127
1.687,THRUST_SEARCH,OPEN_LOOP,0.0087,0.00872,0.00695,0.00872,0.0,-0.00662,0.6137,0.6137,0.6137,,0.67,,False,0.0,0.0,0.0,0.0,0.0,12.3256,-47.5225,0.0012,True,True,Mode(963497464),0.5849,31,0.6127
1.698,THRUST_SEARCH,OPEN_LOOP,0.0085,0.0085,0.00699,0.0085,0.0,-0.00722,0.614,0.614,0.614,,0.67,,False,0.0,0.0,0.0,0.0,0.0,12.3256,-47.4815,0.003,True,False,Mode(963497464),0.5959,32,0.6137
1.708,THRUST_SEARCH,OPEN_LOOP,0.0083,0.00834,0.00742,0.00834,0.0,-0.00757,0.6142,0.6142,0.6142,,0.67,,False,0.0,0.0,0.0,0.0,0.0,12.3256,-47.5637,0.0045,True,False,Mode(963497464),0.6064,32,0.6137
1.719,THRUST_SEARCH,OPEN_LOOP,0.0082,0.00817,0.00722,0.00817,0.0,-0.00794,0.6144,0.6144,0.6144,,0.67,,False,0.0,0.0,0.0,0.0,0.0,12.3256,-47.8167,0.007,True,False,Mode(963497464),0.6173,32,0.6137
1.73,THRUST_SEARCH,OPEN_LOOP,0.008,0.00797,0.00683,0.00797,0.0,-0.00838,0.6146,0.6146,0.6146,,0.67,,False,0.0,0.0,0.0,0.0,0.0,12.3256,-48.5837,0.003,True,False,Mode(963497464),0.6283,32,0.6137
1.741,THRUST_SEARCH,OPEN_LOOP,0.0079,0.00786,0.00767,0.00786,0.0,-0.00846,0.6148,0.6148,0.6148,,0.67,,False,0.0,0.0,0.0,0.0,0.0,12.3256,-48.9491,0.005,True,True,Mode(963497464),0.6393,32,0.6137
1.753,THRUST_SEARCH,OPEN_LOOP,0.0078,0.00783,0.00853,0.00853,0.0,-0.00819,0.6151,0.6151,0.6151,,0.67,,False,0.0,0.0,0.0,0.0,0.0,12.3256,-48.9651,0.007,True,False,Mode(963497464),0.6505,33,0.6148
1.764,THRUST_SEARCH,OPEN_LOOP,0.008,0.00795,0.0102,0.0102,0.0,-0.00731,0.6153,0.6153,0.6153,,0.67,,False,0.0,0.0,0.0,0.0,0.0,12.3256,-48.4027,0.001,True,False,Mode(963497464),0.6619,33,0.6148
1.775,THRUST_SEARCH,OPEN_LOOP,0.008,0.00804,0.00982,0.00982,0.0,-0.00661,0.6155,0.6155,0.6155,,0.67,,False,0.0,0.0,0.0,0.0,0.0,12.3256,-48.0573,0.006,True,False,Mode(963497464),0.6727,33,0.6148
1.785,THRUST_SEARCH,OPEN_LOOP,0.0082,0.00821,0.01076,0.01076,0.0,-0.00561,0.6157,0.6157,0.6157,,0.67,,False,0.0,0.0,0.0,0.0,0.0,12.3256,-47.8829,0.0074,True,False,Mode(963497464),0.6832,33,0.6148
1.796,THRUST_SEARCH,OPEN_LOOP,0.0085,0.00846,0.01167,0.01167,0.0,-0.00436,0.6159,0.6159,0.6159,,0.67,,False,0.0,0.0,0.0,0.0,0.0,12.3256,-48.2276,0.001,True,True,Mode(963497464),0.6941,33,0.6148
1.807,THRUST_SEARCH,OPEN_LOOP,0.0087,0.00874,0.01221,0.01221,0.0,-0.003,0.6161,0.6161,0.6161,,0.67,,False,0.0,0.0,0.0,0.0,0.0,12.3256,-48.6639,0.003,True,False,Mode(963497464),0.7051,34,0.6159
1.818,THRUST_SEARCH,OPEN_LOOP,0.009,0.009,0.01217,0.01217,0.0,-0.00176,0.6164,0.6164,0.6164,,0.67,,False,0.0,0.0,0.0,0.0,0.0,12.3256,-49.1476,0.0075,True,False,Mode(963497464),0.7156,34,0.6159
1.829,THRUST_SEARCH,OPEN_LOOP,0.0093,0.00928,0.01247,0.01247,0.0,-0.00052,0.6166,0.6166,0.6166,,0.67,,False,0.0,0.0,0.0,0.0,0.0,12.3256,-49.5795,0.001,True,False,Mode(963497464),0.7265,34,0.6159
1.84,THRUST_SEARCH,OPEN_LOOP,0.0095,0.00953,0.0122,0.0122,0.0,0.00052,0.6168,0.6168,0.6168,,0.67,,False,0.0,0.0,0.0,0.0,0.0,12.3256,-49.3282,0.003,True,False,Mode(963497464),0.7375,34,0.6159
1.85,THRUST_SEARCH,OPEN_LOOP,0.0097,0.00969,0.01137,0.01137,0.0,0.00117,0.617,0.617,0.617,,0.67,,False,0.0,0.0,0.0,0.0,0.0,12.3256,-48.9598,0.0045,True,True,Mode(963497464),0.748,34,0.6159
1.861,THRUST_SEARCH,OPEN_LOOP,0.0099,0.00991,0.01208,0.01208,0.0,0.00202,0.6172,0.6172,0.6172,,0.67,,False,0.0,0.0,0.0,0.0,0.0,12.3256,-48.5622,0.007,True,False,Mode(963497464),0.759,35,0.617
1.873,THRUST_SEARCH,OPEN_LOOP,0.01,0.01002,0.01099,0.01099,0.0,0.0024,0.6175,0.6175,0.6175,,0.67,,False,0.0,0.0,0.0,0.0,0.0,12.3256,-48.2215,0.004,True,False,Mode(963497464),0.7705,35,0.617
1.883,THRUST_SEARCH,OPEN_LOOP,0.0102,0.01017,0.01143,0.01143,0.0,0.00289,0.6177,0.6177,0.6177,,0.67,,False,0.0,0.0,0.0,0.0,0.0,12.3256,-48.4198,0.003,True,False,Mode(963497464),0.7809,35,0.617
1.894,THRUST_SEARCH,OPEN_LOOP,0.0102,0.01022,0.01047,0.01047,0.0,0.00299,0.6179,0.6179,0.6179,,0.67,,False,0.0,0.0,0.0,0.0,0.0,12.3256,-48.8282,0.0076,True,False,Mode(963497464),0.7915,35,0.617
1.905,THRUST_SEARCH,OPEN_LOOP,0.0102,0.01016,0.00914,0.01016,0.0,0.00259,0.6181,0.6181,0.6181,,0.67,,False,0.0,0.0,0.0,0.0,0.0,12.3256,-49.699,0.0011,True,True,Mode(963497464),0.8025,35,0.617
1.916,THRUST_SEARCH,OPEN_LOOP,0.0102,0.01021,0.01045,0.01045,0.0,0.00268,0.6183,0.6183,0.6183,,0.67,,False,0.0,0.0,0.0,0.0,0.0,12.3256,-49.8953,0.003,True,False,Mode(963497464),0.8135,36,0.6181
1.927,THRUST_SEARCH,OPEN_LOOP,0.0102,0.0102,0.00974,0.0102,0.0,0.0025,0.6185,0.6185,0.6185,,0.67,,False,0.0,0.0,0.0,0.0,0.0,12.3256,-49.8846,0.005,True,False,Mode(963497464),0.8244,36,0.6181
1.938,THRUST_SEARCH,OPEN_LOOP,0.0103,0.01028,0.0109,0.0109,0.0,0.00274,0.6188,0.6188,0.6188,,0.67,,False,0.0,0.0,0.0,0.0,0.0,12.3256,-49.7967,0.001,True,False,Mode(963497464),0.8357,36,0.6181
1.949,THRUST_SEARCH,OPEN_LOOP,0.0103,0.01035,0.01073,0.01073,0.0,0.00289,0.619,0.619,0.619,,0.67,,False,0.0,0.0,0.0,0.0,0.0,12.3256,-49.9882,0.003,True,False,Mode(963497464),0.8467,36,0.6181
1.959,THRUST_SEARCH,OPEN_LOOP,0.0106,0.01057,0.01264,0.01264,0.0,0.0037,0.6192,0.6192,0.6192,,0.67,,False,0.0,0.0,0.0,0.0,0.0,12.3256,-50.3959,0.0075,True,True,Mode(963497464),0.8572,36,0.6181
1.97,THRUST_SEARCH,OPEN_LOOP,0.0109,0.01091,0.01406,0.01406,0.0,0.00493,0.6194,0.6194,0.6194,,0.67,,False,0.0,0.0,0.0,0.0,0.0,12.3256,-51.7379,0.001,True,False,Mode(963497464),0.8681,37,0.6192
1.981,THRUST_SEARCH,OPEN_LOOP,0.0112,0.01115,0.0131,0.0131,0.0,0.00569,0.6196,0.6196,0.6196,,0.67,,False,0.0,0.0,0.0,0.0,0.0,12.3256,-52.3913,0.003,True,False,Mode(963497464),0.8791,37,0.6192
1.992,THRUST_SEARCH,OPEN_LOOP,0.0114,0.01141,0.0135,0.0135,0.0,0.00651,0.6198,0.6198,0.6198,,0.67,,False,0.0,0.0,0.0,0.0,0.0,12.3256,-52.8643,0.005,True,False,Mode(963497464),0.8901,37,0.6192
2.003,THRUST_SEARCH,OPEN_LOOP,0.0116,0.01164,0.01333,0.01333,0.0,0.00717,0.6201,0.6201,0.6201,,0.67,,False,0.0,0.0,0.0,0.0,0.0,12.3256,-53.432,0.001,True,False,Mode(963497464),0.9008,37,0.6192
2.014,THRUST_SEARCH,OPEN_LOOP,0.0119,0.01193,0.01423,0.01423,0.0,0.00807,0.6203,0.6203,0.6203,,0.67,,False,0.0,0.0,0.0,0.0,0.0,12.3256,-53.675,0.003,True,True,Mode(963497464),0.9118,37,0.6192
2.024,THRUST_SEARCH,OPEN_LOOP,0.0122,0.01221,0.01424,0.01424,0.0,0.00886,0.6205,0.6205,0.6205,,0.67,,False,0.0,0.0,0.0,0.0,0.0,12.3256,-53.9822,0.0045,True,False,Mode(963497464),0.9222,38,0.6203
2.035,THRUST_SEARCH,OPEN_LOOP,0.0126,0.01261,0.01578,0.01578,0.0,0.01009,0.6207,0.6207,0.6207,,0.67,,False,0.0,0.0,0.0,0.0,0.0,12.3256,-54.4335,0.007,True,False,Mode(963497464),0.9332,38,0.6203
2.046,THRUST_SEARCH,OPEN_LOOP,0.013,0.01299,0.01591,0.01591,0.0,0.01123,0.6209,0.6209,0.6209,,0.67,,False,0.0,0.0,0.0,0.0,0.0,12.3256,-54.8783,0.009,True,False,Mode(963497464),0.9437,38,0.6203
2.056,THRUST_SEARCH,OPEN_LOOP,0.0133,0.01334,0.01583,0.01583,0.0,0.0122,0.6211,0.6211,0.6211,,0.67,,False,0.0,0.0,0.0,0.0,0.0,12.3256,-55.7692,0.0015,True,False,Mode(963497464),0.9542,38,0.6203
2.068,THRUST_SEARCH,OPEN_LOOP,0.0137,0.01366,0.01562,0.01562,0.0,0.01296,0.6213,0.6213,0.6213,,0.67,,False,0.0,0.0,0.0,0.0,0.0,12.3256,-56.2047,0.006,True,True,Mode(963497464),0.9651,38,0.6203
2.078,THRUST_SEARCH,OPEN_LOOP,0.014,0.014,0.0162,0.0162,0.0,0.01381,0.6216,0.6216,0.6216,,0.67,,False,0.0,0.0,0.0,0.0,0.0,12.3256,-56.5165,0.0074,True,False,Mode(963497464),0.9756,39,0.6213
2.089,THRUST_SEARCH,OPEN_LOOP,0.0142,0.01419,0.0146,0.0146,0.0,0.01397,0.6218,0.6218,0.6218,,0.67,,False,0.0,0.0,0.0,0.0,0.0,12.3256,-56.7237,0.01,True,False,Mode(963497464),0.9865,39,0.6213
2.1,THRUST_SEARCH,OPEN_LOOP,0.0144,0.01442,0.01532,0.01532,0.0,0.01432,0.622,0.622,0.622,,0.67,,False,0.0,0.0,0.0,0.0,0.0,12.3256,-57.2071,0.005,True,False,Mode(963497464),0.9975,39,0.6213
2.111,THRUST_SEARCH,OPEN_LOOP,0.0147,0.01467,0.01556,0.01556,0.0,0.01467,0.6222,0.6222,0.6222,,0.67,,False,0.0,0.0,0.0,0.0,0.0,12.3256,-57.6021,0.0045,True,False,Mode(963497464),1.009,39,0.6213
2.122,THRUST_SEARCH,OPEN_LOOP,0.0148,0.01481,0.01453,0.01481,0.0,0.01456,0.6224,0.6224,0.6224,,0.67,,False,0.0,0.0,0.0,0.0,0.0,12.3256,-58.5202,0.001,True,True,Mode(963497464),1.0199,39,0.6213
2.133,THRUST_SEARCH,OPEN_LOOP,0.0149,0.01493,0.0145,0.01493,0.0,0.01439,0.6227,0.6227,0.6227,,0.67,,False,0.0,0.0,0.0,0.0,0.0,12.3256,-59.0742,0.006,True,False,Mode(963497464),1.0309,40,0.6224
2.144,THRUST_SEARCH,OPEN_LOOP,0.015,0.01503,0.01443,0.01503,0.0,0.01416,0.6229,0.6229,0.6229,,0.67,,False,0.0,0.0,0.0,0.0,0.0,12.3256,-59.6487,0.008,True,False,Mode(963497464),1.0419,40,0.6224
2.154,THRUST_SEARCH,OPEN_LOOP,0.0149,0.01492,0.01225,0.01492,0.0,0.01312,0.6231,0.6231,0.6231,,0.67,,False,0.0,0.0,0.0,0.0,0.0,12.3256,-60.5045,0.001,True,False,Mode(963497464),1.0524,40,0.6224
2.165,THRUST_SEARCH,OPEN_LOOP,0.0149,0.01494,0.0136,0.01494,0.0,0.0126,0.6233,0.6233,0.6233,,0.67,,False,0.0,0.0,0.0,0.0,0.0,12.3256,-60.955,0.003,True,False,Mode(963497464),0.0,40,0.6224
2.176,THRUST_SEARCH,OPEN_LOOP,0.0149,0.01487,0.01262,0.01487,0.0,0.01172,0.6235,0.6235,0.6235,,0.67,,False,0.0,0.0,0.0,0.0,0.0,12.3256,-61.4091,0.005,True,True,Mode(963497464),0.011,40,0.6224
2.187,THRUST_SEARCH,OPEN_LOOP,0.0149,0.01492,0.0141,0.01492,0.0,0.0114,0.6237,0.6237,0.6237,,0.67,,False,0.0,0.0,0.0,0.0,0.0,12.3256,-62.016,0.001,True,False,Mode(963497464),0.0219,41,0.6235
2.198,THRUST_SEARCH,OPEN_LOOP,0.0149,0.01488,0.01317,0.01488,0.0,0.01073,0.624,0.624,0.624,,0.67,,False,0.0,0.0,0.0,0.0,0.0,12.3256,-62.2022,0.003,True,False,Mode(963497464),0.0329,41,0.6235
2.209,THRUST_SEARCH,OPEN_LOOP,0.0149,0.01485,0.01331,0.01485,0.0,0.01013,0.6242,0.6242,0.6242,,0.67,,False,0.0,0.0,0.0,0.0,0.0,12.3256,-62.3455,0.0045,True,False,Mode(963497464),0.0434,41,0.6235
2.22,THRUST_SEARCH,OPEN_LOOP,0.0147,0.01474,0.01235,0.01474,0.0,0.0092,0.6244,0.6244,0.6244,,0.67,,False,0.0,0.0,0.0,0.0,0.0,12.3256,-62.5211,0.001,True,False,Mode(963497464),0.0544,41,0.6235
2.231,THRUST_SEARCH,OPEN_LOOP,0.0146,0.01459,0.0119,0.01459,0.0,0.00815,0.6246,0.6246,0.6246,,0.67,,False,0.0,0.0,0.0,0.0,0.0,12.3256,-62.6093,0.003,True,True,Mode(963497464),0.0653,41,0.6235
2.242,THRUST_SEARCH,OPEN_LOOP,0.0144,0.01443,0.01178,0.01443,0.0,0.00712,0.6248,0.6248,0.6248,,0.67,,False,0.0,0.0,0.0,0.0,0.0,12.3256,-62.9096,0.005,True,False,Mode(963497464),0.0763,42,0.6246
2.253,THRUST_SEARCH,OPEN_LOOP,0.0144,0.01438,0.01308,0.01438,0.0,0.00661,0.6251,0.6251,0.6251,,0.67,,False,0.0,0.0,0.0,0.0,0.0,12.3256,-63.7455,0.001,True,False,Mode(963497464),0.0873,42,0.6246
2.264,THRUST_SEARCH,OPEN_LOOP,0.0143,0.01432,0.01292,0.01432,0.0,0.00606,0.6253,0.6253,0.6253,,0.67,,False,0.0,0.0,0.0,0.0,0.0,12.3256,-64.1503,0.003,True,False,Mode(963497464),0.0983,42,0.6246
2.275,THRUST_SEARCH,OPEN_LOOP,0.0143,0.01426,0.01291,0.01426,0.0,0.00554,0.6255,0.6255,0.6255,,0.67,,False,0.0,0.0,0.0,0.0,0.0,12.3256,-64.7282,0.005,True,False,Mode(963497464),0.1092,42,0.6246
2.285,THRUST_SEARCH,OPEN_LOOP,0.014,0.01403,0.01092,0.01403,0.0,0.00432,0.6257,0.6257,0.6257,,0.67,,False,0.0,0.0,0.0,0.0,0.0,12.3256,-65.3982,0.007,True,True,Mode(963497464),0.1197,42,0.6246
2.297,THRUST_SEARCH,OPEN_LOOP,0.0139,0.01389,0.01194,0.01389,0.0,0.00356,0.6259,0.6259,0.6259,,0.67,,False,0.0,0.0,0.0,0.0,0.0,12.3256,-66.1765,0.001,True,False,Mode(963497464),0.1312,43,0.6257
2.308,THRUST_SEARCH,OPEN_LOOP,0.0138,0.01375,0.01188,0.01375,0.0,0.00283,0.6262,0.6262,0.6262,,0.67,,False,0.0,0.0,0.0,0.0,0.0,12.3256,-66.2957,0.003,True,False,Mode(963497464),0.1422,43,0.6257
2.319,THRUST_SEARCH,OPEN_LOOP,0.0136,0.01356,0.01121,0.01356,0.0,0.0019,0.6264,0.6264,0.6264,,0.67,,False,0.0,0.0,0.0,0.0,0.0,12.3256,-66.3768,0.008,True,False,Mode(963497464),0.1531,43,0.6257
2.33,THRUST_SEARCH,OPEN_LOOP,0.0136,0.0136,0.01376,0.01376,0.0,0.00197,0.6266,0.6266,0.6266,,0.67,,False,0.0,0.0,0.0,0.0,0.0,12.3256,-66.3159,0.001,True,False,Mode(963497464),0.1641,43,0.6257
2.341,THRUST_SEARCH,OPEN_LOOP,0.0136,0.01358,0.01313,0.01358,0.0,0.00179,0.6268,0.6268,0.6268,,0.67,,False,0.0,0.0,0.0,0.0,0.0,12.3256,-66.181,0.0031,True,True,Mode(963497464),0.1752,43,0.6257
2.352,THRUST_SEARCH,OPEN_LOOP,0.0135,0.01353,0.01283,0.01353,0.0,0.00152,0.627,0.627,0.627,,0.67,,False,0.0,0.0,0.0,0.0,0.0,12.3256,-66.0324,0.005,True,False,Mode(963497464),0.1861,44,0.6268
2.362,THRUST_SEARCH,OPEN_LOOP,0.0135,0.01346,0.01254,0.01346,0.0,0.00116,0.6272,0.6272,0.6272,,0.67,,False,0.0,0.0,0.0,0.0,0.0,12.3256,-66.1959,0.001,True,False,Mode(963497464),0.197,44,0.6268
2.373,THRUST_SEARCH,OPEN_LOOP,0.0134,0.01342,0.01293,0.01342,0.0,0.00096,0.6275,0.6275,0.6275,,0.67,,False,0.0,0.0,0.0,0.0,0.0,12.3256,-66.4301,0.003,True,False,Mode(963497464),0.208,44,0.6268
2.384,THRUST_SEARCH,OPEN_LOOP,0.0133,0.0133,0.01182,0.0133,0.0,0.00038,0.6277,0.6277,0.6277,,0.67,,False,0.0,0.0,0.0,0.0,0.0,12.3256,-66.5125,0.005,True,False,Mode(963497464),0.219,44,0.6268
2.395,THRUST_SEARCH,OPEN_LOOP,0.0133,0.01334,0.01379,0.01379,0.0,0.00056,0.6279,0.6279,0.6279,,0.67,,False,0.0,0.0,0.0,0.0,0.0,12.3256,-66.4433,0.001,True,True,Mode(963497464),0.2298,44,0.6268
2.406,THRUST_SEARCH,OPEN_LOOP,0.0134,0.01343,0.01428,0.01428,0.0,0.00089,0.6281,0.6281,0.6281,,0.67,,False,0.0,0.0,0.0,0.0,0.0,12.3256,-66.338,0.003,True,False,Mode(963497464),0.2408,45,0.6279
2.417,THRUST_SEARCH,OPEN_LOOP,0.0135,0.01353,0.01452,0.01452,0.0,0.00128,0.6283,0.6283,0.6283,,0.67,,False,0.0,0.0,0.0,0.0,0.0,12.3256,-66.2433,0.0045,True,False,Mode(963497464),0.2513,45,0.6279
2.427,THRUST_SEARCH,OPEN_LOOP,0.0136,0.01359,0.01404,0.01404,0.0,0.00145,0.6285,0.6285,0.6285,,0.67,,False,0.0,0.0,0.0,0.0,0.0,12.3256,-66.1711,0.0067,True,False,Mode(963497464),0.2619,45,0.6279
2.438,THRUST_SEARCH,OPEN_LOOP,0.0136,0.01356,0.01314,0.01356,0.0,0.00129,0.6288,0.6288,0.6288,,0.67,,False,0.0,0.0,0.0,0.0,0.0,12.3256,-66.4124,0.003,True,False,Mode(963497464),0.2729,45,0.6279
2.449,THRUST_SEARCH,OPEN_LOOP,0.0135,0.01349,0.01256,0.01349,0.0,0.00092,0.629,0.629,0.629,,0.67,,False,0.0,0.0,0.0,0.0,0.0,12.3256,-66.6894,0.0045,True,True,Mode(963497464),0.2834,45,0.6279
2.46,THRUST_SEARCH,OPEN_LOOP,0.0133,0.01333,0.01148,0.01333,0.0,0.00021,0.6292,0.6292,0.6292,,0.67,,False,0.0,0.0,0.0,0.0,0.0,12.3256,-67.0373,0.007,True,False,Mode(963497464),0.2943,46,0.629
2.471,THRUST_SEARCH,OPEN_LOOP,0.0132,0.01318,0.01157,0.01318,0.0,-0.00042,0.6294,0.6294,0.6294,,0.67,,False,0.0,0.0,0.0,0.0,0.0,12.3256,-67.9639,0.001,True,False,Mode(963497464),0.3058,46,0.629
2.482,THRUST_SEARCH,OPEN_LOOP,0.0131,0.01306,0.01188,0.01306,0.0,-0.00089,0.6296,0.6296,0.6296,,0.67,,False,0.0,0.0,0.0,0.0,0.0,12.3256,-68.3869,0.003,True,False,Mode(963497464),0.3168,46,0.629
2.493,THRUST_SEARCH,OPEN_LOOP,0.0129,0.0129,0.01133,0.0129,0.0,-0.0015,0.6299,0.6299,0.6299,,0.67,,False,0.0,0.0,0.0,0.0,0.0,12.3256,-68.7806,0.005,True,False,Mode(963497464),0.3278,46,0.629
2.504,THRUST_SEARCH,OPEN_LOOP,0.0125,0.01254,0.0089,0.01254,0.0,-0.00293,0.6301,0.6301,0.6301,,0.67,,False,0.0,0.0,0.0,0.0,0.0,12.3256,-69.4218,0.0,True,True,Mode(963497464),0.3387,46,0.629
2.515,THRUST_SEARCH,OPEN_LOOP,0.0121,0.01215,0.00834,0.01215,0.0,-0.00442,0.6303,0.6303,0.6303,,0.67,,False,0.0,0.0,0.0,0.0,0.0,12.3256,-69.875,0.002,True,False,Mode(963497464),0.3497,47,0.6301
2.526,THRUST_SEARCH,OPEN_LOOP,0.0117,0.01172,0.00768,0.01172,0.0,-0.006,0.6305,0.6305,0.6305,,0.67,,False,0.0,0.0,0.0,0.0,0.0,12.3256,-70.2763,0.0043,True,False,Mode(963497464),0.3606,47,0.6301
2.537,THRUST_SEARCH,OPEN_LOOP,0.0114,0.01137,0.00844,0.01137,0.0,-0.00715,0.6307,0.6307,0.6307,,0.67,,False,0.0,0.0,0.0,0.0,0.0,12.3256,-70.4862,0.01,True,False,Mode(963497464),0.3716,47,0.6301
2.548,THRUST_SEARCH,OPEN_LOOP,0.0112,0.01117,0.00975,0.01117,0.0,-0.0077,0.631,0.631,0.631,,0.67,,False,0.0,0.0,0.0,0.0,0.0,12.3256,-70.8144,0.003,True,False,Mode(963497464),0.382,47,0.6301
2.558,THRUST_SEARCH,OPEN_LOOP,0.0111,0.01108,0.01107,0.01108,0.0,-0.00771,0.6312,0.6312,0.6312,,0.67,,False,0.0,0.0,0.0,0.0,0.0,12.3256,-70.9347,0.0045,True,True,Mode(963497464),0.3925,47,0.6301
2.569,THRUST_SEARCH,OPEN_LOOP,0.011,0.01103,0.01136,0.01136,0.0,-0.00758,0.6314,0.6314,0.6314,,0.67,,False,0.0,0.0,0.0,0.0,0.0,12.3256,-71.0571,0.007,True,False,Mode(963497464),0.4035,48,0.6312
2.58,THRUST_SEARCH,OPEN_LOOP,0.011,0.01097,0.01122,0.01122,0.0,-0.00748,0.6316,0.6316,0.6316,,0.67,,False,0.0,0.0,0.0,0.0,0.0,12.3256,-71.4536,0.001,True,False,Mode(963497464),0.415,48,0.6312
2.591,THRUST_SEARCH,OPEN_LOOP,0.0108,0.01084,0.01041,0.01084,0.0,-0.00765,0.6318,0.6318,0.6318,,0.67,,False,0.0,0.0,0.0,0.0,0.0,12.3256,-71.709,0.006,True,False,Mode(963497464),0.4259,48,0.6312
2.602,THRUST_SEARCH,OPEN_LOOP,0.0108,0.01075,0.01068,0.01075,0.0,-0.00768,0.632,0.632,0.632,,0.67,,False,0.0,0.0,0.0,0.0,0.0,12.3256,-71.911,0.008,True,False,Mode(963497464),0.4369,48,0.6312
2.613,THRUST_SEARCH,OPEN_LOOP,0.0107,0.01066,0.01061,0.01066,0.0,-0.0077,0.6323,0.6323,0.6323,,0.67,,False,0.0,0.0,0.0,0.0,0.0,12.3256,-72.042,0.001,True,True,Mode(963497464),0.4479,48,0.6312
2.624,THRUST_SEARCH,OPEN_LOOP,0.0107,0.01067,0.01163,0.01163,0.0,-0.00732,0.6325,0.6325,0.6325,,0.67,,False,0.0,0.0,0.0,0.0,0.0,12.3256,-72.0192,0.003,True,False,Mode(963497464),0.4589,49,0.6323
2.635,THRUST_SEARCH,OPEN_LOOP,0.0108,0.01076,0.01247,0.01247,0.0,-0.00665,0.6327,0.6327,0.6327,,0.67,,False,0.0,0.0,0.0,0.0,0.0,12.3256,-71.9124,0.0075,True,False,Mode(963497464),0.4693,49,0.6323
2.646,THRUST_SEARCH,OPEN_LOOP,0.0108,0.01078,0.01179,0.01179,0.0,-0.00625,0.6329,0.6329,0.6329,,0.67,,False,0.0,0.0,0.0,0.0,0.0,12.3256,-72.1695,0.001,True,False,Mode(963497464),0.4803,49,0.6323
2.657,THRUST_SEARCH,OPEN_LOOP,0.0109,0.01088,0.01269,0.01269,0.0,-0.00555,0.6331,0.6331,0.6331,,0.67,,False,0.0,0.0,0.0,0.0,0.0,12.3256,-72.5083,0.003,True,False,Mode(963497464),0.4913,49,0.6323
2.667,THRUST_SEARCH,OPEN_LOOP,0.0109,0.01089,0.01162,0.01162,0.0,-0.00526,0.6333,0.6333,0.6333,,0.67,,False,0.0,0.0,0.0,0.0,0.0,12.3256,-73.0123,0.0045,True,True,Mode(963497464),0.5018,49,0.6323
2.678,THRUST_SEARCH,OPEN_LOOP,0.011,0.01105,0.01329,0.01329,0.0,-0.00438,0.6336,0.6336,0.6336,,0.67,,False,0.0,0.0,0.0,0.0,0.0,12.3256,-73.9106,0.001,True,False,Mode(963497464),0.5127,50,0.6333
2.689,THRUST_SEARCH,OPEN_LOOP,0.0113,0.01129,0.01436,0.01436,0.0,-0.00318,0.6338,0.6338,0.6338,,0.67,,False,0.0,0.0,0.0,0.0,0.0,12.3256,-74.1956,0.003,True,False,Mode(963497464),0.5237,50,0.6333
2.7,THRUST_SEARCH,OPEN_LOOP,0.0117,0.01166,0.01594,0.01594,0.0,-0.00151,0.634,0.634,0.634,,0.67,,False,0.0,0.0,0.0,0.0,0.0,12.3256,-74.3309,0.005,True,False,Mode(963497464),0.5347,50,0.6333
2.711,THRUST_SEARCH,OPEN_LOOP,0.0121,0.01214,0.01746,0.01746,0.0,0.00057,0.6342,0.6342,0.6342,,0.67,,False,0.0,0.0,0.0,0.0,0.0,12.3256,-74.546,0.001,True,False,Mode(963497464),0.5459,50,0.6333
2.722,THRUST_SEARCH,OPEN_LOOP,0.0125,0.01252,0.01641,0.01641,0.0,0.0021,0.6344,0.6344,0.6344,,0.67,,False,0.0,0.0,0.0,0.0,0.0,12.3256,-74.8368,0.003,True,True,Mode(963497464),0.5568,50,0.6333
2.733,THRUST_SEARCH,OPEN_LOOP,0.013,0.013,0.01779,0.01779,0.0,0.00398,0.6347,0.6347,0.6347,,0.67,,False,0.0,0.0,0.0,0.0,0.0,12.3256,-75.2525,0.005,True,False,Mode(963497464),0.5678,51,0.6344
2.744,THRUST_SEARCH,OPEN_LOOP,0.0134,0.01341,0.01736,0.01736,0.0,0.00553,0.6349,0.6349,0.6349,,0.67,,False,0.0,0.0,0.0,0.0,0.0,12.3256,-75.9066,0.0069,True,False,Mode(963497464),0.5787,51,0.6344
2.756,THRUST_SEARCH,OPEN_LOOP,0.0139,0.01394,0.01881,0.01881,0.0,0.00744,0.6351,0.6351,0.6351,,0.67,,False,0.0,0.0,0.0,0.0,0.0,12.3256,-76.7187,0.009,True,False,Mode(963497464),0.5897,51,0.6344
2.766,THRUST_SEARCH,OPEN_LOOP,0.0145,0.01447,0.01931,0.01931,0.0,0.00933,0.6353,0.6353,0.6353,,0.67,,False,0.0,0.0,0.0,0.0,0.0,12.3256,-78.2911,0.0045,True,False,Mode(963497464),0.6002,51,0.6344
2.776,THRUST_SEARCH,OPEN_LOOP,0.0151,0.0151,0.02076,0.02076,0.0,0.01153,0.6355,0.6355,0.6355,,0.67,,False,0.0,0.0,0.0,0.0,0.0,12.3256,-78.8731,0.0067,True,True,Mode(963497464),0.6106,51,0.6344
2.787,THRUST_SEARCH,OPEN_LOOP,0.0157,0.01571,0.02085,0.02085,0.0,0.01354,0.6357,0.6357,0.6357,,0.67,,False,0.0,0.0,0.0,0.0,0.0,12.3256,-79.3447,0.0088,True,False,Mode(963497464),0.6214,52,0.6355
2.797,THRUST_SEARCH,OPEN_LOOP,0.0163,0.01629,0.02096,0.02096,0.0,0.01535,0.6359,0.6359,0.6359,,0.67,,False,0.0,0.0,0.0,0.0,0.0,12.3256,-80.3237,0.0015,True,False,Mode(963497464),0.6319,52,0.6355
2.808,THRUST_SEARCH,OPEN_LOOP,0.0168,0.01684,0.02092,0.02092,0.0,0.01693,0.6362,0.6362,0.6362,,0.67,,False,0.0,0.0,0.0,0.0,0.0,12.3256,-80.8758,0.006,True,False,Mode(963497464),0.6429,52,0.6355
2.819,THRUST_SEARCH,OPEN_LOOP,0.0174,0.0174,0.02141,0.02141,0.0,0.01849,0.6364,0.6364,0.6364,,0.67,,False,0.0,0.0,0.0,0.0,0.0,12.3256,-81.4113,0.008,True,False,Mode(963497464),0.6538,52,0.6355
2.83,THRUST_SEARCH,OPEN_LOOP,0.018,0.01797,0.02201,0.02201,0.0,0.02006,0.6366,0.6366,0.6366,,0.67,,False,0.0,0.0,0.0,0.0,0.0,12.3256,-82.4637,0.001,True,True,Mode(963497464),0.6643,52,0.6355
2.841,THRUST_SEARCH,OPEN_LOOP,0.0185,0.01847,0.02142,0.02142,0.0,0.0212,0.6368,0.6368,0.6368,,0.67,,False,0.0,0.0,0.0,0.0,0.0,12.3256,-82.9592,0.003,True,False,Mode(963497464),0.6753,53,0.6366
2.851,THRUST_SEARCH,OPEN_LOOP,0.0189,0.01893,0.02152,0.02152,0.0,0.0222,0.637,0.637,0.637,,0.67,,False,0.0,0.0,0.0,0.0,0.0,12.3256,-83.3644,0.0075,True,False,Mode(963497464),0.6858,53,0.6366
2.862,THRUST_SEARCH,OPEN_LOOP,0.0193,0.01933,0.02097,0.02097,0.0,0.02284,0.6372,0.6372,0.6372,,0.67,,False,0.0,0.0,0.0,0.0,0.0,12.3256,-84.0718,0.001,True,False,Mode(963497464),0.6967,53,0.6366
2.873,THRUST_SEARCH,OPEN_LOOP,0.0196,0.01963,0.02018,0.02018,0.0,0.02305,0.6375,0.6375,0.6375,,0.67,,False,0.0,0.0,0.0,0.0,0.0,12.3256,-84.4033,0.003,True,False,Mode(963497464),0.7077,53,0.6366
2.884,THRUST_SEARCH,OPEN_LOOP,0.0198,0.01984,0.01944,0.01984,0.0,0.02289,0.6377,0.6377,0.6377,,0.67,,False,0.0,0.0,0.0,0.0,0.0,12.3256,-84.7618,0.0045,True,True,Mode(963497464),0.7182,53,0.6366
2.895,THRUST_SEARCH,OPEN_LOOP,0.0201,0.02005,0.01967,0.02005,0.0,0.02275,0.6379,0.6379,0.6379,,0.67,,False,0.0,0.0,0.0,0.0,0.0,12.3256,-85.5859,0.001,True,False,Mode(963497464),0.7292,54,0.6377
2.906,THRUST_SEARCH,OPEN_LOOP,0.0202,0.02018,0.01887,0.02018,0.0,0.02224,0.6381,0.6381,0.6381,,0.67,,False,0.0,0.0,0.0,0.0,0.0,12.3256,-85.8531,0.003,True,False,Mode(963497464),0.7401,54,0.6377
2.917,THRUST_SEARCH,OPEN_LOOP,0.0203,0.02034,0.01943,0.02034,0.0,0.02189,0.6383,0.6383,0.6383,,0.67,,False,0.0,0.0,0.0,0.0,0.0,12.3256,-86.0138,0.005,True,False,Mode(963497464),0.7511,54,0.6377
2.928,THRUST_SEARCH,OPEN_LOOP,0.0204,0.02041,0.01865,0.02041,0.0,0.0212,0.6386,0.6386,0.6386,,0.67,,False,0.0,0.0,0.0,0.0,0.0,12.3256,-86.136,0.0068,True,False,Mode(963497464),0.7622,54,0.6377
2.939,THRUST_SEARCH,OPEN_LOOP,0.0204,0.0204,0.01778,0.0204,0.0,0.02018,0.6388,0.6388,0.6388,,0.67,,False,0.0,0.0,0.0,0.0,0.0,12.3256,-86.3036,0.003,True,True,Mode(963497464),0.7731,54,0.6377
2.95,THRUST_SEARCH,OPEN_LOOP,0.0203,0.02028,0.01665,0.02028,0.0,0.01876,0.639,0.639,0.639,,0.67,,False,0.0,0.0,0.0,0.0,0.0,12.3256,-86.5032,0.005,True,False,Mode(963497464),0.7841,55,0.6388
2.96,THRUST_SEARCH,OPEN_LOOP,0.0201,0.02014,0.0165,0.02014,0.0,0.01734,0.6392,0.6392,0.6392,,0.67,,False,0.0,0.0,0.0,0.0,0.0,12.3256,-86.7818,0.0068,True,False,Mode(963497464),0.795,55,0.6388
2.971,THRUST_SEARCH,OPEN_LOOP,0.0199,0.01992,0.01561,0.01992,0.0,0.01566,0.6394,0.6394,0.6394,,0.67,,False,0.0,0.0,0.0,0.0,0.0,12.3256,-87.1316,0.009,True,False,Mode(963497464),0.806,55,0.6388
2.982,THRUST_SEARCH,OPEN_LOOP,0.0197,0.01966,0.01506,0.01966,0.0,0.01386,0.6396,0.6396,0.6396,,0.67,,False,0.0,0.0,0.0,0.0,0.0,12.3256,-87.7499,0.005,True,False,Mode(963497464),0.8169,55,0.6388
2.993,THRUST_SEARCH,OPEN_LOOP,0.0194,0.01942,0.01532,0.01942,0.0,0.01225,0.6399,0.6399,0.6399,,0.67,,False,0.0,0.0,0.0,0.0,0.0,12.3256,-87.9533,0.007,True,True,Mode(963497464),0.8279,55,0.6388
3.005,THRUST_SEARCH,OPEN_LOOP,0.0191,0.01912,0.01446,0.01912,0.0,0.01042,0.6401,0.6401,0.6401,,0.67,,False,0.0,0.0,0.0,0.0,0.0,12.3256,-88.0637,0.006,True,False,Mode(963497464),0.8394,56,0.6399
3.016,THRUST_SEARCH,OPEN_LOOP,0.0187,0.01873,0.01339,0.01873,0.0,0.00833,0.6403,0.6403,0.6403,,0.67,,False,0.0,0.0,0.0,0.0,0.0,12.3256,-87.9818,0.005,True,False,Mode(963497464),0.8503,56,0.6399
3.026,THRUST_SEARCH,OPEN_LOOP,0.0184,0.01837,0.01358,0.01837,0.0,0.00645,0.6405,0.6405,0.6405,,0.67,,False,0.0,0.0,0.0,0.0,0.0,12.3256,-87.9517,0.0066,True,False,Mode(963497464),0.8609,56,0.6399
3.037,THRUST_SEARCH,OPEN_LOOP,0.018,0.018,0.01335,0.018,0.0,0.00463,0.6407,0.6407,0.6407,,0.67,,False,0.0,0.0,0.0,0.0,0.0,12.3256,-88.1112,0.009,True,False,Mode(963497464),0.8719,56,0.6399
3.048,THRUST_SEARCH,OPEN_LOOP,0.0179,0.01785,0.01583,0.01785,0.0,0.00384,0.641,0.641,0.641,,0.67,,False,0.0,0.0,0.0,0.0,0.0,12.3256,-88.5674,0.0015,True,True,Mode(963497464),0.8824,56,0.6399
3.059,THRUST_SEARCH,OPEN_LOOP,0.0177,0.01775,0.01616,0.01775,0.0,0.00322,0.6412,0.6412,0.6412,,0.67,,False,0.0,0.0,0.0,0.0,0.0,12.3256,-88.7905,0.0061,True,False,Mode(963497464),0.8934,57,0.641
3.069,THRUST_SEARCH,OPEN_LOOP,0.0178,0.01778,0.01772,0.01778,0.0,0.0032,0.6414,0.6414,0.6414,,0.67,,False,0.0,0.0,0.0,0.0,0.0,12.3256,-88.9859,0.0075,True,False,Mode(963497464),0.0,57,0.641
3.08,THRUST_SEARCH,OPEN_LOOP,0.0179,0.01788,0.01859,0.01859,0.0,0.00348,0.6416,0.6416,0.6416,,0.67,,False,0.0,0.0,0.0,0.0,0.0,12.3256,-89.3425,0.001,True,False,Mode(963497464),0.011,57,0.641
3.091,THRUST_SEARCH,OPEN_LOOP,0.018,0.01803,0.01925,0.01925,0.0,0.00395,0.6418,0.6418,0.6418,,0.67,,False,0.0,0.0,0.0,0.0,0.0,12.3256,-89.5879,0.006,True,False,Mode(963497464),0.0219,57,0.641
3.102,THRUST_SEARCH,OPEN_LOOP,0.0182,0.01819,0.01948,0.01948,0.0,0.00445,0.642,0.642,0.642,,0.67,,False,0.0,0.0,0.0,0.0,0.0,12.3256,-89.8817,0.0075,True,True,Mode(963497464),0.0324,57,0.641
3.113,THRUST_SEARCH,OPEN_LOOP,0.0185,0.0185,0.02126,0.02126,0.0,0.00553,0.6423,0.6423,0.6423,,0.67,,False,0.0,0.0,0.0,0.0,0.0,12.3256,-90.6804,0.001,True,False,Mode(963497464),0.0434,58,0.642
3.124,THRUST_SEARCH,OPEN_LOOP,0.0188,0.01878,0.02107,0.02107,0.0,0.00642,0.6425,0.6425,0.6425,,0.67,,False,0.0,0.0,0.0,0.0,0.0,12.3256,-91.1002,0.003,True,False,Mode(963497464),0.0544,58,0.642
3.134,THRUST_SEARCH,OPEN_LOOP,0.0191,0.01905,0.02123,0.02123,0.0,0.00727,0.6427,0.6427,0.6427,,0.67,,False,0.0,0.0,0.0,0.0,0.0,12.3256,-91.4777,0.0045,True,False,Mode(963497464),0.0648,58,0.642
3.145,THRUST_SEARCH,OPEN_LOOP,0.0194,0.01936,0.02183,0.02183,0.0,0.00823,0.6429,0.6429,0.6429,,0.67,,False,0.0,0.0,0.0,0.0,0.0,12.3256,-92.3085,0.001,True,False,Mode(963497464),0.0758,58,0.642
3.156,THRUST_SEARCH,OPEN_LOOP,0.0197,0.01969,0.02222,0.02222,0.0,0.00921,0.6431,0.6431,0.6431,,0.67,,False,0.0,0.0,0.0,0.0,0.0,12.3256,-92.8585,0.003,True,True,Mode(963497464),0.0868,58,0.642
3.167,THRUST_SEARCH,OPEN_LOOP,0.02,0.01997,0.02188,0.02188,0.0,0.00996,0.6433,0.6433,0.6433,,0.67,,False,0.0,0.0,0.0,0.0,0.0,12.3256,-93.4879,0.005,True,False,Mode(963497464),0.0978,59,0.6431
3.178,THRUST_SEARCH,OPEN_LOOP,0.0202,0.02021,0.02162,0.02162,0.0,0.01051,0.6436,0.6436,0.6436,,0.67,,False,0.0,0.0,0.0,0.0,0.0,12.3256,-94.1335,0.007,True,False,Mode(963497464),0.1083,59,0.6431
3.189,THRUST_SEARCH,OPEN_LOOP,0.0205,0.0205,0.02239,0.02239,0.0,0.01124,0.6438,0.6438,0.6438,,0.67,,False,0.0,0.0,0.0,0.0,0.0,12.3256,-95.4435,0.003,True,False,Mode(963497464),0.1193,59,0.6431
3.199,THRUST_SEARCH,OPEN_LOOP,0.0208,0.02076,0.02217,0.02217,0.0,0.01179,0.644,0.644,0.644,,0.67,,False,0.0,0.0,0.0,0.0,0.0,12.3256,-95.9534,0.005,True,False,Mode(963497464),0.1302,59,0.6431
3.21,THRUST_SEARCH,OPEN_LOOP,0.021,0.021,0.02232,0.02232,0.0,0.0123,0.6442,0.6442,0.6442,,0.67,,False,0.0,0.0,0.0,0.0,0.0,12.3256,-96.2507,0.007,True,True,Mode(963497464),0.1407,59,0.6431
3.221,THRUST_SEARCH,OPEN_LOOP,0.0212,0.02122,0.02206,0.02206,0.0,0.01263,0.6444,0.6444,0.6444,,0.67,,False,0.0,0.0,0.0,0.0,0.0,12.3256,-96.4625,0.009,True,False,Mode(963497464),0.1517,60,0.6442
3.231,THRUST_SEARCH,OPEN_LOOP,0.0213,0.02134,0.02125,0.02134,0.0,0.01259,0.6446,0.6446,0.6446,,0.67,,False,0.0,0.0,0.0,0.0,0.0,12.3256,-96.877,0.0045,True,False,Mode(963497464),0.1622,60,0.6442
3.243,THRUST_SEARCH,OPEN_LOOP,0.0214,0.02138,0.02031,0.02138,0.0,0.01217,0.6449,0.6449,0.6449,,0.67,,False,0.0,0.0,0.0,0.0,0.0,12.3256,-97.2428,0.0074,True,False,Mode(963497464),0.1736,60,0.6442
3.254,THRUST_SEARCH,OPEN_LOOP,0.0213,0.02134,0.0195,0.02134,0.0,0.01146,0.6451,0.6451,0.6451,,0.67,,False,0.0,0.0,0.0,0.0,0.0,12.3256,-98.2866,0.001,True,False,Mode(963497464),0.1845,60,0.6442
3.265,THRUST_SEARCH,OPEN_LOOP,0.0213,0.02127,0.01913,0.02127,0.0,0.01062,0.6453,0.6453,0.6453,,0.67,,False,0.0,0.0,0.0,0.0,0.0,12.3256,-98.8169,0.003,True,True,Mode(963497464),0.1955,60,0.6442
3.275,THRUST_SEARCH,OPEN_LOOP,0.0211,0.02111,0.01818,0.02111,0.0,0.00948,0.6455,0.6455,0.6455,,0.67,,False,0.0,0.0,0.0,0.0,0.0,12.3256,-99.1668,0.0045,True,False,Mode(963497464),0.206,61,0.6453
3.286,THRUST_SEARCH,OPEN_LOOP,0.0209,0.02087,0.01728,0.02087,0.0,0.00809,0.6457,0.6457,0.6457,,0.67,,False,0.0,0.0,0.0,0.0,0.0,12.3256,-99.4157,0.0007,True,False,Mode(963497464),0.2167,61,0.6453
3.297,THRUST_SEARCH,OPEN_LOOP,0.0206,0.02061,0.01695,0.02061,0.0,0.00666,0.6459,0.6459,0.6459,,0.67,,False,0.0,0.0,0.0,0.0,0.0,12.3256,-99.415,0.003,True,False,Mode(963497464),0.2277,61,0.6453
3.307,THRUST_SEARCH,OPEN_LOOP,0.0203,0.02028,0.01594,0.02028,0.0,0.00498,0.6461,0.6461,0.6461,,0.67,,False,0.0,0.0,0.0,0.0,0.0,12.3256,-99.4466,0.0045,True,False,Mode(963497464),0.2382,61,0.6453
3.318,THRUST_SEARCH,OPEN_LOOP,0.0199,0.01986,0.01482,0.01986,0.0,0.00302,0.6464,0.6464,0.6464,,0.67,,False,0.0,0.0,0.0,0.0,0.0,12.3256,-99.4159,0.0069,True,True,Mode(963497464),0.2491,61,0.6453
3.33,THRUST_SEARCH,OPEN_LOOP,0.0194,0.01942,0.01439,0.01942,0.0,0.00107,0.6466,0.6466,0.6466,,0.67,,False,0.0,0.0,0.0,0.0,0.0,12.3256,-99.4514,0.009,True,False,Mode(963497464),0.2601,62,0.6464
3.34,THRUST_SEARCH,OPEN_LOOP,0.0189,0.01894,0.01368,0.01894,0.0,-0.00098,0.6468,0.6468,0.6468,,0.67,,False,0.0,0.0,0.0,0.0,0.0,12.3256,-99.8847,0.002,True,False,Mode(963497464),0.271,62,0.6464
